{"municipality":"01332","name":"松前郡福島町","prefecture":"北海道","source":{"dataset":"frogcat/japan-small-area","census":"平成27年国勢調査 小地域（e-Stat 統計LOD）","license":"MIT（リポジトリ）／政府統計の総合窓口(e-Stat)の利用規約（元データ・出典表記必要）","fetched":"2026-07-06"},"towns":[{"code":"013320010","name":"字三岳","lat":41.508693,"lng":140.257699},{"code":"013320020","name":"字月崎","lat":41.486439,"lng":140.261715},{"code":"013320030","name":"字福島","lat":41.486087,"lng":140.236133},{"code":"013320040","name":"字日向","lat":41.47174,"lng":140.255861},{"code":"013320050","name":"字白符","lat":41.472097,"lng":140.217564},{"code":"013320060","name":"字宮歌","lat":41.456203,"lng":140.230038},{"code":"013320070","name":"字豊浜","lat":41.450418,"lng":140.234696},{"code":"013320080","name":"字吉岡","lat":41.447682,"lng":140.224809},{"code":"013320090","name":"字美山","lat":41.44531,"lng":140.205037},{"code":"013320100","name":"字館崎","lat":41.440928,"lng":140.225318},{"code":"013320110","name":"字吉野","lat":41.433268,"lng":140.217835},{"code":"013320120","name":"字松浦","lat":41.418708,"lng":140.211815},{"code":"013320130","name":"字千軒","lat":41.565683,"lng":140.24447},{"code":"013320140","name":"字岩部","lat":41.522513,"lng":140.358113},{"code":"013320150","name":"字日の出","lat":41.513081,"lng":140.302227},{"code":"013320160","name":"字浦和","lat":41.494317,"lng":140.295837},{"code":"013320170","name":"字塩釜","lat":41.506359,"lng":140.275239},{"code":"013320180","name":"字檜倉","lat":41.517255,"lng":140.210503}]}
