{"municipality":"01337","name":"亀田郡七飯町","prefecture":"北海道","source":{"dataset":"frogcat/japan-small-area","census":"平成27年国勢調査 小地域（e-Stat 統計LOD）","license":"MIT（リポジトリ）／政府統計の総合窓口(e-Stat)の利用規約（元データ・出典表記必要）","fetched":"2026-07-06"},"towns":[{"code":"01337001001","name":"本町１丁目","lat":41.890802,"lng":140.686793},{"code":"01337001002","name":"本町２丁目","lat":41.896264,"lng":140.683174},{"code":"01337001003","name":"本町３丁目","lat":41.890904,"lng":140.690948},{"code":"01337001004","name":"本町４丁目","lat":41.896916,"lng":140.688611},{"code":"01337001005","name":"本町５丁目","lat":41.893105,"lng":140.695574},{"code":"01337001006","name":"本町６丁目","lat":41.898016,"lng":140.693194},{"code":"01337001007","name":"本町７丁目","lat":41.895451,"lng":140.703258},{"code":"01337001008","name":"本町８丁目","lat":41.898129,"lng":140.699387},{"code":"01337002101","name":"桜町１丁目","lat":41.90116,"lng":140.686552},{"code":"01337002102","name":"桜町２丁目","lat":41.902218,"lng":140.689445},{"code":"013370022","name":"字桜町","lat":41.911283,"lng":140.71997},{"code":"01337003101","name":"鳴川１丁目","lat":41.881118,"lng":140.698947},{"code":"01337003102","name":"鳴川２丁目","lat":41.885388,"lng":140.692247},{"code":"01337003103","name":"鳴川３丁目","lat":41.8867,"lng":140.695739},{"code":"01337003104","name":"鳴川４丁目","lat":41.885366,"lng":140.70693},{"code":"01337003105","name":"鳴川５丁目","lat":41.8912,"lng":140.702274},{"code":"013370032","name":"字鳴川町","lat":41.898185,"lng":140.720868},{"code":"01337004101","name":"緑町１丁目","lat":41.878347,"lng":140.695223},{"code":"01337004102","name":"緑町２丁目","lat":41.881216,"lng":140.690021},{"code":"01337004103","name":"緑町３丁目","lat":41.88669,"lng":140.685865},{"code":"013370042","name":"字緑町","lat":41.876951,"lng":140.691101},{"code":"013370050","name":"字飯田町","lat":41.894748,"lng":140.675151},{"code":"01337006101","name":"大中山１丁目","lat":41.871575,"lng":140.709109},{"code":"01337006102","name":"大中山２丁目","lat":41.868371,"lng":140.715605},{"code":"01337006103","name":"大中山３丁目","lat":41.870651,"lng":140.71939},{"code":"01337006104","name":"大中山４丁目","lat":41.874639,"lng":140.712499},{"code":"01337006105","name":"大中山５丁目","lat":41.877521,"lng":140.708455},{"code":"01337006106","name":"大中山６丁目","lat":41.873348,"lng":140.722792},{"code":"01337006107","name":"大中山７丁目","lat":41.879204,"lng":140.714338},{"code":"01337006108","name":"大中山８丁目","lat":41.880895,"lng":140.718396},{"code":"013370062","name":"字大中山","lat":41.893091,"lng":140.743855},{"code":"01337007101","name":"大川１丁目","lat":41.858165,"lng":140.718068},{"code":"01337007102","name":"大川２丁目","lat":41.852671,"lng":140.725346},{"code":"01337007103","name":"大川３丁目","lat":41.855289,"lng":140.724227},{"code":"01337007104","name":"大川４丁目","lat":41.85848,"lng":140.722577},{"code":"01337007105","name":"大川５丁目","lat":41.862042,"lng":140.72133},{"code":"01337007106","name":"大川６丁目","lat":41.865014,"lng":140.720309},{"code":"01337007107","name":"大川７丁目","lat":41.85483,"lng":140.731955},{"code":"01337007108","name":"大川８丁目","lat":41.857492,"lng":140.730837},{"code":"01337007109","name":"大川９丁目","lat":41.860726,"lng":140.729159},{"code":"01337007110","name":"大川１０丁目","lat":41.865187,"lng":140.727402},{"code":"01337007111","name":"大川１１丁目","lat":41.868701,"lng":140.726215},{"code":"013370072","name":"字大川","lat":41.896406,"lng":140.763192},{"code":"013370080","name":"字中野","lat":41.854909,"lng":140.708863},{"code":"013370090","name":"字中島","lat":41.867262,"lng":140.70246},{"code":"013370100","name":"字豊田","lat":41.858249,"lng":140.689731},{"code":"013370110","name":"字鶴野","lat":41.877672,"lng":140.677482},{"code":"013370120","name":"字上藤城","lat":41.923981,"lng":140.694117},{"code":"013370130","name":"字藤城","lat":41.931259,"lng":140.67692},{"code":"013370140","name":"字峠下","lat":41.938579,"lng":140.657847},{"code":"013370150","name":"字仁山","lat":41.940116,"lng":140.6319},{"code":"013370160","name":"字大沼町","lat":41.978243,"lng":140.676171},{"code":"013370170","name":"字上軍川","lat":41.955712,"lng":140.713686},{"code":"013370180","name":"字軍川","lat":41.976838,"lng":140.731972},{"code":"013370190","name":"字東大沼","lat":41.988779,"lng":140.741091},{"code":"013370200","name":"字西大沼","lat":41.979816,"lng":140.619252}]}
