{"municipality":"01345","name":"茅部郡森町","prefecture":"北海道","source":{"dataset":"frogcat/japan-small-area","census":"平成27年国勢調査 小地域（e-Stat 統計LOD）","license":"MIT（リポジトリ）／政府統計の総合窓口(e-Stat)の利用規約（元データ・出典表記必要）","fetched":"2026-07-06"},"towns":[{"code":"013450010","name":"字赤井川","lat":42.014636,"lng":140.644045},{"code":"013450020","name":"字駒ケ岳","lat":42.03038,"lng":140.602145},{"code":"013450030","name":"字尾白内町","lat":42.090746,"lng":140.632004},{"code":"013450040","name":"字東森町","lat":42.105441,"lng":140.598539},{"code":"013450050","name":"字港町","lat":42.109429,"lng":140.596554},{"code":"013450060","name":"字新川町","lat":42.10707,"lng":140.584801},{"code":"013450070","name":"字森川町","lat":42.090153,"lng":140.578349},{"code":"013450080","name":"字常盤町","lat":42.100462,"lng":140.590815},{"code":"013450090","name":"字白川","lat":42.084242,"lng":140.607527},{"code":"013450100","name":"字姫川","lat":42.063621,"lng":140.571968},{"code":"013450110","name":"字清澄町","lat":42.101131,"lng":140.574058},{"code":"013450120","name":"字御幸町","lat":42.106416,"lng":140.577143},{"code":"013450130","name":"字本町","lat":42.108225,"lng":140.571534},{"code":"013450140","name":"字上台町","lat":42.09897,"lng":140.566798},{"code":"013450150","name":"字霞台","lat":42.037077,"lng":140.519831},{"code":"013450160","name":"字栗ケ丘","lat":42.048873,"lng":140.480269},{"code":"013450170","name":"字鳥崎町","lat":42.106415,"lng":140.560653},{"code":"013450180","name":"字富士見町","lat":42.106351,"lng":140.546691},{"code":"013450190","name":"字鷲ノ木町","lat":42.111016,"lng":140.524301},{"code":"013450200","name":"字蛯谷町","lat":42.123186,"lng":140.508085},{"code":"013450210","name":"字本茅部町","lat":42.139035,"lng":140.492302},{"code":"013450220","name":"字石倉町","lat":42.157951,"lng":140.46183},{"code":"013450230","name":"字濁川","lat":42.109404,"lng":140.446501},{"code":"013450240","name":"字三岱","lat":42.135657,"lng":140.415166},{"code":"013450250","name":"字栄町","lat":42.094907,"lng":140.597621},{"code":"013450260","name":"字清滝","lat":42.108829,"lng":140.479634},{"code":"013450270","name":"字桂川","lat":42.093434,"lng":140.501981},{"code":"01345040001","name":"字砂原西１丁目","lat":42.117085,"lng":140.633868},{"code":"01345040002","name":"字砂原西２丁目","lat":42.117194,"lng":140.63954},{"code":"01345040003","name":"字砂原西３丁目","lat":42.104842,"lng":140.649937},{"code":"01345040004","name":"字砂原西４丁目","lat":42.119475,"lng":140.654974},{"code":"01345040005","name":"字砂原西５丁目","lat":42.128426,"lng":140.661734},{"code":"01345041001","name":"字砂原１丁目","lat":42.1236,"lng":140.663224},{"code":"01345041002","name":"字砂原２丁目","lat":42.09054,"lng":140.690048},{"code":"01345041003","name":"字砂原３丁目","lat":42.116802,"lng":140.678388},{"code":"01345041004","name":"字砂原４丁目","lat":42.117849,"lng":140.690258},{"code":"01345041005","name":"字砂原５丁目","lat":42.118254,"lng":140.709965},{"code":"01345041006","name":"字砂原６丁目","lat":42.13222,"lng":140.711305},{"code":"01345041010","name":"字砂原１丁目","lat":42.124373,"lng":140.666517},{"code":"01345042001","name":"字砂原東１丁目","lat":42.124727,"lng":140.71299},{"code":"01345042003","name":"字砂原東３丁目","lat":42.119404,"lng":140.733647},{"code":"01345042004","name":"字砂原東４丁目","lat":42.111315,"lng":140.752113},{"code":"01345042005","name":"字砂原東５丁目","lat":42.098714,"lng":140.741582},{"code":"01345042010","name":"字砂原東２丁目","lat":42.119517,"lng":140.730156}]}
