{"municipality":"01403","name":"古宇郡泊村","prefecture":"北海道","source":{"dataset":"frogcat/japan-small-area","census":"平成27年国勢調査 小地域（e-Stat 統計LOD）","license":"MIT（リポジトリ）／政府統計の総合窓口(e-Stat)の利用規約（元データ・出典表記必要）","fetched":"2026-07-06"},"towns":[{"code":"014030010","name":"大字泊村","lat":43.093819,"lng":140.512976},{"code":"014030020","name":"大字茅沼村","lat":43.076465,"lng":140.530293},{"code":"014030030","name":"大字堀株村","lat":43.070217,"lng":140.543891},{"code":"014030040","name":"大字興志内村","lat":43.126913,"lng":140.489063},{"code":"014030050","name":"大字盃村","lat":43.123444,"lng":140.520602}]}
