{"municipality":"01517","name":"礼文郡礼文町","prefecture":"北海道","source":{"dataset":"frogcat/japan-small-area","census":"平成27年国勢調査 小地域（e-Stat 統計LOD）","license":"MIT（リポジトリ）／政府統計の総合窓口(e-Stat)の利用規約（元データ・出典表記必要）","fetched":"2026-07-06"},"towns":[{"code":"01517001001","name":"大字船泊村字ウヱンナイ","lat":45.353982,"lng":141.00564},{"code":"01517001002","name":"大字船泊村字メシコニ","lat":45.386126,"lng":140.996742},{"code":"01517001003","name":"大字船泊村西上泊","lat":45.405889,"lng":141.001091},{"code":"01517001004","name":"大字船泊村鉄府","lat":45.42563,"lng":140.991427},{"code":"01517001005","name":"大字船泊村江戸屋","lat":45.442279,"lng":140.979169},{"code":"01517001006","name":"大字船泊村鮑古丹","lat":45.448869,"lng":140.976062},{"code":"01517001007","name":"大字船泊村須古頓","lat":45.457811,"lng":140.969052},{"code":"01517001008","name":"大字船泊村海馬島","lat":45.477297,"lng":140.966637},{"code":"01517001009","name":"大字船泊村字シラハマ","lat":45.454573,"lng":140.975634},{"code":"01517001010","name":"大字船泊村字ハマナカ","lat":45.423825,"lng":141.00841},{"code":"01517001011","name":"大字船泊村大備","lat":45.433296,"lng":141.031518},{"code":"01517001012","name":"大字船泊村字沼ノ沢","lat":45.43217,"lng":141.037671},{"code":"01517001013","name":"大字船泊村五番地","lat":45.451104,"lng":141.036201},{"code":"01517001014","name":"大字船泊村幌泊","lat":45.449782,"lng":141.043187},{"code":"01517001015","name":"大字船泊村字タカヤマ","lat":45.4321,"lng":141.05267},{"code":"01517001016","name":"大字船泊村上泊","lat":45.412362,"lng":141.037983},{"code":"01517001017","name":"大字船泊村赤岩","lat":45.394038,"lng":141.03141},{"code":"01517006001","name":"大字香深村字ナイヲロ","lat":45.383321,"lng":141.036284},{"code":"01517006002","name":"大字香深村字キトウス","lat":45.360557,"lng":141.034266},{"code":"01517006003","name":"大字香深村字カフカイ","lat":45.337669,"lng":141.039803},{"code":"01517006004","name":"大字香深村手然","lat":45.321819,"lng":141.045937},{"code":"01517006005","name":"大字香深村津軽町","lat":45.314176,"lng":141.046287},{"code":"01517006006","name":"大字香深村会所前","lat":45.309768,"lng":141.042595},{"code":"01517006007","name":"大字香深村入舟","lat":45.306815,"lng":141.038374},{"code":"01517006008","name":"大字香深村字シャクニン","lat":45.298077,"lng":141.040104},{"code":"01517006009","name":"大字香深村差閉","lat":45.287517,"lng":141.040566},{"code":"01517006010","name":"大字香深村奮部","lat":45.276901,"lng":141.041554},{"code":"01517006011","name":"大字香深村知床","lat":45.282171,"lng":141.028422},{"code":"01517006012","name":"大字香深村字モトチ","lat":45.319826,"lng":141.024331}]}
