{"municipality":"01516","name":"天塩郡豊富町","prefecture":"北海道","source":{"dataset":"frogcat/japan-small-area","census":"平成27年国勢調査 小地域（e-Stat 統計LOD）","license":"MIT（リポジトリ）／政府統計の総合窓口(e-Stat)の利用規約（元データ・出典表記必要）","fetched":"2026-07-06"},"towns":[{"code":"015160010","name":"駅前通","lat":45.105081,"lng":141.774449},{"code":"015160020","name":"字温泉","lat":45.071717,"lng":141.839431},{"code":"015160030","name":"字福永","lat":45.11869,"lng":141.807067},{"code":"015160040","name":"字兜沼","lat":45.220659,"lng":141.69943},{"code":"015160050","name":"字瑞穂","lat":45.176988,"lng":141.695545},{"code":"015160060","name":"字新生","lat":45.073296,"lng":141.782487},{"code":"01516007001","name":"大通り１丁目","lat":45.095277,"lng":141.776565},{"code":"01516007002","name":"大通り２丁目","lat":45.098723,"lng":141.777364},{"code":"01516007003","name":"大通り３丁目","lat":45.099843,"lng":141.77716},{"code":"01516007004","name":"大通り４丁目","lat":45.101207,"lng":141.777061},{"code":"01516007005","name":"大通り５丁目","lat":45.101989,"lng":141.776181},{"code":"01516007006","name":"大通り６丁目","lat":45.103008,"lng":141.776792},{"code":"01516007007","name":"大通り７丁目","lat":45.103492,"lng":141.775925},{"code":"01516007008","name":"大通り８丁目","lat":45.104475,"lng":141.77641},{"code":"01516007009","name":"大通り１１丁目","lat":45.108528,"lng":141.774087},{"code":"01516007010","name":"大通り１２丁目","lat":45.10994,"lng":141.770465},{"code":"01516008001","name":"西一条２丁目","lat":45.098662,"lng":141.775177},{"code":"01516008002","name":"西一条３丁目","lat":45.099777,"lng":141.774336},{"code":"01516008003","name":"西一条４丁目","lat":45.100894,"lng":141.77404},{"code":"01516008004","name":"西一条５丁目","lat":45.102351,"lng":141.774556},{"code":"01516008005","name":"西一条１０丁目","lat":45.106471,"lng":141.772667},{"code":"015160090","name":"西二条","lat":45.101785,"lng":141.773133},{"code":"01516010001","name":"西三条４丁目","lat":45.100522,"lng":141.770597},{"code":"01516010002","name":"西三条５丁目","lat":45.101742,"lng":141.771591},{"code":"01516010003","name":"西三条６丁目","lat":45.103448,"lng":141.771707},{"code":"01516010004","name":"西三条１０丁目","lat":45.105576,"lng":141.768565},{"code":"01516011001","name":"西四条５丁目","lat":45.101458,"lng":141.768589},{"code":"01516011002","name":"西四条６丁目","lat":45.103131,"lng":141.768812},{"code":"015160120","name":"西五条","lat":45.103095,"lng":141.767141},{"code":"01516013001","name":"東一条１丁目","lat":45.097983,"lng":141.779923},{"code":"01516013002","name":"東一条２丁目","lat":45.098916,"lng":141.779964},{"code":"01516013003","name":"東一条３丁目","lat":45.100091,"lng":141.779774},{"code":"01516013004","name":"東一条４丁目","lat":45.101183,"lng":141.779527},{"code":"01516013005","name":"東一条６丁目","lat":45.102967,"lng":141.779193},{"code":"01516013006","name":"東一条８丁目","lat":45.104589,"lng":141.778792},{"code":"01516013007","name":"東一条９丁目","lat":45.107116,"lng":141.778073},{"code":"01516014001","name":"東二条２丁目","lat":45.09865,"lng":141.783237},{"code":"01516014002","name":"東二条３丁目","lat":45.100328,"lng":141.78223},{"code":"01516014003","name":"東二条５丁目","lat":45.102176,"lng":141.780905},{"code":"01516015001","name":"東三条４丁目","lat":45.101399,"lng":141.782339},{"code":"01516015002","name":"東三条５丁目","lat":45.102031,"lng":141.783314},{"code":"01516015003","name":"東三条６丁目","lat":45.103201,"lng":141.781366},{"code":"01516015004","name":"東三条７丁目","lat":45.105349,"lng":141.78196},{"code":"01516016001","name":"東四条３丁目","lat":45.100451,"lng":141.784907},{"code":"01516016002","name":"東四条４丁目","lat":45.103007,"lng":141.785445},{"code":"01516017001","name":"東六条１丁目","lat":45.096379,"lng":141.786124},{"code":"01516017002","name":"東六条２丁目","lat":45.099406,"lng":141.78586},{"code":"015160180","name":"字豊幌","lat":45.14943,"lng":141.924751},{"code":"015160190","name":"字東豊富","lat":45.088243,"lng":141.809157},{"code":"015160200","name":"字本流","lat":45.089856,"lng":141.944254},{"code":"015160210","name":"字有明","lat":45.168459,"lng":141.875161},{"code":"015160220","name":"字修徳","lat":45.200019,"lng":141.776323},{"code":"015160230","name":"字徳満","lat":45.147193,"lng":141.756352},{"code":"015160240","name":"字幌加","lat":45.168231,"lng":141.786969},{"code":"015160250","name":"字目梨別","lat":45.179607,"lng":141.819113},{"code":"015160260","name":"字芦川","lat":45.19485,"lng":141.737528},{"code":"015160270","name":"字開源","lat":45.242965,"lng":141.752611},{"code":"015160280","name":"字兜沼西","lat":45.231691,"lng":141.68885},{"code":"015160290","name":"字兜沼東","lat":45.220509,"lng":141.713765},{"code":"015160300","name":"字沼向","lat":45.215795,"lng":141.676799},{"code":"015160310","name":"字落合","lat":45.145858,"lng":141.711317},{"code":"015160320","name":"字清明","lat":45.172397,"lng":141.616693},{"code":"015160330","name":"字豊里","lat":45.151902,"lng":141.612547},{"code":"015160340","name":"字豊栄","lat":45.168362,"lng":141.648621},{"code":"015160350","name":"字豊田","lat":45.200444,"lng":141.6377},{"code":"015160360","name":"字西豊富","lat":45.105939,"lng":141.706892},{"code":"015160370","name":"字豊徳","lat":45.094991,"lng":141.657423},{"code":"015160380","name":"字稚咲内","lat":45.086566,"lng":141.638308}]}
