{"municipality":"01633","name":"河東郡上士幌町","prefecture":"北海道","source":{"dataset":"frogcat/japan-small-area","census":"平成27年国勢調査 小地域（e-Stat 統計LOD）","license":"MIT（リポジトリ）／政府統計の総合窓口(e-Stat)の利用規約（元データ・出典表記必要）","fetched":"2026-07-06"},"towns":[{"code":"01633001001","name":"字上士幌基線","lat":43.221969,"lng":143.269041},{"code":"01633001002","name":"字上士幌東１線","lat":43.239931,"lng":143.281649},{"code":"01633001003","name":"字上士幌東２線","lat":43.263927,"lng":143.294279},{"code":"01633001004","name":"字上士幌東３線","lat":43.257752,"lng":143.30069},{"code":"01633001005","name":"字上士幌東４線","lat":43.258384,"lng":143.307964},{"code":"01633001006","name":"字上士幌東５線","lat":43.255893,"lng":143.314234},{"code":"01633001007","name":"字上士幌東６線","lat":43.254342,"lng":143.319},{"code":"01633001008","name":"字上士幌清水谷","lat":43.32251,"lng":143.305664},{"code":"016330040","name":"字居辺","lat":43.251256,"lng":143.363211},{"code":"016330050","name":"字上音更","lat":43.279356,"lng":143.200788},{"code":"016330060","name":"字黒石平","lat":43.340699,"lng":143.247393},{"code":"016330070","name":"字ぬかびら源泉郷","lat":43.391421,"lng":143.154506},{"code":"016330080","name":"字幌加","lat":43.460697,"lng":143.134355},{"code":"016330090","name":"字三股","lat":43.536475,"lng":143.123089}]}
