{"municipality":"01637","name":"河西郡芽室町","prefecture":"北海道","source":{"dataset":"frogcat/japan-small-area","census":"平成27年国勢調査 小地域（e-Stat 統計LOD）","license":"MIT（リポジトリ）／政府統計の総合窓口(e-Stat)の利用規約（元データ・出典表記必要）","fetched":"2026-07-06"},"towns":[{"code":"01637007001","name":"西五条１丁目","lat":42.909812,"lng":143.040043},{"code":"01637007002","name":"西五条２丁目","lat":42.910761,"lng":143.040273},{"code":"01637007003","name":"西五条３丁目","lat":42.911876,"lng":143.04014},{"code":"01637007004","name":"西五条４丁目","lat":42.913021,"lng":143.039971},{"code":"01637007005","name":"西五条５丁目","lat":42.914467,"lng":143.039705},{"code":"01637007006","name":"西五条６丁目","lat":42.915912,"lng":143.039561},{"code":"01637007007","name":"西五条７丁目","lat":42.917169,"lng":143.03939},{"code":"01637007008","name":"西五条８丁目","lat":42.918281,"lng":143.039177},{"code":"01637007009","name":"西五条９丁目","lat":42.91948,"lng":143.039034},{"code":"01637008001","name":"西四条１丁目","lat":42.909778,"lng":143.042033},{"code":"01637008002","name":"西四条２丁目","lat":42.910865,"lng":143.041846},{"code":"01637008003","name":"西四条３丁目","lat":42.911983,"lng":143.041693},{"code":"01637008004","name":"西四条４丁目","lat":42.913162,"lng":143.041552},{"code":"01637008005","name":"西四条５丁目","lat":42.914573,"lng":143.041297},{"code":"01637008006","name":"西四条６丁目","lat":42.91587,"lng":143.041142},{"code":"01637008007","name":"西四条７丁目","lat":42.917109,"lng":143.040977},{"code":"01637008008","name":"西四条８丁目","lat":42.918211,"lng":143.040818},{"code":"01637008009","name":"西四条９丁目","lat":42.919422,"lng":143.040648},{"code":"01637009001","name":"西三条１丁目","lat":42.909936,"lng":143.043889},{"code":"01637009002","name":"西三条２丁目","lat":42.910988,"lng":143.043572},{"code":"01637009003","name":"西三条３丁目","lat":42.912108,"lng":143.043389},{"code":"01637009004","name":"西三条４丁目","lat":42.913338,"lng":143.043451},{"code":"01637009005","name":"西三条５丁目","lat":42.914734,"lng":143.043249},{"code":"01637009006","name":"西三条６丁目","lat":42.916031,"lng":143.043434},{"code":"01637009007","name":"西三条７丁目","lat":42.917247,"lng":143.043283},{"code":"01637010001","name":"西二条１丁目","lat":42.910029,"lng":143.045396},{"code":"01637010002","name":"西二条２丁目","lat":42.911082,"lng":143.045023},{"code":"01637010003","name":"西二条３丁目","lat":42.912208,"lng":143.044838},{"code":"01637010004","name":"西二条４丁目","lat":42.913439,"lng":143.044868},{"code":"01637010005","name":"西二条５丁目","lat":42.914842,"lng":143.044708},{"code":"01637010006","name":"西二条６丁目","lat":42.916306,"lng":143.044867},{"code":"01637010007","name":"西二条７丁目","lat":42.917552,"lng":143.044681},{"code":"01637010008","name":"西二条８丁目","lat":42.919062,"lng":143.043214},{"code":"01637010009","name":"西二条９丁目","lat":42.919857,"lng":143.044361},{"code":"01637011001","name":"西一条１丁目","lat":42.910134,"lng":143.046861},{"code":"01637011002","name":"西一条２丁目","lat":42.911204,"lng":143.046735},{"code":"01637011003","name":"西一条３丁目","lat":42.912334,"lng":143.046557},{"code":"01637011004","name":"西一条４丁目","lat":42.913557,"lng":143.046377},{"code":"01637011005","name":"西一条５丁目","lat":42.914951,"lng":143.046207},{"code":"01637011006","name":"西一条６丁目","lat":42.916358,"lng":143.045999},{"code":"01637011007","name":"西一条７丁目","lat":42.917574,"lng":143.045815},{"code":"01637011008","name":"西一条８丁目","lat":42.918703,"lng":143.045667},{"code":"01637011009","name":"西一条９丁目","lat":42.919931,"lng":143.045503},{"code":"01637012001","name":"本通１丁目","lat":42.910241,"lng":143.048388},{"code":"01637012002","name":"本通２丁目","lat":42.911307,"lng":143.04822},{"code":"01637012003","name":"本通３丁目","lat":42.912446,"lng":143.048092},{"code":"01637012004","name":"本通４丁目","lat":42.913669,"lng":143.047925},{"code":"01637012005","name":"本通５丁目","lat":42.915056,"lng":143.047725},{"code":"01637012006","name":"本通６丁目","lat":42.916429,"lng":143.047505},{"code":"01637012007","name":"本通７丁目","lat":42.917622,"lng":143.047411},{"code":"01637012008","name":"本通８丁目","lat":42.919317,"lng":143.047667},{"code":"01637012009","name":"本通９丁目","lat":42.92,"lng":143.046652},{"code":"01637013001","name":"東一条１丁目","lat":42.910358,"lng":143.049939},{"code":"01637013002","name":"東一条２丁目","lat":42.911422,"lng":143.049769},{"code":"01637013003","name":"東一条３丁目","lat":42.912551,"lng":143.049606},{"code":"01637013004","name":"東一条４丁目","lat":42.913778,"lng":143.049444},{"code":"01637013005","name":"東一条５丁目","lat":42.91516,"lng":143.049234},{"code":"01637013006","name":"東一条６丁目","lat":42.916459,"lng":143.049079},{"code":"01637013007","name":"東一条７丁目","lat":42.917659,"lng":143.048927},{"code":"01637013008","name":"東一条８丁目","lat":42.919607,"lng":143.049806},{"code":"01637013010","name":"東一条１０丁目","lat":42.921673,"lng":143.048852},{"code":"01637014001","name":"東二条１丁目","lat":42.910442,"lng":143.05142},{"code":"01637014002","name":"東二条２丁目","lat":42.911524,"lng":143.051285},{"code":"01637014003","name":"東二条３丁目","lat":42.912653,"lng":143.051143},{"code":"01637014004","name":"東二条４丁目","lat":42.913884,"lng":143.050953},{"code":"01637014005","name":"東二条５丁目","lat":42.915272,"lng":143.050758},{"code":"01637014006","name":"東二条６丁目","lat":42.916554,"lng":143.050574},{"code":"01637014007","name":"東二条７丁目","lat":42.917754,"lng":143.050425},{"code":"01637014010","name":"東二条１０丁目","lat":42.921727,"lng":143.049977},{"code":"01637015001","name":"東三条１丁目","lat":42.910545,"lng":143.052922},{"code":"01637015002","name":"東三条２丁目","lat":42.911625,"lng":143.052793},{"code":"01637015003","name":"東三条３丁目","lat":42.91275,"lng":143.052641},{"code":"01637015004","name":"東三条４丁目","lat":42.914024,"lng":143.052874},{"code":"01637015005","name":"東三条５丁目","lat":42.915388,"lng":143.05234},{"code":"01637015006","name":"東三条６丁目","lat":42.916728,"lng":143.052147},{"code":"01637015007","name":"東三条７丁目","lat":42.91791,"lng":143.051915},{"code":"01637015008","name":"東三条８丁目","lat":42.919761,"lng":143.052077},{"code":"01637015010","name":"東三条１０丁目","lat":42.921877,"lng":143.051812},{"code":"01637016001","name":"東四条１丁目","lat":42.91057,"lng":143.055013},{"code":"01637016002","name":"東四条２丁目","lat":42.911734,"lng":143.054325},{"code":"01637016003","name":"東四条３丁目","lat":42.912862,"lng":143.054113},{"code":"01637016004","name":"東四条４丁目","lat":42.914144,"lng":143.054353},{"code":"01637016005","name":"東四条５丁目","lat":42.915503,"lng":143.053828},{"code":"01637016006","name":"東四条６丁目","lat":42.91678,"lng":143.053645},{"code":"01637016007","name":"東四条７丁目","lat":42.917964,"lng":143.05346},{"code":"01637016008","name":"東四条８丁目","lat":42.919268,"lng":143.053618},{"code":"01637016009","name":"東四条９丁目","lat":42.920504,"lng":143.053509},{"code":"01637016010","name":"東四条１０丁目","lat":42.922039,"lng":143.05339},{"code":"01637017001","name":"東五条１丁目","lat":42.911034,"lng":143.055792},{"code":"01637017002","name":"東五条２丁目","lat":42.911846,"lng":143.055817},{"code":"01637017003","name":"東五条３丁目","lat":42.912959,"lng":143.055629},{"code":"01637017004","name":"東五条４丁目","lat":42.914218,"lng":143.055483},{"code":"01637017005","name":"東五条５丁目","lat":42.915601,"lng":143.055263},{"code":"01637017006","name":"東五条６丁目","lat":42.916862,"lng":143.055108},{"code":"01637017007","name":"東五条７丁目","lat":42.918083,"lng":143.054947},{"code":"01637017008","name":"東五条８丁目","lat":42.919354,"lng":143.054774},{"code":"01637017009","name":"東五条９丁目","lat":42.92059,"lng":143.054609},{"code":"01637017010","name":"東五条１０丁目","lat":42.922363,"lng":143.054411},{"code":"01637018001","name":"東六条１丁目","lat":42.910911,"lng":143.057992},{"code":"01637018002","name":"東六条２丁目","lat":42.911982,"lng":143.05774},{"code":"01637018003","name":"東六条３丁目","lat":42.913104,"lng":143.057598},{"code":"01637018004","name":"東六条４丁目","lat":42.914347,"lng":143.057435},{"code":"01637018005","name":"東六条５丁目","lat":42.915741,"lng":143.057249},{"code":"01637018006","name":"東六条６丁目","lat":42.916988,"lng":143.057108},{"code":"01637018007","name":"東六条７丁目","lat":42.918261,"lng":143.056922},{"code":"01637018008","name":"東六条８丁目","lat":42.919493,"lng":143.056743},{"code":"01637018009","name":"東六条９丁目","lat":42.920734,"lng":143.056603},{"code":"01637018010","name":"東六条１０丁目","lat":42.922606,"lng":143.056638},{"code":"01637019001","name":"東七条１丁目","lat":42.910974,"lng":143.06019},{"code":"01637019002","name":"東七条２丁目","lat":42.912152,"lng":143.059941},{"code":"01637019003","name":"東七条３丁目","lat":42.913287,"lng":143.059815},{"code":"01637019004","name":"東七条４丁目","lat":42.914334,"lng":143.0598},{"code":"01637019005","name":"東七条５丁目","lat":42.915621,"lng":143.059355},{"code":"01637019006","name":"東七条６丁目","lat":42.917191,"lng":143.059123},{"code":"01637019007","name":"東七条７丁目","lat":42.918486,"lng":143.059002},{"code":"01637019008","name":"東七条８丁目","lat":42.919652,"lng":143.058797},{"code":"01637019009","name":"東七条９丁目","lat":42.920871,"lng":143.058622},{"code":"01637019010","name":"東七条１０丁目","lat":42.922753,"lng":143.058814},{"code":"01637020003","name":"東八条３丁目","lat":42.913368,"lng":143.061177},{"code":"01637020004","name":"東八条４丁目","lat":42.914856,"lng":143.061577},{"code":"01637020005","name":"東八条５丁目","lat":42.91605,"lng":143.060872},{"code":"01637020006","name":"東八条６丁目","lat":42.917308,"lng":143.060786},{"code":"01637020007","name":"東八条７丁目","lat":42.918566,"lng":143.060627},{"code":"01637020008","name":"東八条８丁目","lat":42.919808,"lng":143.060439},{"code":"01637020009","name":"東八条９丁目","lat":42.920995,"lng":143.060255},{"code":"01637020010","name":"東八条１０丁目","lat":42.922872,"lng":143.060194},{"code":"01637021005","name":"東九条５丁目","lat":42.916233,"lng":143.062436},{"code":"01637021006","name":"東九条６丁目","lat":42.917395,"lng":143.062117},{"code":"01637021007","name":"東九条７丁目","lat":42.918624,"lng":143.061925},{"code":"01637021008","name":"東九条８丁目","lat":42.919876,"lng":143.061762},{"code":"01637021009","name":"東九条９丁目","lat":42.921081,"lng":143.061661},{"code":"01637021010","name":"東九条１０丁目","lat":42.92297,"lng":143.061378},{"code":"01637022006","name":"東十条６丁目","lat":42.917547,"lng":143.063287},{"code":"01637022007","name":"東十条７丁目","lat":42.918809,"lng":143.063554},{"code":"01637022008","name":"東十条８丁目","lat":42.920036,"lng":143.063465},{"code":"01637022009","name":"東十条９丁目","lat":42.921256,"lng":143.0633},{"code":"01637022010","name":"東十条１０丁目","lat":42.92309,"lng":143.062883},{"code":"01637023007","name":"東十一条７丁目","lat":42.919309,"lng":143.065038},{"code":"01637023008","name":"東十一条８丁目","lat":42.920241,"lng":143.065223},{"code":"01637023009","name":"東十一条９丁目","lat":42.921416,"lng":143.065321},{"code":"01637023010","name":"東十一条１０丁目","lat":42.923211,"lng":143.0644},{"code":"016370240","name":"東十二条","lat":42.923367,"lng":143.065691},{"code":"016370250","name":"西四条南","lat":42.907291,"lng":143.042423},{"code":"01637026001","name":"西三条南１丁目","lat":42.908781,"lng":143.044832},{"code":"01637026002","name":"西三条南２丁目","lat":42.907391,"lng":143.044224},{"code":"01637026003","name":"西三条南３丁目","lat":42.906119,"lng":143.044388},{"code":"01637026004","name":"西三条南４丁目","lat":42.904709,"lng":143.044569},{"code":"01637026005","name":"西三条南５丁目","lat":42.903449,"lng":143.044721},{"code":"01637026006","name":"西三条南６丁目","lat":42.901753,"lng":143.045383},{"code":"01637026008","name":"西三条南８丁目","lat":42.899861,"lng":143.044885},{"code":"01637026009","name":"西三条南９丁目","lat":42.898681,"lng":143.045222},{"code":"01637027002","name":"西二条南２丁目","lat":42.907484,"lng":143.04571},{"code":"01637027003","name":"西二条南３丁目","lat":42.906225,"lng":143.045858},{"code":"01637027004","name":"西二条南４丁目","lat":42.904819,"lng":143.045996},{"code":"01637027005","name":"西二条南５丁目","lat":42.903532,"lng":143.046295},{"code":"01637027006","name":"西二条南６丁目","lat":42.902734,"lng":143.047103},{"code":"01637027007","name":"西二条南７丁目","lat":42.901536,"lng":143.047349},{"code":"01637027008","name":"西二条南８丁目","lat":42.900062,"lng":143.046212},{"code":"01637027009","name":"西二条南９丁目","lat":42.898947,"lng":143.046433},{"code":"01637028001","name":"西一条南１丁目","lat":42.908926,"lng":143.04708},{"code":"01637028002","name":"西一条南２丁目","lat":42.907573,"lng":143.047257},{"code":"01637028003","name":"西一条南３丁目","lat":42.906323,"lng":143.047391},{"code":"01637028004","name":"西一条南４丁目","lat":42.904906,"lng":143.047577},{"code":"01637028005","name":"西一条南５丁目","lat":42.903671,"lng":143.048236},{"code":"01637028006","name":"西一条南６丁目","lat":42.902664,"lng":143.048638},{"code":"01637028008","name":"西一条南８丁目","lat":42.900069,"lng":143.048084},{"code":"01637028009","name":"西一条南９丁目","lat":42.898836,"lng":143.048042},{"code":"01637029001","name":"本通南１丁目","lat":42.909032,"lng":143.048922},{"code":"01637029002","name":"本通南２丁目","lat":42.90768,"lng":143.048731},{"code":"01637029003","name":"本通南３丁目","lat":42.906431,"lng":143.048961},{"code":"01637029004","name":"本通南４丁目","lat":42.905028,"lng":143.049136},{"code":"01637029005","name":"本通南５丁目","lat":42.903872,"lng":143.049814},{"code":"01637029006","name":"本通南６丁目","lat":42.902572,"lng":143.049788},{"code":"01637029007","name":"本通南７丁目","lat":42.901323,"lng":143.049043},{"code":"01637029008","name":"本通南８丁目","lat":42.900016,"lng":143.049614},{"code":"01637030001","name":"東一条南１丁目","lat":42.909153,"lng":143.050537},{"code":"01637030002","name":"東一条南２丁目","lat":42.907776,"lng":143.050301},{"code":"01637030003","name":"東一条南３丁目","lat":42.906526,"lng":143.05049},{"code":"01637030004","name":"東一条南４丁目","lat":42.905202,"lng":143.050601},{"code":"01637030005","name":"東一条南５丁目","lat":42.903842,"lng":143.050677},{"code":"01637030006","name":"東一条南６丁目","lat":42.902753,"lng":143.050977},{"code":"01637030007","name":"東一条南７丁目","lat":42.901502,"lng":143.050806},{"code":"01637030008","name":"東一条南８丁目","lat":42.900183,"lng":143.051033},{"code":"01637030009","name":"東一条南９丁目","lat":42.899181,"lng":143.051731},{"code":"01637031001","name":"東二条南１丁目","lat":42.909219,"lng":143.051631},{"code":"01637031002","name":"東二条南２丁目","lat":42.90789,"lng":143.051799},{"code":"01637031003","name":"東二条南３丁目","lat":42.906632,"lng":143.051941},{"code":"01637031004","name":"東二条南４丁目","lat":42.905188,"lng":143.052061},{"code":"01637031005","name":"東二条南５丁目","lat":42.903962,"lng":143.052104},{"code":"01637031006","name":"東二条南６丁目","lat":42.902869,"lng":143.052368},{"code":"01637031007","name":"東二条南７丁目","lat":42.901656,"lng":143.052557},{"code":"01637031008","name":"東二条南８丁目","lat":42.900609,"lng":143.052336},{"code":"01637031009","name":"東二条南９丁目","lat":42.899693,"lng":143.052205},{"code":"01637032001","name":"東三条南１丁目","lat":42.909343,"lng":143.053499},{"code":"01637032002","name":"東三条南２丁目","lat":42.907725,"lng":143.053708},{"code":"01637032003","name":"東三条南３丁目","lat":42.906473,"lng":143.053914},{"code":"01637032004","name":"東三条南４丁目","lat":42.905387,"lng":143.054051},{"code":"01637032005","name":"東三条南５丁目","lat":42.904152,"lng":143.054185},{"code":"01637032006","name":"東三条南６丁目","lat":42.903169,"lng":143.054011},{"code":"01637032007","name":"東三条南７丁目","lat":42.902216,"lng":143.053729},{"code":"01637033001","name":"東四条南１丁目","lat":42.909487,"lng":143.055718},{"code":"01637033002","name":"東四条南２丁目","lat":42.90755,"lng":143.056088},{"code":"01637033004","name":"東四条南４丁目","lat":42.905516,"lng":143.056187},{"code":"01637034001","name":"東六条南１丁目","lat":42.909676,"lng":143.057949},{"code":"01637034003","name":"東六条南３丁目","lat":42.907799,"lng":143.058165},{"code":"01637034004","name":"東六条南４丁目","lat":42.906181,"lng":143.057931},{"code":"01637035001","name":"東七条南１丁目","lat":42.909838,"lng":143.060035},{"code":"01637035003","name":"東七条南３丁目","lat":42.908303,"lng":143.059857},{"code":"016370360","name":"平和","lat":43.004961,"lng":143.029339},{"code":"016370370","name":"北明","lat":42.990051,"lng":143.082005},{"code":"016370380","name":"祥栄","lat":42.971582,"lng":143.03203},{"code":"016370390","name":"毛根","lat":42.950926,"lng":142.997322},{"code":"016370400","name":"北芽室","lat":42.942572,"lng":143.055475},{"code":"016370410","name":"西士狩","lat":42.953636,"lng":143.10424},{"code":"016370420","name":"芽室","lat":42.913704,"lng":143.022013},{"code":"016370431","name":"東めむろ一条南","lat":42.911227,"lng":143.071418},{"code":"016370432","name":"東めむろ二条南","lat":42.911368,"lng":143.073688},{"code":"016370433","name":"東めむろ三条南","lat":42.911537,"lng":143.075901},{"code":"01637043401","name":"東めむろ一条北１丁目","lat":42.913609,"lng":143.070547},{"code":"01637043402","name":"東めむろ一条北２丁目","lat":42.916143,"lng":143.070895},{"code":"01637043501","name":"東めむろ二条北１丁目","lat":42.91392,"lng":143.073634},{"code":"01637043502","name":"東めむろ二条北２丁目","lat":42.916365,"lng":143.07331},{"code":"01637043601","name":"東めむろ三条北１丁目","lat":42.914055,"lng":143.075568},{"code":"01637043602","name":"東めむろ三条北２丁目","lat":42.916582,"lng":143.075464},{"code":"016370437","name":"東芽室","lat":42.915469,"lng":143.090669},{"code":"016370440","name":"新生","lat":42.886046,"lng":143.06165},{"code":"016370450","name":"北伏古","lat":42.880237,"lng":143.109618},{"code":"016370460","name":"中伏古","lat":42.853275,"lng":143.084939},{"code":"016370470","name":"坂の上","lat":42.834813,"lng":143.028832},{"code":"016370480","name":"栄","lat":42.821015,"lng":143.063396},{"code":"016370490","name":"上伏古","lat":42.795601,"lng":143.009756},{"code":"016370500","name":"伏美","lat":42.784084,"lng":142.849682},{"code":"016370510","name":"雄馬別","lat":42.756862,"lng":142.949289},{"code":"016370520","name":"上芽室","lat":42.902512,"lng":142.968418},{"code":"016370530","name":"美生","lat":42.877393,"lng":143.015337},{"code":"016370540","name":"渋山","lat":42.861676,"lng":142.960605},{"code":"016370550","name":"中美生","lat":42.846394,"lng":142.994153},{"code":"016370560","name":"上美生","lat":42.825431,"lng":142.846643},{"code":"01637057006","name":"西十一条６丁目","lat":42.915063,"lng":143.029863},{"code":"01637057007","name":"西十一条７丁目","lat":42.916247,"lng":143.029804},{"code":"01637058006","name":"西十条６丁目","lat":42.915196,"lng":143.031744},{"code":"01637058007","name":"西十条７丁目","lat":42.916405,"lng":143.031543},{"code":"01637059002","name":"西九条２丁目","lat":42.910342,"lng":143.034508},{"code":"01637059003","name":"西九条３丁目","lat":42.911607,"lng":143.03439},{"code":"01637059004","name":"西九条４丁目","lat":42.912757,"lng":143.034249},{"code":"01637059005","name":"西九条５丁目","lat":42.914005,"lng":143.034068},{"code":"01637059006","name":"西九条６丁目","lat":42.915323,"lng":143.033454},{"code":"01637059007","name":"西九条７丁目","lat":42.916537,"lng":143.033286},{"code":"01637059009","name":"西九条９丁目","lat":42.918244,"lng":143.031694},{"code":"01637060002","name":"西八条２丁目","lat":42.910395,"lng":143.03606},{"code":"01637060003","name":"西八条３丁目","lat":42.911618,"lng":143.035875},{"code":"01637060004","name":"西八条４丁目","lat":42.912855,"lng":143.035824},{"code":"01637060005","name":"西八条５丁目","lat":42.914186,"lng":143.035628},{"code":"01637060006","name":"西八条６丁目","lat":42.915566,"lng":143.035403},{"code":"01637060007","name":"西八条７丁目","lat":42.91679,"lng":143.035201},{"code":"01637060008","name":"西八条８丁目","lat":42.917983,"lng":143.035076},{"code":"01637060009","name":"西八条９丁目","lat":42.919202,"lng":143.034934},{"code":"01637061002","name":"西七条２丁目","lat":42.910572,"lng":143.037806},{"code":"01637061003","name":"西七条３丁目","lat":42.911664,"lng":143.037569},{"code":"01637061004","name":"西七条４丁目","lat":42.912867,"lng":143.03743},{"code":"01637061005","name":"西七条５丁目","lat":42.91427,"lng":143.037274},{"code":"01637061006","name":"西七条６丁目","lat":42.915715,"lng":143.037038},{"code":"01637061007","name":"西七条７丁目","lat":42.916964,"lng":143.036859},{"code":"01637061008","name":"西七条８丁目","lat":42.9181,"lng":143.036736},{"code":"01637061009","name":"西七条９丁目","lat":42.919304,"lng":143.036556},{"code":"01637062002","name":"西六条２丁目","lat":42.910672,"lng":143.039199},{"code":"01637062003","name":"西六条３丁目","lat":42.911789,"lng":143.039003},{"code":"01637062004","name":"西六条４丁目","lat":42.912967,"lng":143.038836},{"code":"01637062005","name":"西六条５丁目","lat":42.914341,"lng":143.038581},{"code":"01637062006","name":"西六条６丁目","lat":42.915834,"lng":143.038479},{"code":"01637062007","name":"西六条７丁目","lat":42.917079,"lng":143.038295},{"code":"01637062008","name":"西六条８丁目","lat":42.918203,"lng":143.038146},{"code":"01637062009","name":"西六条９丁目","lat":42.919406,"lng":143.037962}]}
