{"municipality":"02203","name":"八戸市","prefecture":"青森県","source":{"dataset":"frogcat/japan-small-area","census":"平成27年国勢調査 小地域（e-Stat 統計LOD）","license":"MIT（リポジトリ）／政府統計の総合窓口(e-Stat)の利用規約（元データ・出典表記必要）","fetched":"2026-07-06"},"towns":[{"code":"02203001001","name":"内丸１丁目","lat":40.514171,"lng":141.488398},{"code":"02203001002","name":"内丸２丁目","lat":40.515145,"lng":141.490978},{"code":"02203001003","name":"内丸３丁目","lat":40.513526,"lng":141.491604},{"code":"022030020","name":"大字堀端町","lat":40.512076,"lng":141.491121},{"code":"022030030","name":"大字窪町","lat":40.512252,"lng":141.493543},{"code":"022030040","name":"大字常海町","lat":40.512916,"lng":141.4936},{"code":"022030050","name":"大字番町","lat":40.510639,"lng":141.490011},{"code":"022030060","name":"大字馬場町","lat":40.510902,"lng":141.487713},{"code":"022030070","name":"大字堤町","lat":40.509685,"lng":141.486603},{"code":"022030080","name":"大字本徒士町","lat":40.508926,"lng":141.486117},{"code":"022030090","name":"大字徒士町","lat":40.508534,"lng":141.485208},{"code":"022030100","name":"大字稲荷町","lat":40.507616,"lng":141.484158},{"code":"022030110","name":"大字新荒町","lat":40.506245,"lng":141.483018},{"code":"022030120","name":"大字荒町","lat":40.506625,"lng":141.484859},{"code":"022030130","name":"大字廿三日町","lat":40.507539,"lng":141.486928},{"code":"022030140","name":"大字十三日町","lat":40.508677,"lng":141.488906},{"code":"022030150","name":"大字三日町","lat":40.509675,"lng":141.490851},{"code":"022030160","name":"大字八日町","lat":40.510671,"lng":141.492487},{"code":"022030170","name":"大字十八日町","lat":40.511723,"lng":141.494318},{"code":"022030180","name":"大字上組町","lat":40.504284,"lng":141.482602},{"code":"022030190","name":"大字常番町","lat":40.504645,"lng":141.48464},{"code":"022030200","name":"大字上徒士町","lat":40.505369,"lng":141.484102},{"code":"022030210","name":"大字町組町","lat":40.505793,"lng":141.485649},{"code":"022030220","name":"大字廿六日町","lat":40.506914,"lng":141.487658},{"code":"022030230","name":"大字十六日町","lat":40.507956,"lng":141.490026},{"code":"022030240","name":"大字寺横町","lat":40.507853,"lng":141.4913},{"code":"022030250","name":"大字大工町","lat":40.507076,"lng":141.491844},{"code":"022030260","name":"大字鍛冶町","lat":40.50536,"lng":141.493321},{"code":"022030270","name":"大字六日町","lat":40.508828,"lng":141.491393},{"code":"022030280","name":"大字朔日町","lat":40.509761,"lng":141.493644},{"code":"022030290","name":"大字十一日町","lat":40.51054,"lng":141.49505},{"code":"022030300","name":"大字本鍛冶町","lat":40.506191,"lng":141.487729},{"code":"022030310","name":"大字鳥屋部町","lat":40.506781,"lng":141.490143},{"code":"022030320","name":"大字山伏小路","lat":40.504831,"lng":141.491444},{"code":"022030330","name":"大字鷹匠小路","lat":40.507503,"lng":141.492714},{"code":"022030340","name":"大字長横町","lat":40.508149,"lng":141.493385},{"code":"022030350","name":"大字岩泉町","lat":40.508794,"lng":141.494047},{"code":"02203036001","name":"柏崎１丁目","lat":40.514315,"lng":141.495436},{"code":"02203036002","name":"柏崎２丁目","lat":40.511323,"lng":141.498572},{"code":"02203036003","name":"柏崎３丁目","lat":40.513049,"lng":141.501801},{"code":"02203036004","name":"柏崎４丁目","lat":40.515386,"lng":141.499874},{"code":"02203036005","name":"柏崎５丁目","lat":40.516971,"lng":141.503835},{"code":"02203036006","name":"柏崎６丁目","lat":40.514293,"lng":141.505205},{"code":"02203037001","name":"大字糠塚字板橋","lat":40.493071,"lng":141.486131},{"code":"02203037002","name":"大字糠塚字鶉久保","lat":40.494939,"lng":141.4844},{"code":"02203037003","name":"大字糠塚字大沢","lat":40.489576,"lng":141.491479},{"code":"02203037004","name":"大字糠塚字大杉平","lat":40.496245,"lng":141.480914},{"code":"02203037005","name":"大字糠塚字大開","lat":40.487013,"lng":141.481923},{"code":"02203037006","name":"大字糠塚字蟹沢","lat":40.492539,"lng":141.48091},{"code":"02203037007","name":"大字糠塚字狐森","lat":40.490283,"lng":141.482284},{"code":"02203037008","name":"大字糠塚字小沢","lat":40.486839,"lng":141.489752},{"code":"02203037009","name":"大字糠塚字五郎兵衛前","lat":40.497414,"lng":141.488966},{"code":"02203037010","name":"大字糠塚字下道","lat":40.505439,"lng":141.487673},{"code":"02203037011","name":"大字糠塚字下屋敷","lat":40.507632,"lng":141.482685},{"code":"02203037012","name":"大字糠塚字惣善前","lat":40.491362,"lng":141.49388},{"code":"02203037013","name":"大字糠塚字平中","lat":40.503545,"lng":141.484207},{"code":"02203037014","name":"大字糠塚字長者山","lat":40.504599,"lng":141.48984},{"code":"02203037015","name":"大字糠塚字長者山下","lat":40.504102,"lng":141.492923},{"code":"02203037016","name":"大字糠塚字土取場","lat":40.493121,"lng":141.49046},{"code":"02203037017","name":"大字糠塚字長久保","lat":40.487498,"lng":141.486422},{"code":"02203037018","name":"大字糠塚字二ツ家","lat":40.483934,"lng":141.480941},{"code":"02203037019","name":"大字糠塚字古常泉下","lat":40.505635,"lng":141.491257},{"code":"02203037020","name":"大字糠塚字前谷地","lat":40.496326,"lng":141.490459},{"code":"02203037021","name":"大字糠塚字桝形","lat":40.502531,"lng":141.482154},{"code":"02203037022","name":"大字糠塚字南長市","lat":40.496277,"lng":141.484108},{"code":"02203037023","name":"大字糠塚字柳ノ下","lat":40.497442,"lng":141.487423},{"code":"02203037024","name":"大字糠塚字山内","lat":40.494704,"lng":141.485756},{"code":"02203037025","name":"大字糠塚字葭谷地","lat":40.489561,"lng":141.485389},{"code":"02203038001","name":"長者１丁目","lat":40.502918,"lng":141.489665},{"code":"02203038002","name":"長者２丁目","lat":40.499569,"lng":141.491216},{"code":"02203038003","name":"長者３丁目","lat":40.500903,"lng":141.485508},{"code":"02203038004","name":"長者４丁目","lat":40.498615,"lng":141.483111},{"code":"02203039001","name":"大字類家字堤田","lat":40.508492,"lng":141.495156},{"code":"02203039002","name":"大字類家字堤端","lat":40.509585,"lng":141.496353},{"code":"02203039003","name":"大字類家字縄手下","lat":40.505236,"lng":141.494373},{"code":"02203040001","name":"類家１丁目","lat":40.508732,"lng":141.499851},{"code":"02203040002","name":"類家２丁目","lat":40.505405,"lng":141.501305},{"code":"02203040003","name":"類家３丁目","lat":40.508099,"lng":141.504033},{"code":"02203040004","name":"類家４丁目","lat":40.506835,"lng":141.507835},{"code":"02203040005","name":"類家５丁目","lat":40.505636,"lng":141.514691},{"code":"02203041001","name":"青葉１丁目","lat":40.511336,"lng":141.505393},{"code":"02203041002","name":"青葉２丁目","lat":40.513098,"lng":141.512014},{"code":"02203041003","name":"青葉３丁目","lat":40.509979,"lng":141.509919},{"code":"02203042001","name":"諏訪１丁目","lat":40.516006,"lng":141.519114},{"code":"02203042002","name":"諏訪２丁目","lat":40.511504,"lng":141.517863},{"code":"02203042003","name":"諏訪３丁目","lat":40.508809,"lng":141.515938},{"code":"02203043001","name":"大字田向字荒屋敷","lat":40.497754,"lng":141.507017},{"code":"02203043002","name":"大字田向字十二役","lat":40.48657,"lng":141.508676},{"code":"02203043003","name":"大字田向字館越下","lat":40.497724,"lng":141.505335},{"code":"02203043004","name":"大字田向字田向","lat":40.49519,"lng":141.506734},{"code":"02203043005","name":"大字田向字檀ノ平","lat":40.495212,"lng":141.504286},{"code":"02203043006","name":"大字田向字デントウ平","lat":40.489374,"lng":141.50602},{"code":"02203043007","name":"大字田向字野堰","lat":40.497354,"lng":141.513369},{"code":"02203043008","name":"大字田向字橋下","lat":40.495703,"lng":141.514991},{"code":"02203043009","name":"大字田向字冷水","lat":40.489526,"lng":141.50967},{"code":"02203043010","name":"大字田向字毘沙門","lat":40.493033,"lng":141.508257},{"code":"02203043011","name":"大字田向字毘沙門平","lat":40.493142,"lng":141.512276},{"code":"02203043012","name":"大字田向字毘沙門前","lat":40.494737,"lng":141.512359},{"code":"02203043014","name":"大字田向字間ノ田","lat":40.496254,"lng":141.510302},{"code":"02203043015","name":"大字田向字向平","lat":40.491599,"lng":141.505824},{"code":"02203043016","name":"大字田向字向河原","lat":40.490637,"lng":141.515496},{"code":"02203043017","name":"大字田向字土岡河原","lat":40.488284,"lng":141.512826},{"code":"02203043018","name":"大字田向字松ヶ崎","lat":40.491314,"lng":141.512233},{"code":"02203044001","name":"大字中居林字雷","lat":40.493669,"lng":141.500637},{"code":"02203044002","name":"大字中居林字狐平","lat":40.487147,"lng":141.498424},{"code":"02203044003","name":"大字中居林字狐森","lat":40.494596,"lng":141.491758},{"code":"02203044004","name":"大字中居林字仕替場","lat":40.491493,"lng":141.496759},{"code":"02203044005","name":"大字中居林字平","lat":40.490182,"lng":141.503003},{"code":"02203044006","name":"大字中居林字館越山","lat":40.498777,"lng":141.503783},{"code":"02203044007","name":"大字中居林字中居林","lat":40.487696,"lng":141.495357},{"code":"02203044008","name":"大字中居林字彦五郎","lat":40.493855,"lng":141.499128},{"code":"02203044009","name":"大字中居林字藤ケ森","lat":40.493014,"lng":141.503259},{"code":"02203044010","name":"大字中居林字蓋名池","lat":40.491446,"lng":141.50154},{"code":"02203044011","name":"大字中居林字道合","lat":40.490453,"lng":141.498617},{"code":"02203044012","name":"大字中居林字綿ノ端","lat":40.488531,"lng":141.500165},{"code":"02203045001","name":"吹上１丁目","lat":40.504975,"lng":141.497593},{"code":"02203045002","name":"吹上２丁目","lat":40.500163,"lng":141.500342},{"code":"02203045003","name":"吹上３丁目","lat":40.501257,"lng":141.495184},{"code":"02203045004","name":"吹上４丁目","lat":40.497363,"lng":141.494362},{"code":"02203045005","name":"吹上５丁目","lat":40.497067,"lng":141.499113},{"code":"02203045006","name":"吹上６丁目","lat":40.494495,"lng":141.495645},{"code":"02203046001","name":"大字石手洗字油久保","lat":40.487284,"lng":141.502622},{"code":"02203046002","name":"大字石手洗字石手洗","lat":40.483104,"lng":141.502892},{"code":"02203046003","name":"大字石手洗字泉筋","lat":40.48562,"lng":141.503477},{"code":"02203046004","name":"大字石手洗字一本木","lat":40.483949,"lng":141.497533},{"code":"02203046005","name":"大字石手洗字上石手洗","lat":40.482944,"lng":141.500418},{"code":"02203046006","name":"大字石手洗字上平","lat":40.479764,"lng":141.500325},{"code":"02203046007","name":"大字石手洗字京塚","lat":40.485305,"lng":141.506943},{"code":"02203046008","name":"大字石手洗字駒ケ沢","lat":40.485636,"lng":141.499443},{"code":"02203046009","name":"大字石手洗字斎郷","lat":40.484344,"lng":141.505448},{"code":"02203046010","name":"大字石手洗字梨子木平","lat":40.487686,"lng":141.505527},{"code":"02203046011","name":"大字石手洗字前河原","lat":40.481778,"lng":141.504285},{"code":"02203047001","name":"小中野１丁目","lat":40.518029,"lng":141.507065},{"code":"02203047002","name":"小中野２丁目","lat":40.515426,"lng":141.508765},{"code":"02203047003","name":"小中野３丁目","lat":40.516589,"lng":141.512591},{"code":"02203047004","name":"小中野４丁目","lat":40.519421,"lng":141.510641},{"code":"02203047005","name":"小中野５丁目","lat":40.521566,"lng":141.514958},{"code":"02203047006","name":"小中野６丁目","lat":40.51853,"lng":141.516851},{"code":"02203047007","name":"小中野７丁目","lat":40.520512,"lng":141.520876},{"code":"02203047008","name":"小中野８丁目","lat":40.52369,"lng":141.519387},{"code":"02203048001","name":"江陽１丁目","lat":40.518957,"lng":141.502301},{"code":"02203048002","name":"江陽２丁目","lat":40.522787,"lng":141.502081},{"code":"02203048003","name":"江陽３丁目","lat":40.528008,"lng":141.506065},{"code":"02203048004","name":"江陽４丁目","lat":40.527002,"lng":141.513726},{"code":"02203048005","name":"江陽５丁目","lat":40.52289,"lng":141.509714},{"code":"02203049001","name":"城下１丁目","lat":40.51747,"lng":141.49283},{"code":"02203049002","name":"城下２丁目","lat":40.518708,"lng":141.483443},{"code":"02203049003","name":"城下３丁目","lat":40.521645,"lng":141.485347},{"code":"02203049004","name":"城下４丁目","lat":40.520603,"lng":141.493749},{"code":"02203050001","name":"沼館１丁目","lat":40.524421,"lng":141.494715},{"code":"02203050002","name":"沼館２丁目","lat":40.526139,"lng":141.487044},{"code":"02203050003","name":"沼館３丁目","lat":40.53089,"lng":141.490021},{"code":"02203050004","name":"沼館４丁目","lat":40.528731,"lng":141.497494},{"code":"02203051001","name":"大字湊町字赤坂","lat":40.520101,"lng":141.528948},{"code":"02203051002","name":"大字湊町字穴畑","lat":40.517655,"lng":141.531051},{"code":"02203051003","name":"大字湊町字油久保","lat":40.513748,"lng":141.531034},{"code":"02203051004","name":"大字湊町字上ノ山","lat":40.524709,"lng":141.525289},{"code":"02203051005","name":"大字湊町字大沢","lat":40.524891,"lng":141.532471},{"code":"02203051006","name":"大字湊町字上田屋前","lat":40.510699,"lng":141.530705},{"code":"02203051007","name":"大字湊町字上中道","lat":40.522119,"lng":141.528526},{"code":"02203051009","name":"大字湊町字久保","lat":40.523069,"lng":141.527001},{"code":"02203051010","name":"大字湊町字鮫ノ口","lat":40.514756,"lng":141.529083},{"code":"02203051011","name":"大字湊町字汐越","lat":40.524637,"lng":141.527846},{"code":"02203051012","name":"大字湊町字下大久保道","lat":40.510645,"lng":141.543729},{"code":"02203051013","name":"大字湊町字下河原","lat":40.519376,"lng":141.52382},{"code":"02203051014","name":"大字湊町字下沢巻目","lat":40.504817,"lng":141.551583},{"code":"02203051015","name":"大字湊町字下条","lat":40.526387,"lng":141.521135},{"code":"02203051016","name":"大字湊町字館鼻","lat":40.526925,"lng":141.522472},{"code":"02203051017","name":"大字湊町字中沢巻目","lat":40.508513,"lng":141.54795},{"code":"02203051018","name":"大字湊町字中巻目","lat":40.510123,"lng":141.542501},{"code":"02203051019","name":"大字湊町字中道","lat":40.521542,"lng":141.531045},{"code":"02203051020","name":"大字湊町字縄張","lat":40.517771,"lng":141.527462},{"code":"02203051021","name":"大字湊町字新井田道","lat":40.513312,"lng":141.533526},{"code":"02203051022","name":"大字湊町字ホロキ長根","lat":40.517714,"lng":141.525441},{"code":"02203051023","name":"大字湊町字本町","lat":40.523811,"lng":141.523628},{"code":"02203051024","name":"大字湊町字柳町","lat":40.52161,"lng":141.524815},{"code":"02203052001","name":"新湊１丁目","lat":40.527625,"lng":141.524909},{"code":"02203052002","name":"新湊２丁目","lat":40.525691,"lng":141.52876},{"code":"02203052003","name":"新湊３丁目","lat":40.529125,"lng":141.528458},{"code":"02203053001","name":"大字白銀町字雷","lat":40.521476,"lng":141.554572},{"code":"02203053002","name":"大字白銀町字姥畑","lat":40.513184,"lng":141.543681},{"code":"02203053003","name":"大字白銀町字姥久保","lat":40.517922,"lng":141.554024},{"code":"02203053004","name":"大字白銀町字大久保道","lat":40.520257,"lng":141.546171},{"code":"02203053005","name":"大字白銀町字大沢片平","lat":40.522674,"lng":141.53784},{"code":"02203053006","name":"大字白銀町字大沢頭","lat":40.519667,"lng":141.538882},{"code":"02203053007","name":"大字白銀町字北側本町","lat":40.52541,"lng":141.54817},{"code":"02203053008","name":"大字白銀町字北外ノ沢","lat":40.516767,"lng":141.557327},{"code":"02203053009","name":"大字白銀町字木戸場","lat":40.519008,"lng":141.544296},{"code":"02203053010","name":"大字白銀町字久保下","lat":40.512952,"lng":141.54082},{"code":"02203053011","name":"大字白銀町字栗沢道","lat":40.518751,"lng":141.556892},{"code":"02203053012","name":"大字白銀町字源治囲内","lat":40.523686,"lng":141.552326},{"code":"02203053013","name":"大字白銀町字小沼","lat":40.519783,"lng":141.549027},{"code":"02203053014","name":"大字白銀町字佐部長根","lat":40.512139,"lng":141.572104},{"code":"02203053015","name":"大字白銀町字沢向","lat":40.519482,"lng":141.545613},{"code":"02203053016","name":"大字白銀町字下タ通","lat":40.524817,"lng":141.546935},{"code":"02203053017","name":"大字白銀町字昭和町","lat":40.528423,"lng":141.551109},{"code":"02203053018","name":"大字白銀町字白浜道","lat":40.520623,"lng":141.560746},{"code":"02203053019","name":"大字白銀町字新九郎蒔目","lat":40.515005,"lng":141.544571},{"code":"02203053020","name":"大字白銀町字洲賀端","lat":40.525138,"lng":141.545966},{"code":"02203053021","name":"大字白銀町字砂森","lat":40.525626,"lng":141.553436},{"code":"02203053022","name":"大字白銀町字田端","lat":40.517745,"lng":141.552003},{"code":"02203053024","name":"大字白銀町字寺ノ後","lat":40.520962,"lng":141.547501},{"code":"02203053025","name":"大字白銀町字中平","lat":40.520341,"lng":141.551402},{"code":"02203053026","name":"大字白銀町字人形沢","lat":40.52664,"lng":141.549864},{"code":"02203053027","name":"大字白銀町字八森","lat":40.523192,"lng":141.555516},{"code":"02203053028","name":"大字白銀町字浜崖","lat":40.521716,"lng":141.536398},{"code":"02203053029","name":"大字白銀町字左岩淵通","lat":40.518555,"lng":141.534139},{"code":"02203053030","name":"大字白銀町字左新井田道","lat":40.515278,"lng":141.538328},{"code":"02203053031","name":"大字白銀町字堀ノ内","lat":40.518352,"lng":141.542055},{"code":"02203053032","name":"大字白銀町字堀ノ外","lat":40.515707,"lng":141.541398},{"code":"02203053033","name":"大字白銀町字右岩淵通","lat":40.520398,"lng":141.534938},{"code":"02203053034","name":"大字白銀町字右新井田道","lat":40.516343,"lng":141.535355},{"code":"02203053035","name":"大字白銀町字三島上","lat":40.520026,"lng":141.541681},{"code":"02203053036","name":"大字白銀町字三島下","lat":40.526124,"lng":141.537255},{"code":"02203053037","name":"大字白銀町字南ケ丘","lat":40.51716,"lng":141.544671},{"code":"02203053038","name":"大字白銀町字大万堀","lat":40.516252,"lng":141.554101},{"code":"022030540","name":"築港街","lat":40.528071,"lng":141.545346},{"code":"02203055001","name":"白銀台１丁目","lat":40.515536,"lng":141.554842},{"code":"02203055002","name":"白銀台２丁目","lat":40.515933,"lng":141.557695},{"code":"02203055003","name":"白銀台３丁目","lat":40.51414,"lng":141.558341},{"code":"02203055004","name":"白銀台４丁目","lat":40.515042,"lng":141.561011},{"code":"02203055005","name":"白銀台５丁目","lat":40.516899,"lng":141.560577},{"code":"02203055006","name":"白銀台６丁目","lat":40.5158,"lng":141.563007},{"code":"02203055007","name":"白銀台７丁目","lat":40.513893,"lng":141.562174},{"code":"02203056001","name":"白銀１丁目","lat":40.522854,"lng":141.541592},{"code":"02203056002","name":"白銀２丁目","lat":40.523585,"lng":141.544743},{"code":"02203056003","name":"白銀３丁目","lat":40.521472,"lng":141.544942},{"code":"02203056004","name":"白銀４丁目","lat":40.522502,"lng":141.548655},{"code":"02203056005","name":"白銀５丁目","lat":40.524498,"lng":141.549817},{"code":"02203057002","name":"大字大久保字生平","lat":40.508452,"lng":141.565888},{"code":"02203057003","name":"大字大久保字大塚","lat":40.488885,"lng":141.56632},{"code":"02203057004","name":"大字大久保字大山","lat":40.496457,"lng":141.575433},{"code":"02203057005","name":"大字大久保字上大久保","lat":40.505297,"lng":141.554364},{"code":"02203057006","name":"大字大久保字上面","lat":40.502211,"lng":141.557012},{"code":"02203057007","name":"大字大久保字上町畑","lat":40.487583,"lng":141.55506},{"code":"02203057008","name":"大字大久保字行人坂","lat":40.510936,"lng":141.554617},{"code":"02203057009","name":"大字大久保字行人塚","lat":40.490227,"lng":141.559749},{"code":"02203057010","name":"大字大久保字小久保","lat":40.492529,"lng":141.547621},{"code":"02203057011","name":"大字大久保字小久保尻","lat":40.495686,"lng":141.543618},{"code":"02203057012","name":"大字大久保字小久保平","lat":40.491974,"lng":141.543671},{"code":"02203057013","name":"大字大久保字小松平","lat":40.510989,"lng":141.547144},{"code":"02203057014","name":"大字大久保字坂ノ上","lat":40.515902,"lng":141.549949},{"code":"02203057015","name":"大字大久保字坂ノ脇","lat":40.515785,"lng":141.547924},{"code":"02203057016","name":"大字大久保字作兵エ穴","lat":40.503728,"lng":141.553028},{"code":"02203057017","name":"大字大久保字サクロツ","lat":40.516813,"lng":141.546401},{"code":"02203057018","name":"大字大久保字沢目","lat":40.513638,"lng":141.548221},{"code":"02203057019","name":"大字大久保字三社","lat":40.507397,"lng":141.552528},{"code":"02203057020","name":"大字大久保字下大久保","lat":40.51003,"lng":141.550445},{"code":"02203057021","name":"大字大久保字下長根","lat":40.513758,"lng":141.551272},{"code":"02203057022","name":"大字大久保字下町畑","lat":40.492407,"lng":141.55241},{"code":"02203057023","name":"大字大久保字袖ノ沢","lat":40.516406,"lng":141.551488},{"code":"02203057024","name":"大字大久保字鷹待場","lat":40.512824,"lng":141.554116},{"code":"02203057025","name":"大字大久保字長沢","lat":40.505527,"lng":141.561131},{"code":"02203057026","name":"大字大久保字夏川戸","lat":40.518203,"lng":141.548352},{"code":"02203057027","name":"大字大久保字西ノ平","lat":40.499847,"lng":141.552863},{"code":"02203057028","name":"大字大久保字野馬小屋","lat":40.512747,"lng":141.561505},{"code":"02203057029","name":"大字大久保字浜長根","lat":40.508534,"lng":141.556019},{"code":"02203057030","name":"大字大久保字町畑西ノ平","lat":40.488851,"lng":141.550683},{"code":"02203057031","name":"大字大久保字町道","lat":40.512977,"lng":141.546103},{"code":"02203057032","name":"大字大久保字弥四郎蒔目","lat":40.48487,"lng":141.553836},{"code":"02203057033","name":"大字大久保字小久保尻","lat":40.493172,"lng":141.544339},{"code":"022030580","name":"大字美保野","lat":40.482761,"lng":141.583493},{"code":"02203059001","name":"大字鮫町字赤コウ","lat":40.513583,"lng":141.604944},{"code":"02203059002","name":"大字鮫町字蟻子","lat":40.533454,"lng":141.563972},{"code":"02203059003","name":"大字鮫町字石株","lat":40.516592,"lng":141.58718},{"code":"02203059004","name":"大字鮫町字石越","lat":40.493091,"lng":141.620769},{"code":"02203059005","name":"大字鮫町字石仏沢","lat":40.491848,"lng":141.626613},{"code":"02203059006","name":"大字鮫町字姥懐","lat":40.51914,"lng":141.583591},{"code":"02203059007","name":"大字鮫町字海端","lat":40.497926,"lng":141.621747},{"code":"02203059008","name":"大字鮫町字大岩","lat":40.515046,"lng":141.584154},{"code":"02203059009","name":"大字鮫町字大草離","lat":40.504669,"lng":141.582658},{"code":"02203059010","name":"大字鮫町字大槻窪","lat":40.498206,"lng":141.603901},{"code":"02203059011","name":"大字鮫町字大開","lat":40.530719,"lng":141.564121},{"code":"02203059012","name":"大字鮫町字鬼場平","lat":40.49961,"lng":141.616803},{"code":"02203059013","name":"大字鮫町字居合","lat":40.533799,"lng":141.560657},{"code":"02203059014","name":"大字鮫町字金屎","lat":40.516281,"lng":141.577682},{"code":"02203059015","name":"大字鮫町字上鮫","lat":40.532787,"lng":141.557499},{"code":"02203059016","name":"大字鮫町字上手代森","lat":40.529988,"lng":141.560346},{"code":"02203059017","name":"大字鮫町字上松苗場","lat":40.535189,"lng":141.563289},{"code":"02203059018","name":"大字鮫町字上盲久保","lat":40.535017,"lng":141.567461},{"code":"02203059019","name":"大字鮫町字狐平","lat":40.496728,"lng":141.614211},{"code":"02203059020","name":"大字鮫町字葛ノ芽","lat":40.506036,"lng":141.604286},{"code":"02203059021","name":"大字鮫町字熊野林","lat":40.501215,"lng":141.610403},{"code":"02203059022","name":"大字鮫町字小沢","lat":40.514902,"lng":141.591333},{"code":"02203059023","name":"大字鮫町字小清水久保","lat":40.512266,"lng":141.583463},{"code":"02203059024","name":"大字鮫町字小長根","lat":40.527676,"lng":141.559654},{"code":"02203059025","name":"大字鮫町字小舟渡平","lat":40.53899,"lng":141.572938},{"code":"02203059026","name":"大字鮫町字妻ノ神","lat":40.517911,"lng":141.586189},{"code":"02203059027","name":"大字鮫町字坂ノ上","lat":40.512763,"lng":141.597872},{"code":"02203059028","name":"大字鮫町字鮫","lat":40.536266,"lng":141.557669},{"code":"02203059029","name":"大字鮫町字山四郎蒔目","lat":40.524821,"lng":141.566127},{"code":"02203059030","name":"大字鮫町字シコシリ","lat":40.490228,"lng":141.625049},{"code":"02203059031","name":"大字鮫町字忍町","lat":40.529012,"lng":141.55622},{"code":"02203059032","name":"大字鮫町字下柏木森","lat":40.491766,"lng":141.623438},{"code":"02203059033","name":"大字鮫町字下手代森","lat":40.531599,"lng":141.559743},{"code":"02203059034","name":"大字鮫町字下松苗場","lat":40.537242,"lng":141.561097},{"code":"02203059035","name":"大字鮫町字下盲久保","lat":40.539431,"lng":141.565595},{"code":"02203059036","name":"大字鮫町字住吉町","lat":40.530246,"lng":141.557652},{"code":"02203059037","name":"大字鮫町字先祖ケ久保","lat":40.535575,"lng":141.57637},{"code":"02203059038","name":"大字鮫町字外ノ沢","lat":40.503612,"lng":141.608275},{"code":"02203059039","name":"大字鮫町字高岩","lat":40.499977,"lng":141.619958},{"code":"02203059040","name":"大字鮫町字高森","lat":40.499279,"lng":141.592335},{"code":"02203059041","name":"大字鮫町字館ノ下","lat":40.504385,"lng":141.611899},{"code":"02203059042","name":"大字鮫町字棚久保","lat":40.507073,"lng":141.60899},{"code":"02203059043","name":"大字鮫町字種差","lat":40.504173,"lng":141.613498},{"code":"02203059044","name":"大字鮫町字大作平","lat":40.493353,"lng":141.629263},{"code":"02203059045","name":"大字鮫町字槻ノ木","lat":40.494084,"lng":141.616635},{"code":"02203059046","name":"大字鮫町字鉄砲平","lat":40.523852,"lng":141.563299},{"code":"02203059047","name":"大字鮫町字中道","lat":40.510255,"lng":141.604007},{"code":"02203059048","name":"大字鮫町字西子沢","lat":40.524218,"lng":141.573166},{"code":"02203059049","name":"大字鮫町字子猪越","lat":40.49582,"lng":141.625149},{"code":"02203059050","name":"大字鮫町字浜道通","lat":40.514327,"lng":141.588855},{"code":"02203059051","name":"大字鮫町字林通","lat":40.526139,"lng":141.555945},{"code":"02203059052","name":"大字鮫町字ハン木沢","lat":40.528849,"lng":141.564488},{"code":"02203059053","name":"大字鮫町字ハンノ木沢","lat":40.528436,"lng":141.562355},{"code":"02203059054","name":"大字鮫町字番屋","lat":40.506331,"lng":141.596176},{"code":"02203059055","name":"大字鮫町字古馬屋","lat":40.530254,"lng":141.573722},{"code":"02203059056","name":"大字鮫町字日出町","lat":40.531449,"lng":141.554687},{"code":"02203059057","name":"大字鮫町字冷水","lat":40.528795,"lng":141.558089},{"code":"02203059058","name":"大字鮫町字冷水平","lat":40.496217,"lng":141.621043},{"code":"02203059059","name":"大字鮫町字福沢久保","lat":40.524814,"lng":141.558716},{"code":"02203059060","name":"大字鮫町字二子石","lat":40.529291,"lng":141.554459},{"code":"02203059061","name":"大字鮫町字二ツ石","lat":40.512744,"lng":141.593176},{"code":"02203059062","name":"大字鮫町字二見町","lat":40.527672,"lng":141.554972},{"code":"02203059063","name":"大字鮫町字舟渡ノ上","lat":40.516615,"lng":141.596333},{"code":"02203059064","name":"大字鮫町字古馬屋","lat":40.528728,"lng":141.568111},{"code":"02203059065","name":"大字鮫町字綣久保","lat":40.532095,"lng":141.563501},{"code":"02203059066","name":"大字鮫町字骨沢","lat":40.493101,"lng":141.602586},{"code":"02203059067","name":"大字鮫町字堀込","lat":40.518101,"lng":141.589905},{"code":"02203059068","name":"大字鮫町字堀込下","lat":40.500987,"lng":141.613448},{"code":"02203059069","name":"大字鮫町字亦窪","lat":40.507742,"lng":141.590061},{"code":"02203059070","name":"大字鮫町字神子沢久保","lat":40.508863,"lng":141.592618},{"code":"02203059071","name":"大字鮫町字水上","lat":40.50986,"lng":141.587136},{"code":"02203059072","name":"大字鮫町字持越沢","lat":40.531002,"lng":141.556002},{"code":"02203059073","name":"大字鮫町字安川目","lat":40.494332,"lng":141.623439},{"code":"02203059074","name":"大字鮫町字遙望石","lat":40.5033,"lng":141.61807},{"code":"02203059075","name":"大字鮫町字横道通","lat":40.51763,"lng":141.592779},{"code":"02203059076","name":"大字鮫町字館越","lat":40.511387,"lng":141.595745},{"code":"02203059077","name":"大字鮫町字日蔭沢","lat":40.525294,"lng":141.581122},{"code":"02203059078","name":"大字鮫町字中崎","lat":40.507088,"lng":141.582618},{"code":"02203060001","name":"大字金浜字荒屋敷久保","lat":40.466291,"lng":141.605188},{"code":"02203060002","name":"大字金浜字家ノ向","lat":40.470837,"lng":141.614272},{"code":"02203060003","name":"大字金浜字一ノ久保","lat":40.476163,"lng":141.635172},{"code":"02203060004","name":"大字金浜字大渡","lat":40.467406,"lng":141.598341},{"code":"02203060005","name":"大字金浜字居場","lat":40.477128,"lng":141.627894},{"code":"02203060006","name":"大字金浜字折場沢","lat":40.484712,"lng":141.600735},{"code":"02203060007","name":"大字金浜字上平山","lat":40.486264,"lng":141.618543},{"code":"02203060008","name":"大字金浜字塩竃","lat":40.475792,"lng":141.642479},{"code":"02203060009","name":"大字金浜字下作目","lat":40.480463,"lng":141.632564},{"code":"02203060010","name":"大字金浜字下山","lat":40.485706,"lng":141.628354},{"code":"02203060011","name":"大字金浜字外ノ久保","lat":40.479139,"lng":141.62542},{"code":"02203060012","name":"大字金浜字長畝","lat":40.472083,"lng":141.622658},{"code":"02203060013","name":"大字金浜字橋場川目","lat":40.472273,"lng":141.626865},{"code":"02203060014","name":"大字金浜字林ノ前","lat":40.476583,"lng":141.607213},{"code":"02203060015","name":"大字金浜字舟戸ノ上","lat":40.4781,"lng":141.638204},{"code":"02203060016","name":"大字金浜字前川目","lat":40.47611,"lng":141.630069},{"code":"02203060017","name":"大字金浜字級ノ木","lat":40.47414,"lng":141.632333},{"code":"02203061001","name":"大字売市字鴨ケ池","lat":40.515593,"lng":141.482932},{"code":"02203061002","name":"大字売市字観音下","lat":40.514896,"lng":141.485252},{"code":"02203061003","name":"大字売市字輿遊下","lat":40.509462,"lng":141.482195},{"code":"02203061004","name":"大字売市字小待","lat":40.515638,"lng":141.481022},{"code":"02203061005","name":"大字売市字左水門下","lat":40.512093,"lng":141.48524},{"code":"02203061006","name":"大字売市字右水門下","lat":40.512295,"lng":141.486574},{"code":"02203062001","name":"大字沢里字一盃森","lat":40.499334,"lng":141.472288},{"code":"02203062002","name":"大字沢里字鹿島沢","lat":40.499186,"lng":141.469626},{"code":"02203062003","name":"大字沢里字上沢内","lat":40.492387,"lng":141.472235},{"code":"02203062004","name":"大字沢里字沢里山","lat":40.493012,"lng":141.475681},{"code":"02203062005","name":"大字沢里字下沢内","lat":40.498131,"lng":141.474818},{"code":"02203062006","name":"大字沢里字鍋久保","lat":40.497284,"lng":141.47133},{"code":"02203062007","name":"大字沢里字藤子","lat":40.498805,"lng":141.478537},{"code":"02203062008","name":"大字沢里字二ツ屋","lat":40.488021,"lng":141.476296},{"code":"02203062009","name":"大字沢里字古宮","lat":40.493986,"lng":141.469516},{"code":"02203062010","name":"大字沢里字休場","lat":40.495403,"lng":141.478177},{"code":"02203063001","name":"大字根城字牛ケ窪","lat":40.494404,"lng":141.466334},{"code":"02203063002","name":"大字根城字内沢","lat":40.497234,"lng":141.460496},{"code":"02203063003","name":"大字根城字大久保","lat":40.497493,"lng":141.464973},{"code":"02203063004","name":"大字根城字河原","lat":40.509056,"lng":141.459574},{"code":"02203063005","name":"大字根城字笹子","lat":40.470175,"lng":141.465349},{"code":"02203063006","name":"大字根城字下町","lat":40.508153,"lng":141.461416},{"code":"02203063007","name":"大字根城字中崎","lat":40.501333,"lng":141.461524},{"code":"02203063008","name":"大字根城字西ノ沢","lat":40.505222,"lng":141.455664},{"code":"02203063009","name":"大字根城字馬場頭","lat":40.502318,"lng":141.458932},{"code":"02203063010","name":"大字根城字東構","lat":40.508003,"lng":141.463188},{"code":"02203063011","name":"大字根城字ヌタゴ","lat":40.513613,"lng":141.468545},{"code":"02203064001","name":"根城１丁目","lat":40.504266,"lng":141.480215},{"code":"02203064002","name":"根城２丁目","lat":40.501126,"lng":141.477925},{"code":"02203064003","name":"根城３丁目","lat":40.503972,"lng":141.475184},{"code":"02203064004","name":"根城４丁目","lat":40.506567,"lng":141.475671},{"code":"02203064005","name":"根城５丁目","lat":40.506942,"lng":141.4691},{"code":"02203064006","name":"根城６丁目","lat":40.504359,"lng":141.469416},{"code":"02203064007","name":"根城７丁目","lat":40.501608,"lng":141.46754},{"code":"02203064008","name":"根城８丁目","lat":40.505157,"lng":141.463794},{"code":"02203064009","name":"根城９丁目","lat":40.509523,"lng":141.467843},{"code":"02203065001","name":"大字田面木字赤坂","lat":40.499652,"lng":141.45335},{"code":"02203065002","name":"大字田面木字後河原","lat":40.501384,"lng":141.443841},{"code":"02203065003","name":"大字田面木字鶉窪","lat":40.497205,"lng":141.456896},{"code":"02203065004","name":"大字田面木字上野平","lat":40.491633,"lng":141.446985},{"code":"02203065005","name":"大字田面木字上野道下","lat":40.496644,"lng":141.450463},{"code":"02203065006","name":"大字田面木字ヱヒサ沢","lat":40.500125,"lng":141.456171},{"code":"02203065007","name":"大字田面木字王城林","lat":40.495037,"lng":141.440171},{"code":"02203065008","name":"大字田面木字上田面木","lat":40.497829,"lng":141.444096},{"code":"02203065009","name":"大字田面木字酒美平","lat":40.487719,"lng":141.450049},{"code":"02203065010","name":"大字田面木字下田面木","lat":40.499691,"lng":141.449889},{"code":"02203065011","name":"大字田面木字神明沢","lat":40.49518,"lng":141.453237},{"code":"02203065012","name":"大字田面木字十文字平","lat":40.485523,"lng":141.453671},{"code":"02203065013","name":"大字田面木字外久保","lat":40.493361,"lng":141.45228},{"code":"02203065014","name":"大字田面木字田面木平","lat":40.484134,"lng":141.456387},{"code":"02203065015","name":"大字田面木字長者森","lat":40.489089,"lng":141.457052},{"code":"02203065016","name":"大字田面木字堤下","lat":40.499686,"lng":141.446377},{"code":"02203065017","name":"大字田面木字中明戸","lat":40.50212,"lng":141.449571},{"code":"02203065018","name":"大字田面木字中村","lat":40.494362,"lng":141.442201},{"code":"02203065019","name":"大字田面木字沼ノ平","lat":40.490629,"lng":141.454754},{"code":"02203065020","name":"大字田面木字船場道下","lat":40.501185,"lng":141.44539},{"code":"02203065021","name":"大字田面木字法霊林","lat":40.502751,"lng":141.453298},{"code":"02203065022","name":"大字田面木字前田表","lat":40.494394,"lng":141.438321},{"code":"02203065023","name":"大字田面木字前平","lat":40.494571,"lng":141.456345},{"code":"02203065024","name":"大字田面木字松長根","lat":40.499563,"lng":141.458024},{"code":"02203065025","name":"大字田面木字南ノ沢","lat":40.485458,"lng":141.455475},{"code":"02203065026","name":"大字田面木字美濃助平","lat":40.490025,"lng":141.451404},{"code":"02203065027","name":"大字田面木字盲堤沢","lat":40.485052,"lng":141.451546},{"code":"02203065028","name":"大字田面木字山道下タ","lat":40.495956,"lng":141.448439},{"code":"02203065029","name":"大字田面木字横俵","lat":40.494403,"lng":141.443856},{"code":"02203066001","name":"大字長苗代字内前田","lat":40.518182,"lng":141.463184},{"code":"02203066002","name":"大字長苗代字鰻苗代","lat":40.510931,"lng":141.457644},{"code":"02203066003","name":"大字長苗代字大谷地","lat":40.516156,"lng":141.442951},{"code":"02203066004","name":"大字長苗代字上碇田","lat":40.513137,"lng":141.437142},{"code":"02203066005","name":"大字長苗代字上亀子谷地","lat":40.51988,"lng":141.44366},{"code":"02203066006","name":"大字長苗代字蟇河原","lat":40.513109,"lng":141.465057},{"code":"02203066007","name":"大字長苗代字窪田","lat":40.512796,"lng":141.461728},{"code":"02203066008","name":"大字長苗代字紺屋町","lat":40.515082,"lng":141.438491},{"code":"02203066009","name":"大字長苗代字島ノ後","lat":40.525303,"lng":141.46436},{"code":"02203066010","name":"大字長苗代字島ノ前","lat":40.522924,"lng":141.464782},{"code":"02203066011","name":"大字長苗代字下碇田","lat":40.512477,"lng":141.443177},{"code":"02203066012","name":"大字長苗代字下亀子谷地","lat":40.519706,"lng":141.447075},{"code":"02203066013","name":"大字長苗代字下中坪","lat":40.524121,"lng":141.4584},{"code":"02203066014","name":"大字長苗代字制札前","lat":40.520781,"lng":141.46467},{"code":"02203066015","name":"大字長苗代字太古殿","lat":40.526926,"lng":141.464134},{"code":"02203066016","name":"大字長苗代字天狗柳","lat":40.516338,"lng":141.436256},{"code":"02203066017","name":"大字長苗代字内舟渡","lat":40.516235,"lng":141.466316},{"code":"02203066018","name":"大字長苗代字中坪","lat":40.517904,"lng":141.453952},{"code":"02203066019","name":"大字長苗代字化石","lat":40.509889,"lng":141.4544},{"code":"02203066020","name":"大字長苗代字二日市","lat":40.510564,"lng":141.446997},{"code":"02203066021","name":"大字長苗代字前田","lat":40.512884,"lng":141.453227},{"code":"02203066022","name":"大字長苗代字幕ノ内","lat":40.510155,"lng":141.450624},{"code":"02203066023","name":"大字長苗代字元木","lat":40.514228,"lng":141.45999},{"code":"02203066024","name":"大字長苗代字谷地","lat":40.514458,"lng":141.444029},{"code":"02203067001","name":"長苗代１丁目","lat":40.51963,"lng":141.469418},{"code":"02203067002","name":"長苗代２丁目","lat":40.524413,"lng":141.468446},{"code":"02203067003","name":"長苗代３丁目","lat":40.522426,"lng":141.475357},{"code":"02203067004","name":"長苗代４丁目","lat":40.519932,"lng":141.473438},{"code":"02203068001","name":"石堂１丁目","lat":40.529273,"lng":141.477657},{"code":"02203068002","name":"石堂２丁目","lat":40.526467,"lng":141.473844},{"code":"02203068003","name":"石堂３丁目","lat":40.525987,"lng":141.480902},{"code":"02203068004","name":"石堂４丁目","lat":40.531829,"lng":141.481827},{"code":"02203069101","name":"八太郎１丁目","lat":40.537788,"lng":141.492355},{"code":"02203069102","name":"八太郎２丁目","lat":40.538392,"lng":141.49003},{"code":"02203069103","name":"八太郎３丁目","lat":40.5404,"lng":141.48924},{"code":"02203069104","name":"八太郎４丁目","lat":40.541605,"lng":141.486606},{"code":"02203069105","name":"八太郎５丁目","lat":40.542499,"lng":141.493731},{"code":"02203069106","name":"八太郎６丁目","lat":40.541654,"lng":141.498081},{"code":"02203069201","name":"大字河原木字後平","lat":40.546179,"lng":141.4502},{"code":"02203069202","name":"大字河原木字売場","lat":40.541828,"lng":141.464938},{"code":"02203069203","name":"大字河原木字大谷地","lat":40.531211,"lng":141.446487},{"code":"02203069204","name":"大字河原木川目","lat":40.535313,"lng":141.491414},{"code":"02203069205","name":"大字河原木字河原木後","lat":40.531913,"lng":141.467616},{"code":"02203069206","name":"大字河原木字北沼","lat":40.552826,"lng":141.484746},{"code":"02203069207","name":"大字河原木字久保","lat":40.544497,"lng":141.464468},{"code":"02203069208","name":"大字河原木濃谷地","lat":40.536688,"lng":141.493567},{"code":"02203069209","name":"大字河原木字小田","lat":40.540917,"lng":141.467486},{"code":"02203069210","name":"大字河原木字小田上","lat":40.544395,"lng":141.468772},{"code":"02203069211","name":"大字河原木字小田平","lat":40.55025,"lng":141.450373},{"code":"02203069212","name":"大字河原木字五反田","lat":40.53442,"lng":141.470978},{"code":"02203069214","name":"大字河原木字沢尻","lat":40.538062,"lng":141.458135},{"code":"02203069216","name":"大字河原木字蛇ノ沢","lat":40.538268,"lng":141.455511},{"code":"02203069217","name":"大字河原木字簀子渡","lat":40.537657,"lng":141.447919},{"code":"02203069218","name":"大字河原木字千刈田","lat":40.528527,"lng":141.461833},{"code":"02203069219","name":"大字河原木字袖ノ沢","lat":40.541305,"lng":141.458746},{"code":"02203069220","name":"大字河原木字高館","lat":40.538824,"lng":141.460145},{"code":"02203069221","name":"大字河原木字高館根前","lat":40.534472,"lng":141.456505},{"code":"02203069222","name":"大字河原木字高館前","lat":40.536961,"lng":141.462813},{"code":"02203069223","name":"大字河原木字高森","lat":40.544725,"lng":141.439981},{"code":"02203069224","name":"大字河原木字長円坊堀","lat":40.546801,"lng":141.463946},{"code":"02203069225","name":"大字河原木字中崎","lat":40.550145,"lng":141.479752},{"code":"02203069226","name":"大字河原木中嶋","lat":40.537895,"lng":141.495104},{"code":"02203069227","name":"大字河原木字二階堀","lat":40.544752,"lng":141.459572},{"code":"02203069228","name":"大字河原木字根岸","lat":40.5433,"lng":141.485234},{"code":"02203069230","name":"大字河原木字八太郎","lat":40.54254,"lng":141.487664},{"code":"02203069231","name":"大字河原木字八太郎山","lat":40.546015,"lng":141.485054},{"code":"02203069232","name":"大字河原木字八太郎山官地","lat":40.554421,"lng":141.471649},{"code":"02203069233","name":"大字河原木字浜名谷地","lat":40.539023,"lng":141.497231},{"code":"02203069234","name":"大字河原木字日計","lat":40.543409,"lng":141.479593},{"code":"02203069235","name":"大字河原木字日計上","lat":40.545433,"lng":141.475968},{"code":"02203069237","name":"大字河原木字日渡","lat":40.531844,"lng":141.460239},{"code":"02203069238","name":"大字河原木字前谷地","lat":40.5285,"lng":141.452173},{"code":"02203069239","name":"大字河原木字見立山","lat":40.542955,"lng":141.447622},{"code":"02203069240","name":"大字河原木南町","lat":40.536262,"lng":141.491877},{"code":"02203069241","name":"大字河原木字谷地田","lat":40.535054,"lng":141.466116},{"code":"02203069242","name":"大字河原木字谷地畑","lat":40.543734,"lng":141.472822},{"code":"02203069243","name":"大字河原木字海岸","lat":40.54888,"lng":141.496197},{"code":"02203069301","name":"小田１丁目","lat":40.5399,"lng":141.470283},{"code":"02203069302","name":"小田２丁目","lat":40.538502,"lng":141.466748},{"code":"02203069401","name":"日計１丁目","lat":40.540777,"lng":141.476133},{"code":"02203069402","name":"日計２丁目","lat":40.541998,"lng":141.472844},{"code":"02203069403","name":"日計３丁目","lat":40.543134,"lng":141.476108},{"code":"02203069404","name":"日計４丁目","lat":40.541678,"lng":141.480243},{"code":"02203069405","name":"日計５丁目","lat":40.541985,"lng":141.483998},{"code":"022030700","name":"河原木","lat":40.532705,"lng":141.471641},{"code":"02203071001","name":"下長１丁目","lat":40.528962,"lng":141.469764},{"code":"02203071002","name":"下長２丁目","lat":40.532863,"lng":141.474605},{"code":"02203071003","name":"下長３丁目","lat":40.537272,"lng":141.472113},{"code":"02203071004","name":"下長４丁目","lat":40.536732,"lng":141.476684},{"code":"02203071005","name":"下長５丁目","lat":40.537833,"lng":141.478976},{"code":"02203071006","name":"下長６丁目","lat":40.534543,"lng":141.482937},{"code":"02203071007","name":"下長７丁目","lat":40.533486,"lng":141.487283},{"code":"02203071008","name":"下長８丁目","lat":40.536417,"lng":141.485855},{"code":"02203072001","name":"高州１丁目","lat":40.537671,"lng":141.480616},{"code":"02203072002","name":"高州２丁目","lat":40.538963,"lng":141.483013},{"code":"022030730","name":"豊洲","lat":40.538822,"lng":141.520055},{"code":"02203074001","name":"大字是川字明土","lat":40.46452,"lng":141.494846},{"code":"02203074002","name":"大字是川字雨長根","lat":40.457117,"lng":141.480162},{"code":"02203074003","name":"大字是川字一本木平","lat":40.466865,"lng":141.505393},{"code":"02203074004","name":"大字是川字稲荷上","lat":40.473621,"lng":141.498299},{"code":"02203074005","name":"大字是川字岩ノ沢","lat":40.455099,"lng":141.508506},{"code":"02203074006","name":"大字是川字内野場","lat":40.45737,"lng":141.51505},{"code":"02203074007","name":"大字是川字卯花木長根","lat":40.449237,"lng":141.518304},{"code":"02203074008","name":"大字是川字ウトウ","lat":40.458114,"lng":141.473981},{"code":"02203074009","name":"大字是川字ウトウ窪","lat":40.452125,"lng":141.474636},{"code":"02203074010","name":"大字是川字犹森","lat":40.475706,"lng":141.500535},{"code":"02203074011","name":"大字是川字大久保","lat":40.443407,"lng":141.466129},{"code":"02203074012","name":"大字是川字小田頭","lat":40.462508,"lng":141.503879},{"code":"02203074013","name":"大字是川字追立","lat":40.479469,"lng":141.486875},{"code":"02203074014","name":"大字是川字街道端","lat":40.44232,"lng":141.519518},{"code":"02203074015","name":"大字是川字風張","lat":40.473492,"lng":141.495656},{"code":"02203074016","name":"大字是川字鍛冶畑","lat":40.473428,"lng":141.47457},{"code":"02203074017","name":"大字是川字潟野","lat":40.478167,"lng":141.489125},{"code":"02203074018","name":"大字是川字金ヶ坂","lat":40.482763,"lng":141.483887},{"code":"02203074019","name":"大字是川字上ノ沢","lat":40.471164,"lng":141.509245},{"code":"02203074020","name":"大字是川字鴨平","lat":40.440304,"lng":141.452758},{"code":"02203074021","name":"大字是川字寒家","lat":40.472342,"lng":141.504501},{"code":"02203074022","name":"大字是川字北城下","lat":40.457296,"lng":141.494463},{"code":"02203074023","name":"大字是川字雲畑","lat":40.460823,"lng":141.469376},{"code":"02203074024","name":"大字是川字小峠","lat":40.478011,"lng":141.476639},{"code":"02203074025","name":"大字是川字駒洗沢","lat":40.457798,"lng":141.462226},{"code":"02203074026","name":"大字是川字権現堂","lat":40.477646,"lng":141.492047},{"code":"02203074027","name":"大字是川字権現堂向","lat":40.479115,"lng":141.492713},{"code":"02203074028","name":"大字是川字才勝道","lat":40.455174,"lng":141.518345},{"code":"02203074029","name":"大字是川字妻ノ神","lat":40.461285,"lng":141.497159},{"code":"02203074030","name":"大字是川字坂ノ上","lat":40.443813,"lng":141.514425},{"code":"02203074031","name":"大字是川字坂ノ脇","lat":40.472777,"lng":141.507237},{"code":"02203074032","name":"大字是川字差波","lat":40.458922,"lng":141.486842},{"code":"02203074033","name":"大字是川字三十刈頭","lat":40.476991,"lng":141.482162},{"code":"02203074034","name":"大字是川字志民","lat":40.469016,"lng":141.506973},{"code":"02203074035","name":"大字是川字志民山","lat":40.465234,"lng":141.5105},{"code":"02203074036","name":"大字是川字下天狗沢","lat":40.471229,"lng":141.472503},{"code":"02203074037","name":"大字是川字下長根","lat":40.472088,"lng":141.501537},{"code":"02203074038","name":"大字是川字白幡","lat":40.463001,"lng":141.499891},{"code":"02203074039","name":"大字是川字新田","lat":40.48215,"lng":141.492464},{"code":"02203074040","name":"大字是川字外野場","lat":40.461183,"lng":141.513643},{"code":"02203074041","name":"大字是川字外和","lat":40.453838,"lng":141.516693},{"code":"02203074042","name":"大字是川字平ラ平","lat":40.470148,"lng":141.497143},{"code":"02203074043","name":"大字是川字田子沢","lat":40.472448,"lng":141.482167},{"code":"02203074044","name":"大字是川字館ノ内","lat":40.470144,"lng":141.495392},{"code":"02203074045","name":"大字是川字館前","lat":40.446751,"lng":141.496275},{"code":"02203074046","name":"大字是川字田中","lat":40.466457,"lng":141.484437},{"code":"02203074047","name":"大字是川字田中河原","lat":40.469799,"lng":141.492857},{"code":"02203074048","name":"大字是川字田向","lat":40.47599,"lng":141.490439},{"code":"02203074049","name":"大字是川字長吉蒔目","lat":40.446686,"lng":141.470535},{"code":"02203074050","name":"大字是川字丁塚長根","lat":40.446688,"lng":141.519586},{"code":"02203074051","name":"大字是川字土樋","lat":40.464638,"lng":141.502783},{"code":"02203074052","name":"大字是川字土橋","lat":40.453804,"lng":141.466516},{"code":"02203074053","name":"大字是川字堤頭","lat":40.480645,"lng":141.48215},{"code":"02203074054","name":"大字是川字寺ノ上","lat":40.464007,"lng":141.499228},{"code":"02203074055","name":"大字是川字天狗沢","lat":40.465261,"lng":141.472416},{"code":"02203074056","name":"大字是川字転道平","lat":40.482657,"lng":141.487855},{"code":"02203074057","name":"大字是川字十役下タ","lat":40.461687,"lng":141.493495},{"code":"02203074058","name":"大字是川字戸花","lat":40.455004,"lng":141.499501},{"code":"02203074059","name":"大字是川字土間沢","lat":40.480557,"lng":141.495886},{"code":"02203074060","name":"大字是川字中居","lat":40.473217,"lng":141.486736},{"code":"02203074061","name":"大字是川字中居河原","lat":40.473269,"lng":141.492625},{"code":"02203074062","name":"大字是川字中苗代下","lat":40.465109,"lng":141.506704},{"code":"02203074063","name":"大字是川字中山","lat":40.457696,"lng":141.502404},{"code":"02203074064","name":"大字是川字長田沢","lat":40.476318,"lng":141.487647},{"code":"02203074065","name":"大字是川字長根","lat":40.46751,"lng":141.512674},{"code":"02203074066","name":"大字是川字楢館平","lat":40.475689,"lng":141.507576},{"code":"02203074067","name":"大字是川字西母袋子","lat":40.443535,"lng":141.508448},{"code":"02203074068","name":"大字是川字西山","lat":40.424008,"lng":141.517854},{"code":"02203074069","name":"大字是川字鶏沢","lat":40.473769,"lng":141.504855},{"code":"02203074070","name":"大字是川字野添","lat":40.460572,"lng":141.500095},{"code":"02203074071","name":"大字是川字白蛇久保","lat":40.437813,"lng":141.516379},{"code":"02203074072","name":"大字是川字番屋","lat":40.448779,"lng":141.480141},{"code":"02203074073","name":"大字是川字東母袋子","lat":40.440532,"lng":141.514544},{"code":"02203074074","name":"大字是川字東前田","lat":40.457771,"lng":141.496066},{"code":"02203074075","name":"大字是川字二ツ屋","lat":40.483802,"lng":141.477562},{"code":"02203074076","name":"大字是川字平次郎","lat":40.458178,"lng":141.509046},{"code":"02203074077","name":"大字是川字細越河原","lat":40.458886,"lng":141.493747},{"code":"02203074078","name":"大字是川字堀田","lat":40.476331,"lng":141.493694},{"code":"02203074079","name":"大字是川字坊ア坂","lat":40.467939,"lng":141.477197},{"code":"02203074080","name":"大字是川字前平","lat":40.450025,"lng":141.468452},{"code":"02203074081","name":"大字是川字水越","lat":40.458206,"lng":141.510718},{"code":"02203074082","name":"大字是川字水越沢","lat":40.462128,"lng":141.507674},{"code":"02203074083","name":"大字是川字水野","lat":40.447444,"lng":141.514629},{"code":"02203074084","name":"大字是川字水野長根","lat":40.451696,"lng":141.515101},{"code":"02203074085","name":"大字是川字向古戸","lat":40.457871,"lng":141.499076},{"code":"02203074086","name":"大字是川字桃ノ窪","lat":40.440144,"lng":141.462361},{"code":"02203074087","name":"大字是川字横大道","lat":40.461143,"lng":141.506255},{"code":"02203074088","name":"大字是川字横道","lat":40.439194,"lng":141.519322},{"code":"02203075001","name":"是川１丁目","lat":40.465752,"lng":141.499964},{"code":"02203075002","name":"是川２丁目","lat":40.467396,"lng":141.496221},{"code":"02203075003","name":"是川３丁目","lat":40.470428,"lng":141.50001},{"code":"02203075004","name":"是川４丁目","lat":40.468878,"lng":141.501697},{"code":"02203075005","name":"是川５丁目","lat":40.466686,"lng":141.503599},{"code":"02203076001","name":"大字尻内町字泉沢","lat":40.522802,"lng":141.411842},{"code":"02203076002","name":"大字尻内町字内田","lat":40.515228,"lng":141.431244},{"code":"02203076003","name":"大字尻内町字内矢沢","lat":40.510504,"lng":141.429534},{"code":"02203076004","name":"大字尻内町字小夏間木沢","lat":40.50552,"lng":141.40206},{"code":"02203076005","name":"大字尻内町字狼走","lat":40.53505,"lng":141.422035},{"code":"02203076006","name":"大字尻内町字追分","lat":40.52342,"lng":141.398451},{"code":"02203076007","name":"大字尻内町字大川原","lat":40.499823,"lng":141.438769},{"code":"02203076008","name":"大字尻内町字大崎","lat":40.532126,"lng":141.398677},{"code":"02203076009","name":"大字尻内町字表河原","lat":40.504402,"lng":141.438362},{"code":"02203076010","name":"大字尻内町字家口田","lat":40.507348,"lng":141.441854},{"code":"02203076011","name":"大字尻内町字上川原","lat":40.503131,"lng":141.429411},{"code":"02203076012","name":"大字尻内町字上笹ノ沢","lat":40.53137,"lng":141.4337},{"code":"02203076013","name":"大字尻内町字上根市","lat":40.513219,"lng":141.411729},{"code":"02203076014","name":"大字尻内町字上張田","lat":40.515613,"lng":141.415433},{"code":"02203076015","name":"大字尻内町字上谷地","lat":40.506134,"lng":141.41731},{"code":"02203076016","name":"大字尻内町字鴨ケ池","lat":40.511024,"lng":141.433791},{"code":"02203076017","name":"大字尻内町字鴨田","lat":40.509378,"lng":141.441296},{"code":"02203076018","name":"大字尻内町字北熊ノ沢","lat":40.527693,"lng":141.426071},{"code":"02203076019","name":"大字尻内町字毛合清水","lat":40.535009,"lng":141.427496},{"code":"02203076020","name":"大字尻内町字笹ノ沢","lat":40.535292,"lng":141.437409},{"code":"02203076021","name":"大字尻内町字沢合","lat":40.504129,"lng":141.410058},{"code":"02203076022","name":"大字尻内町字沢堰","lat":40.518442,"lng":141.411234},{"code":"02203076023","name":"大字尻内町字沢ノ田","lat":40.507434,"lng":141.446914},{"code":"02203076024","name":"大字尻内町字三条目","lat":40.514353,"lng":141.427515},{"code":"02203076025","name":"大字尻内町字島田","lat":40.510161,"lng":141.443704},{"code":"02203076026","name":"大字尻内町字下窪","lat":40.50852,"lng":141.40952},{"code":"02203076027","name":"大字尻内町字下毛合清水","lat":40.540628,"lng":141.433022},{"code":"02203076028","name":"大字尻内町字下平添","lat":40.52718,"lng":141.405044},{"code":"02203076029","name":"大字尻内町字下根市","lat":40.514573,"lng":141.422217},{"code":"02203076030","name":"大字尻内町字正法寺","lat":40.517103,"lng":141.407693},{"code":"02203076031","name":"大字尻内町字尻内","lat":40.505052,"lng":141.442318},{"code":"02203076032","name":"大字尻内町字尻内河原","lat":40.506437,"lng":141.450389},{"code":"02203076033","name":"大字尻内町字尻細","lat":40.508764,"lng":141.447877},{"code":"02203076034","name":"大字尻内町字新上平","lat":40.527411,"lng":141.393463},{"code":"02203076035","name":"大字尻内町字新川下","lat":40.524369,"lng":141.439742},{"code":"02203076036","name":"大字尻内町字新川添","lat":40.517871,"lng":141.417099},{"code":"02203076037","name":"大字尻内町字直田","lat":40.516768,"lng":141.428905},{"code":"02203076038","name":"大字尻内町字直田堰","lat":40.518522,"lng":141.421735},{"code":"02203076039","name":"大字尻内町字蛇ノ沢","lat":40.519634,"lng":141.395602},{"code":"02203076040","name":"大字尻内町字平中","lat":40.506033,"lng":141.438783},{"code":"02203076041","name":"大字尻内町字平中後","lat":40.507414,"lng":141.43603},{"code":"02203076042","name":"大字尻内町字平中下","lat":40.506729,"lng":141.439675},{"code":"02203076043","name":"大字尻内町字高田","lat":40.508861,"lng":141.423508},{"code":"02203076044","name":"大字尻内町字滝谷沢","lat":40.521495,"lng":141.406683},{"code":"02203076045","name":"大字尻内町字館","lat":40.51977,"lng":141.404173},{"code":"02203076046","name":"大字尻内町字館後","lat":40.512004,"lng":141.417403},{"code":"02203076047","name":"大字尻内町字田端","lat":40.528763,"lng":141.43433},{"code":"02203076048","name":"大字尻内町字田端山","lat":40.525249,"lng":141.430838},{"code":"02203076049","name":"大字尻内町字大仏","lat":40.508368,"lng":141.413237},{"code":"02203076050","name":"大字尻内町字大仏館","lat":40.503252,"lng":141.412363},{"code":"02203076051","name":"大字尻内町字堤下","lat":40.523663,"lng":141.431891},{"code":"02203076052","name":"大字尻内町字栃ノ木","lat":40.517938,"lng":141.413102},{"code":"02203076053","name":"大字尻内町字中川原","lat":40.503519,"lng":141.435579},{"code":"02203076054","name":"大字尻内町字中崎","lat":40.505195,"lng":141.428508},{"code":"02203076055","name":"大字尻内町字中根市","lat":40.512842,"lng":141.425162},{"code":"02203076056","name":"大字尻内町字中道","lat":40.511713,"lng":141.422631},{"code":"02203076057","name":"大字尻内町字新井田新田","lat":40.517629,"lng":141.434515},{"code":"02203076058","name":"大字尻内町字人形場","lat":40.507939,"lng":141.428272},{"code":"02203076059","name":"大字尻内町字根市内矢沢","lat":40.510039,"lng":141.427704},{"code":"02203076060","name":"大字尻内町字根市渡ノ葉","lat":40.513168,"lng":141.406598},{"code":"02203076061","name":"大字尻内町字根岸","lat":40.519216,"lng":141.417166},{"code":"02203076062","name":"大字尻内町字根岸河原","lat":40.5166,"lng":141.403396},{"code":"02203076063","name":"大字尻内町字根岸山添","lat":40.530688,"lng":141.414104},{"code":"02203076064","name":"大字尻内町字鼠田","lat":40.503345,"lng":141.425849},{"code":"02203076065","name":"大字尻内町字畑田","lat":40.516706,"lng":141.413936},{"code":"02203076066","name":"大字尻内町字八百刈","lat":40.508585,"lng":141.438062},{"code":"02203076067","name":"大字尻内町字林ノ前","lat":40.520196,"lng":141.426744},{"code":"02203076068","name":"大字尻内町字張田","lat":40.516379,"lng":141.420721},{"code":"02203076069","name":"大字尻内町字馬場","lat":40.506391,"lng":141.436171},{"code":"02203076070","name":"大字尻内町字法霊","lat":40.513566,"lng":141.43018},{"code":"02203076071","name":"大字尻内町字洞","lat":40.518616,"lng":141.400713},{"code":"02203076072","name":"大字尻内町字前明戸","lat":40.502553,"lng":141.441871},{"code":"02203076073","name":"大字尻内町字前河原","lat":40.503647,"lng":141.444982},{"code":"02203076074","name":"大字尻内町字前堀","lat":40.539182,"lng":141.424147},{"code":"02203076075","name":"大字尻内町字前谷地","lat":40.520661,"lng":141.433281},{"code":"02203076076","name":"大字尻内町字松森","lat":40.518862,"lng":141.427919},{"code":"02203076077","name":"大字尻内町字メドツ河原","lat":40.511276,"lng":141.426842},{"code":"02203076078","name":"大字尻内町字矢沢","lat":40.506253,"lng":141.425583},{"code":"02203076079","name":"大字尻内町字柳館","lat":40.509784,"lng":141.411299},{"code":"02203076080","name":"大字尻内町字与助往名添","lat":40.510815,"lng":141.42092},{"code":"02203076081","name":"大字尻内町字六百刈","lat":40.508186,"lng":141.444607},{"code":"02203076082","name":"大字尻内町字渡ノ葉","lat":40.515767,"lng":141.409597},{"code":"02203077001","name":"一番町１丁目","lat":40.5089,"lng":141.433252},{"code":"02203077002","name":"一番町２丁目","lat":40.507878,"lng":141.434594},{"code":"02203077003","name":"一番町３丁目","lat":40.506008,"lng":141.431057},{"code":"02203078001","name":"大字市川町字赤川","lat":40.574175,"lng":141.443267},{"code":"02203078002","name":"大字市川町字赤川下","lat":40.579678,"lng":141.452343},{"code":"02203078003","name":"大字市川町字赤坂下","lat":40.577594,"lng":141.41469},{"code":"02203078004","name":"大字市川町字赤畑","lat":40.578178,"lng":141.442998},{"code":"02203078005","name":"大字市川町字市川","lat":40.585542,"lng":141.457048},{"code":"02203078006","name":"大字市川町字市川後","lat":40.592977,"lng":141.451728},{"code":"02203078007","name":"大字市川町字稲荷後","lat":40.581396,"lng":141.417927},{"code":"02203078008","name":"大字市川町字稲荷下","lat":40.581332,"lng":141.421566},{"code":"02203078009","name":"大字市川町字稲荷岱","lat":40.585777,"lng":141.425938},{"code":"02203078010","name":"大字市川町字姥懐","lat":40.5871,"lng":141.450382},{"code":"02203078011","name":"大字市川町字大沢下","lat":40.581227,"lng":141.430564},{"code":"02203078012","name":"大字市川町字壁取下","lat":40.581399,"lng":141.463329},{"code":"02203078013","name":"大字市川町字上大谷地","lat":40.582536,"lng":141.461576},{"code":"02203078014","name":"大字市川町字桔梗野","lat":40.561059,"lng":141.451949},{"code":"02203078015","name":"大字市川町字桔梗野上","lat":40.556185,"lng":141.447597},{"code":"02203078016","name":"大字市川町字桔梗野官地","lat":40.561441,"lng":141.461656},{"code":"02203078017","name":"大字市川町字桔梗野上官地","lat":40.556498,"lng":141.448295},{"code":"02203078018","name":"大字市川町字北雷平","lat":40.588569,"lng":141.44364},{"code":"02203078020","name":"大字市川町字鮫ノ口","lat":40.579813,"lng":141.421916},{"code":"02203078021","name":"大字市川町字下揚","lat":40.597167,"lng":141.461826},{"code":"02203078022","name":"大字市川町字下大谷地","lat":40.58017,"lng":141.46681},{"code":"02203078023","name":"大字市川町字下川原","lat":40.574735,"lng":141.427484},{"code":"02203078024","name":"大字市川町字下田堺","lat":40.5898,"lng":141.427907},{"code":"02203078025","name":"大字市川町字下中平沖","lat":40.592025,"lng":141.459205},{"code":"02203078026","name":"大字市川町字菖蒲谷地","lat":40.580614,"lng":141.442195},{"code":"02203078027","name":"大字市川町字尻引","lat":40.575356,"lng":141.438361},{"code":"02203078028","name":"大字市川町字尻引堤沢","lat":40.560084,"lng":141.441811},{"code":"02203078029","name":"大字市川町字尻引堤下","lat":40.564613,"lng":141.438842},{"code":"02203078030","name":"大字市川町字尻引前山","lat":40.563287,"lng":141.445981},{"code":"02203078031","name":"大字市川町字新田","lat":40.578977,"lng":141.430452},{"code":"02203078032","name":"大字市川町字新堀","lat":40.568776,"lng":141.442324},{"code":"02203078033","name":"大字市川町字菅谷地","lat":40.579679,"lng":141.435818},{"code":"02203078034","name":"大字市川町字高田","lat":40.573479,"lng":141.419852},{"code":"02203078035","name":"大字市川町字高丁場","lat":40.575588,"lng":141.414618},{"code":"02203078036","name":"大字市川町字高森","lat":40.584464,"lng":141.43471},{"code":"02203078037","name":"大字市川町字高屋敷","lat":40.589626,"lng":141.437629},{"code":"02203078038","name":"大字市川町字長七谷地","lat":40.572268,"lng":141.460694},{"code":"02203078039","name":"大字市川町字轟木","lat":40.578017,"lng":141.422962},{"code":"02203078040","name":"大字市川町字轟木前","lat":40.576028,"lng":141.423551},{"code":"02203078041","name":"大字市川町字轟木前谷地","lat":40.573534,"lng":141.425158},{"code":"02203078042","name":"大字市川町字堂ノ下","lat":40.590593,"lng":141.465208},{"code":"02203078043","name":"大字市川町字中川原","lat":40.574214,"lng":141.422392},{"code":"02203078044","name":"大字市川町字中谷地","lat":40.583193,"lng":141.448095},{"code":"02203078045","name":"大字市川町字夏秋","lat":40.580762,"lng":141.450414},{"code":"02203078046","name":"大字市川町字橋向","lat":40.586331,"lng":141.467223},{"code":"02203078047","name":"大字市川町字浜","lat":40.580331,"lng":141.474071},{"code":"02203078048","name":"大字市川町字船場川原","lat":40.593254,"lng":141.437492},{"code":"02203078049","name":"大字市川町字古館","lat":40.584681,"lng":141.460462},{"code":"02203078050","name":"大字市川町字水目沢","lat":40.56579,"lng":141.452835},{"code":"02203078051","name":"大字市川町字南雷平","lat":40.582273,"lng":141.44096},{"code":"02203078052","name":"大字市川町字南大谷地","lat":40.57648,"lng":141.468334},{"code":"02203078053","name":"大字市川町字南尻引","lat":40.571826,"lng":141.435662},{"code":"02203078054","name":"大字市川町字向谷地","lat":40.572347,"lng":141.448696},{"code":"02203078055","name":"大字市川町字向谷地前","lat":40.575267,"lng":141.455491},{"code":"02203078056","name":"大字市川町字和野","lat":40.57639,"lng":141.433143},{"code":"02203078057","name":"大字市川町字和野前山","lat":40.562437,"lng":141.435925},{"code":"02203078058","name":"大字市川町字藁田柳","lat":40.567611,"lng":141.437685},{"code":"02203078060","name":"大字市川町","lat":40.553732,"lng":141.439956},{"code":"02203078061","name":"大字市川町字田ノ沢","lat":40.566031,"lng":141.427244},{"code":"02203078062","name":"大字市川町字古場蔵","lat":40.553856,"lng":141.422805},{"code":"02203078063","name":"大字市川町字天久岱","lat":40.545825,"lng":141.418333},{"code":"022030790","name":"松ケ丘","lat":40.552269,"lng":141.448791},{"code":"02203080001","name":"多賀台１丁目","lat":40.584181,"lng":141.441767},{"code":"02203080002","name":"多賀台２丁目","lat":40.586069,"lng":141.441822},{"code":"02203080003","name":"多賀台３丁目","lat":40.587853,"lng":141.441705},{"code":"02203080004","name":"多賀台４丁目","lat":40.589037,"lng":141.441357},{"code":"02203081001","name":"大字八幡字五日町","lat":40.489358,"lng":141.432196},{"code":"02203081002","name":"大字八幡字後ロ田","lat":40.491983,"lng":141.430372},{"code":"02203081003","name":"大字八幡字鵜対","lat":40.494839,"lng":141.433294},{"code":"02203081004","name":"大字八幡字岡前","lat":40.482176,"lng":141.434208},{"code":"02203081005","name":"大字八幡字上鵜対","lat":40.492959,"lng":141.430274},{"code":"02203081006","name":"大字八幡字上ミ沢","lat":40.484521,"lng":141.435903},{"code":"02203081007","name":"大字八幡字上樋田","lat":40.497998,"lng":141.433053},{"code":"02203081008","name":"大字八幡字小出田","lat":40.4899,"lng":141.438644},{"code":"02203081009","name":"大字八幡字下陣屋","lat":40.488878,"lng":141.429522},{"code":"02203081010","name":"大字八幡字下前田","lat":40.491144,"lng":141.43917},{"code":"02203081011","name":"大字八幡字堰合","lat":40.491971,"lng":141.436363},{"code":"02203081012","name":"大字八幡字館ノ下","lat":40.486118,"lng":141.430921},{"code":"02203081013","name":"大字八幡字殿見","lat":40.486543,"lng":141.438224},{"code":"02203081014","name":"大字八幡字八幡丁","lat":40.488238,"lng":141.434271},{"code":"02203081015","name":"大字八幡字八森","lat":40.49009,"lng":141.442565},{"code":"02203081016","name":"大字八幡字林崎","lat":40.489687,"lng":141.437149},{"code":"02203081017","name":"大字八幡字深蕨","lat":40.479844,"lng":141.439504},{"code":"02203081018","name":"大字八幡字盆田","lat":40.483891,"lng":141.431017},{"code":"02203081019","name":"大字八幡字松ノ木田","lat":40.493051,"lng":141.433759},{"code":"02203082001","name":"大字櫛引字明戸河原","lat":40.474429,"lng":141.425094},{"code":"02203082002","name":"大字櫛引字上野平","lat":40.48302,"lng":141.41876},{"code":"02203082003","name":"大字櫛引字上町","lat":40.478948,"lng":141.436046},{"code":"02203082004","name":"大字櫛引字岡前","lat":40.480795,"lng":141.432008},{"code":"02203082005","name":"大字櫛引字上明戸","lat":40.475675,"lng":141.424363},{"code":"02203082006","name":"大字櫛引字上川原","lat":40.483794,"lng":141.427695},{"code":"02203082007","name":"大字櫛引字上館場","lat":40.48759,"lng":141.424193},{"code":"02203082008","name":"大字櫛引字上矢倉","lat":40.472221,"lng":141.431279},{"code":"02203082009","name":"大字櫛引字烏沢","lat":40.478584,"lng":141.426908},{"code":"02203082010","name":"大字櫛引字烏館場","lat":40.47986,"lng":141.423237},{"code":"02203082011","name":"大字櫛引字櫛引","lat":40.482331,"lng":141.42947},{"code":"02203082012","name":"大字櫛引字窪田","lat":40.506099,"lng":141.42024},{"code":"02203082013","name":"大字櫛引字鮫ノ口","lat":40.502459,"lng":141.421576},{"code":"02203082014","name":"大字櫛引字志賀良木","lat":40.475492,"lng":141.437653},{"code":"02203082015","name":"大字櫛引字下河原","lat":40.489515,"lng":141.427321},{"code":"02203082016","name":"大字櫛引字下矢倉","lat":40.474723,"lng":141.431377},{"code":"02203082017","name":"大字櫛引字地蔵長根","lat":40.480964,"lng":141.441187},{"code":"02203082018","name":"大字櫛引字蒼前沢","lat":40.486566,"lng":141.424919},{"code":"02203082019","name":"大字櫛引字館神","lat":40.477432,"lng":141.431706},{"code":"02203082020","name":"大字櫛引字土橋","lat":40.447992,"lng":141.45929},{"code":"02203082021","name":"大字櫛引字寺沢","lat":40.4831,"lng":141.424823},{"code":"02203082022","name":"大字櫛引字一日市","lat":40.489157,"lng":141.425194},{"code":"02203082023","name":"大字櫛引字鷹ノ巣","lat":40.500747,"lng":141.389194},{"code":"02203082024","name":"大字櫛引字前田","lat":40.491136,"lng":141.408068},{"code":"02203082025","name":"大字櫛引字通清水","lat":40.463853,"lng":141.441335},{"code":"02203082026","name":"大字櫛引字荒猪沢","lat":40.489195,"lng":141.418531},{"code":"02203082027","name":"大字櫛引字鷹待場","lat":40.485721,"lng":141.420422},{"code":"02203083001","name":"大字坂牛字上野平","lat":40.486121,"lng":141.440266},{"code":"02203083002","name":"大字坂牛字坂牛","lat":40.475021,"lng":141.450951},{"code":"02203084001","name":"大字上野字上野","lat":40.477704,"lng":141.419362},{"code":"02203084002","name":"大字上野字上野平","lat":40.480103,"lng":141.419879},{"code":"02203084003","name":"大字上野字大平森","lat":40.476468,"lng":141.400638},{"code":"02203084004","name":"大字上野字上明戸","lat":40.471615,"lng":141.41257},{"code":"02203084005","name":"大字上野字萱森","lat":40.478322,"lng":141.403595},{"code":"02203084006","name":"大字上野字久根合","lat":40.477994,"lng":141.407911},{"code":"02203084007","name":"大字上野字沢ノ上","lat":40.477532,"lng":141.413768},{"code":"02203084008","name":"大字上野字下ノ沢","lat":40.477963,"lng":141.41566},{"code":"02203084009","name":"大字上野字下明土","lat":40.47505,"lng":141.416447},{"code":"02203084010","name":"大字上野字外山","lat":40.479425,"lng":141.405932},{"code":"02203084011","name":"大字上野字平","lat":40.477037,"lng":141.408736},{"code":"02203084012","name":"大字上野字高岩","lat":40.475457,"lng":141.40516},{"code":"02203084013","name":"大字上野字西風張","lat":40.473254,"lng":141.411892},{"code":"02203084014","name":"大字上野字白蛇","lat":40.478878,"lng":141.410218},{"code":"02203084015","name":"大字上野字昼場","lat":40.479063,"lng":141.4168},{"code":"02203084016","name":"大字上野字古屋敷","lat":40.474862,"lng":141.414397},{"code":"02203084017","name":"大字上野字堀端","lat":40.474433,"lng":141.410284},{"code":"02203084018","name":"大字上野字山在家","lat":40.476855,"lng":141.411563},{"code":"02203085001","name":"大字豊崎町字油久保","lat":40.518036,"lng":141.39124},{"code":"02203085002","name":"大字豊崎町字池田","lat":40.521083,"lng":141.374329},{"code":"02203085003","name":"大字豊崎町字替地山下","lat":40.517826,"lng":141.383289},{"code":"02203085004","name":"大字豊崎町字金ヶ沢","lat":40.509109,"lng":141.378456},{"code":"02203085005","name":"大字豊崎町字上永福寺","lat":40.504759,"lng":141.376975},{"code":"02203085006","name":"大字豊崎町字上七崎","lat":40.515622,"lng":141.364229},{"code":"02203085007","name":"大字豊崎町字久保杉","lat":40.5129,"lng":141.375841},{"code":"02203085008","name":"大字豊崎町字境沢頭","lat":40.523246,"lng":141.388263},{"code":"02203085009","name":"大字豊崎町字境沢","lat":40.515953,"lng":141.384031},{"code":"02203085010","name":"大字豊崎町字境田","lat":40.514662,"lng":141.402538},{"code":"02203085011","name":"大字豊崎町字桜沢","lat":40.518293,"lng":141.372453},{"code":"02203085012","name":"大字豊崎町字桜渡","lat":40.510921,"lng":141.364675},{"code":"02203085013","name":"大字豊崎町字渋民","lat":40.516836,"lng":141.391208},{"code":"02203085014","name":"大字豊崎町字下永福寺","lat":40.513752,"lng":141.385908},{"code":"02203085015","name":"大字豊崎町字下滝","lat":40.509854,"lng":141.366739},{"code":"02203085016","name":"大字豊崎町字下七崎","lat":40.516709,"lng":141.380716},{"code":"02203085017","name":"大字豊崎町字白銀端","lat":40.516341,"lng":141.386416},{"code":"02203085018","name":"大字豊崎町字外ノ沢","lat":40.510346,"lng":141.386854},{"code":"02203085019","name":"大字豊崎町字高張","lat":40.515278,"lng":141.393698},{"code":"02203085020","name":"大字豊崎町字滝谷","lat":40.506692,"lng":141.360416},{"code":"02203085021","name":"大字豊崎町字堤下","lat":40.512027,"lng":141.396627},{"code":"02203085022","name":"大字豊崎町字中村","lat":40.51492,"lng":141.37684},{"code":"02203085023","name":"大字豊崎町字中谷地","lat":40.516533,"lng":141.376122},{"code":"02203085024","name":"大字豊崎町字長窪","lat":40.511198,"lng":141.359416},{"code":"02203085025","name":"大字豊崎町字浜坂脇","lat":40.517976,"lng":141.386913},{"code":"02203085026","name":"大字豊崎町字彦ヶ沢","lat":40.521315,"lng":141.380633},{"code":"02203085027","name":"大字豊崎町字平六沢","lat":40.504858,"lng":141.369001},{"code":"02203085028","name":"大字豊崎町字前田","lat":40.51335,"lng":141.371474},{"code":"02203085029","name":"大字豊崎町字前平","lat":40.511944,"lng":141.363731},{"code":"02203086001","name":"大字新井田字石橋","lat":40.493331,"lng":141.52575},{"code":"02203086002","name":"大字新井田字石仏","lat":40.492075,"lng":141.525985},{"code":"02203086003","name":"大字新井田字石動木","lat":40.500957,"lng":141.525758},{"code":"02203086004","name":"大字新井田字石動木平","lat":40.503241,"lng":141.528206},{"code":"02203086005","name":"大字新井田字市子林","lat":40.49099,"lng":141.523516},{"code":"02203086006","name":"大字新井田字市子巻目","lat":40.492459,"lng":141.538729},{"code":"02203086007","name":"大字新井田字岩淵","lat":40.513566,"lng":141.523632},{"code":"02203086008","name":"大字新井田字丑鞍森","lat":40.497967,"lng":141.528582},{"code":"02203086009","name":"大字新井田字風浚","lat":40.5138,"lng":141.526732},{"code":"02203086010","name":"大字新井田字上焼山","lat":40.504429,"lng":141.535255},{"code":"02203086011","name":"大字新井田字木戸場","lat":40.509359,"lng":141.527391},{"code":"02203086012","name":"大字新井田字小久保頭","lat":40.502262,"lng":141.538224},{"code":"02203086013","name":"大字新井田字小久保尻","lat":40.49668,"lng":141.541062},{"code":"02203086014","name":"大字新井田字後庵","lat":40.497978,"lng":141.520103},{"code":"02203086016","name":"大字新井田字妻ノ神","lat":40.493314,"lng":141.529528},{"code":"02203086017","name":"大字新井田字坂","lat":40.494034,"lng":141.523387},{"code":"02203086018","name":"大字新井田字塩入","lat":40.509614,"lng":141.524172},{"code":"02203086019","name":"大字新井田字塩入下","lat":40.511428,"lng":141.52185},{"code":"02203086020","name":"大字新井田字重地","lat":40.500034,"lng":141.522719},{"code":"02203086022","name":"大字新井田字下鷹待場","lat":40.515359,"lng":141.521871},{"code":"02203086023","name":"大字新井田字常光田","lat":40.495962,"lng":141.523806},{"code":"02203086024","name":"大字新井田字外久保","lat":40.493464,"lng":141.534206},{"code":"02203086025","name":"大字新井田字平前","lat":40.50946,"lng":141.529967},{"code":"02203086026","name":"大字新井田字鷹清水","lat":40.508452,"lng":141.522148},{"code":"02203086027","name":"大字新井田字鷹待場","lat":40.511955,"lng":141.525811},{"code":"02203086028","name":"大字新井田字立石沢","lat":40.496609,"lng":141.527513},{"code":"02203086029","name":"大字新井田字館下","lat":40.492813,"lng":141.519261},{"code":"02203086030","name":"大字新井田字館平","lat":40.491105,"lng":141.51915},{"code":"02203086031","name":"大字新井田字長塚","lat":40.501079,"lng":141.530042},{"code":"02203086032","name":"大字新井田字長塚森","lat":40.496121,"lng":141.530141},{"code":"02203086033","name":"大字新井田字長宝野","lat":40.492234,"lng":141.532552},{"code":"02203086034","name":"大字新井田字寺窪","lat":40.507691,"lng":141.527093},{"code":"02203086035","name":"大字新井田字寺沢","lat":40.506208,"lng":141.526599},{"code":"02203086036","name":"大字新井田字寺沢下","lat":40.506287,"lng":141.522603},{"code":"02203086037","name":"大字新井田字寺ノ上","lat":40.498855,"lng":141.524267},{"code":"02203086038","name":"大字新井田字出口平","lat":40.489948,"lng":141.541224},{"code":"02203086039","name":"大字新井田字外館","lat":40.489106,"lng":141.52038},{"code":"02203086040","name":"大字新井田字中ノ森","lat":40.510959,"lng":141.527532},{"code":"02203086041","name":"大字新井田字中町","lat":40.496123,"lng":141.520666},{"code":"02203086042","name":"大字新井田字西平","lat":40.503369,"lng":141.524539},{"code":"02203086043","name":"大字新井田字畑中","lat":40.495012,"lng":141.518599},{"code":"02203086044","name":"大字新井田字八幡川原","lat":40.491555,"lng":141.51697},{"code":"02203086045","name":"大字新井田字八森平","lat":40.498977,"lng":141.538746},{"code":"02203086046","name":"大字新井田字林ノ上","lat":40.515159,"lng":141.524649},{"code":"02203086047","name":"大字新井田字古館","lat":40.49665,"lng":141.518856},{"code":"02203086048","name":"大字新井田字古戸沢","lat":40.488885,"lng":141.522471},{"code":"02203086049","name":"大字新井田字法光野","lat":40.498793,"lng":141.521184},{"code":"02203086050","name":"大字新井田字朴木沢","lat":40.494657,"lng":141.527113},{"code":"02203086051","name":"大字新井田字前田","lat":40.491938,"lng":141.521609},{"code":"02203086052","name":"大字新井田字松山","lat":40.499823,"lng":141.528057},{"code":"02203086053","name":"大字新井田字松山下野場","lat":40.503658,"lng":141.532844},{"code":"02203086054","name":"大字新井田字松山中野場","lat":40.500841,"lng":141.536237},{"code":"02203086055","name":"大字新井田字水溜","lat":40.507961,"lng":141.530278},{"code":"02203086056","name":"大字新井田字門前","lat":40.497698,"lng":141.522573},{"code":"02203086057","name":"大字新井田字山道","lat":40.49318,"lng":141.522276},{"code":"02203086058","name":"大字新井田字横町","lat":40.493928,"lng":141.518974},{"code":"02203086059","name":"大字新井田字重地下","lat":40.504278,"lng":141.522762},{"code":"02203087001","name":"旭ケ丘１丁目","lat":40.496627,"lng":141.535642},{"code":"02203087002","name":"旭ケ丘２丁目","lat":40.49635,"lng":141.532518},{"code":"02203087003","name":"旭ケ丘３丁目","lat":40.499085,"lng":141.534066},{"code":"02203087004","name":"旭ケ丘４丁目","lat":40.496839,"lng":141.538426},{"code":"02203087005","name":"旭ケ丘５丁目","lat":40.494397,"lng":141.535058},{"code":"02203088001","name":"湊高台１丁目","lat":40.507013,"lng":141.533615},{"code":"02203088002","name":"湊高台２丁目","lat":40.50479,"lng":141.538787},{"code":"02203088003","name":"湊高台３丁目","lat":40.506197,"lng":141.544014},{"code":"02203088004","name":"湊高台４丁目","lat":40.508148,"lng":141.539944},{"code":"02203088005","name":"湊高台５丁目","lat":40.509878,"lng":141.535747},{"code":"02203088006","name":"湊高台６丁目","lat":40.511828,"lng":141.538374},{"code":"02203088007","name":"湊高台７丁目","lat":40.507158,"lng":141.547531},{"code":"02203088008","name":"湊高台８丁目","lat":40.502494,"lng":141.546118},{"code":"02203089001","name":"大字妙字油久保","lat":40.489301,"lng":141.52906},{"code":"02203089002","name":"大字妙字市子林","lat":40.490029,"lng":141.52498},{"code":"02203089003","name":"大字妙字犬森","lat":40.481777,"lng":141.532233},{"code":"02203089004","name":"大字妙字内妙","lat":40.483474,"lng":141.528591},{"code":"02203089005","name":"大字妙字大開","lat":40.479923,"lng":141.558575},{"code":"02203089006","name":"大字妙字桶屋平","lat":40.488655,"lng":141.538089},{"code":"02203089007","name":"大字妙字蟹沢","lat":40.477773,"lng":141.539171},{"code":"02203089008","name":"大字妙字黒ケ沢","lat":40.487554,"lng":141.528757},{"code":"02203089009","name":"大字妙字坂中","lat":40.490794,"lng":141.527899},{"code":"02203089010","name":"大字妙字滝沢","lat":40.483561,"lng":141.53971},{"code":"02203089011","name":"大字妙字西","lat":40.485614,"lng":141.527882},{"code":"02203089012","name":"大字妙字西平","lat":40.486997,"lng":141.547129},{"code":"02203089013","name":"大字妙字野場","lat":40.489274,"lng":141.534209},{"code":"02203089014","name":"大字妙字花生","lat":40.482398,"lng":141.546088},{"code":"02203089015","name":"大字妙字東","lat":40.488053,"lng":141.532313},{"code":"02203089016","name":"大字妙字藤蕪","lat":40.484543,"lng":141.525922},{"code":"02203089017","name":"大字妙字古戸","lat":40.489037,"lng":141.524416},{"code":"02203089018","name":"大字妙字分枝","lat":40.484849,"lng":141.53256},{"code":"02203089019","name":"大字妙字間山","lat":40.487464,"lng":141.524462},{"code":"02203089020","name":"大字妙字水上","lat":40.48659,"lng":141.537775},{"code":"02203089021","name":"大字妙字向野場","lat":40.491579,"lng":141.534564},{"code":"02203090001","name":"大字松館字赤羽根","lat":40.466171,"lng":141.536848},{"code":"02203090002","name":"大字松館字赤平","lat":40.464164,"lng":141.533795},{"code":"02203090003","name":"大字松館字牛ヶ沢","lat":40.460873,"lng":141.5278},{"code":"02203090004","name":"大字松館字大清水","lat":40.467183,"lng":141.520706},{"code":"02203090005","name":"大字松館字大向","lat":40.46165,"lng":141.541366},{"code":"02203090006","name":"大字松館字岡田","lat":40.47126,"lng":141.52486},{"code":"02203090007","name":"大字松館字奥沢","lat":40.466082,"lng":141.527132},{"code":"02203090008","name":"大字松館字奥沢野場","lat":40.462464,"lng":141.524573},{"code":"02203090009","name":"大字松館字籠田","lat":40.473918,"lng":141.522393},{"code":"02203090010","name":"大字松館字風張","lat":40.466407,"lng":141.541172},{"code":"02203090011","name":"大字松館字上寺地","lat":40.456342,"lng":141.545999},{"code":"02203090012","name":"大字松館字在家山谷","lat":40.461765,"lng":141.52035},{"code":"02203090013","name":"大字松館字外ヶ口","lat":40.464682,"lng":141.538484},{"code":"02203090014","name":"大字松館字高屋敷","lat":40.471736,"lng":141.535835},{"code":"02203090015","name":"大字松館字田ノ平","lat":40.47622,"lng":141.52757},{"code":"02203090016","name":"大字松館字長塚","lat":40.468452,"lng":141.538803},{"code":"02203090017","name":"大字松館字寺地","lat":40.462547,"lng":141.544814},{"code":"02203090018","name":"大字松館字砥倉","lat":40.468812,"lng":141.549064},{"code":"02203090019","name":"大字松館字長坂","lat":40.458257,"lng":141.538863},{"code":"02203090020","name":"大字松館字夏川戸","lat":40.466947,"lng":141.53292},{"code":"02203090021","name":"大字松館字古里","lat":40.470189,"lng":141.531587},{"code":"02203090022","name":"大字松館字細越","lat":40.480442,"lng":141.525746},{"code":"02203090023","name":"大字松館字水野平","lat":40.462554,"lng":141.518579},{"code":"02203090024","name":"大字松館字門前","lat":40.466919,"lng":141.535074},{"code":"02203091001","name":"大字十日市字赤御堂","lat":40.486064,"lng":141.519748},{"code":"02203091002","name":"大字十日市字姥岩","lat":40.481263,"lng":141.507632},{"code":"02203091003","name":"大字十日市字風浚","lat":40.48096,"lng":141.513939},{"code":"02203091004","name":"大字十日市字風山","lat":40.471037,"lng":141.512392},{"code":"02203091005","name":"大字十日市字上赤坂","lat":40.47726,"lng":141.515895},{"code":"02203091006","name":"大字十日市字上樋田","lat":40.486378,"lng":141.513822},{"code":"02203091007","name":"大字十日市字上谷地","lat":40.478469,"lng":141.513424},{"code":"02203091008","name":"大字十日市字黒坂","lat":40.480124,"lng":141.519565},{"code":"02203091009","name":"大字十日市字黒坂前","lat":40.480982,"lng":141.522958},{"code":"02203091010","name":"大字十日市字下赤坂","lat":40.478462,"lng":141.516133},{"code":"02203091011","name":"大字十日市字下谷地","lat":40.480293,"lng":141.516324},{"code":"02203091012","name":"大字十日市字茶立場","lat":40.483435,"lng":141.519632},{"code":"02203091013","name":"大字十日市字天摩","lat":40.47474,"lng":141.516784},{"code":"02203091014","name":"大字十日市字長根","lat":40.481636,"lng":141.512291},{"code":"02203091015","name":"大字十日市字西","lat":40.484411,"lng":141.511826},{"code":"02203091016","name":"大字十日市字登手","lat":40.47999,"lng":141.51045},{"code":"02203091017","name":"大字十日市字花水河原","lat":40.484531,"lng":141.509199},{"code":"02203091018","name":"大字十日市字伏部内","lat":40.482069,"lng":141.51702},{"code":"02203091019","name":"大字十日市字松ケ崎","lat":40.483779,"lng":141.515583},{"code":"02203091020","name":"大字十日市字弥次郎窪","lat":40.477805,"lng":141.509258},{"code":"02203091021","name":"大字十日市字留流","lat":40.469708,"lng":141.51596},{"code":"02203093001","name":"岬台１丁目","lat":40.517323,"lng":141.564151},{"code":"02203093002","name":"岬台２丁目","lat":40.516817,"lng":141.566907},{"code":"02203093003","name":"岬台３丁目","lat":40.516406,"lng":141.569314},{"code":"02203093004","name":"岬台４丁目","lat":40.519385,"lng":141.565522},{"code":"02203094101","name":"長根１丁目","lat":40.511683,"lng":141.479526},{"code":"02203094102","name":"長根２丁目","lat":40.514315,"lng":141.475892},{"code":"02203094201","name":"売市１丁目","lat":40.509711,"lng":141.477792},{"code":"02203094202","name":"売市２丁目","lat":40.509152,"lng":141.475071},{"code":"02203094203","name":"売市３丁目","lat":40.510746,"lng":141.471078},{"code":"02203094204","name":"売市４丁目","lat":40.513317,"lng":141.472952},{"code":"02203094303","name":"売市第二区画字馬場頭","lat":40.51704,"lng":141.474048},{"code":"02203094304","name":"売市第二区画字長根平","lat":40.5158,"lng":141.479275},{"code":"02203095001","name":"南類家１丁目","lat":40.504001,"lng":141.504214},{"code":"02203095002","name":"南類家２丁目","lat":40.501029,"lng":141.506699},{"code":"02203095003","name":"南類家３丁目","lat":40.503212,"lng":141.509544},{"code":"02203095004","name":"南類家４丁目","lat":40.500609,"lng":141.511793},{"code":"02203095005","name":"南類家５丁目","lat":40.49882,"lng":141.509594},{"code":"02203096101","name":"北白山台１丁目","lat":40.492005,"lng":141.466246},{"code":"02203096102","name":"北白山台２丁目","lat":40.493767,"lng":141.460967},{"code":"02203096103","name":"北白山台３丁目","lat":40.488802,"lng":141.465301},{"code":"02203096104","name":"北白山台４丁目","lat":40.489568,"lng":141.461775},{"code":"02203096105","name":"北白山台５丁目","lat":40.485725,"lng":141.462964},{"code":"02203096106","name":"北白山台６丁目","lat":40.485936,"lng":141.458606},{"code":"02203096201","name":"東白山台１丁目","lat":40.488749,"lng":141.469241},{"code":"02203096202","name":"東白山台２丁目","lat":40.485421,"lng":141.470225},{"code":"02203096203","name":"東白山台３丁目","lat":40.483388,"lng":141.464524},{"code":"02203096204","name":"東白山台４丁目","lat":40.480909,"lng":141.470811},{"code":"02203096301","name":"西白山台１丁目","lat":40.482393,"lng":141.455517},{"code":"02203096302","name":"西白山台２丁目","lat":40.481468,"lng":141.450378},{"code":"02203096303","name":"西白山台３丁目","lat":40.47967,"lng":141.457889},{"code":"02203096304","name":"西白山台４丁目","lat":40.477429,"lng":141.454977},{"code":"02203096305","name":"西白山台５丁目","lat":40.473976,"lng":141.458667},{"code":"02203096306","name":"西白山台６丁目","lat":40.475849,"lng":141.45325},{"code":"02203096401","name":"南白山台１丁目","lat":40.478351,"lng":141.464401},{"code":"02203096402","name":"南白山台２丁目","lat":40.480038,"lng":141.462063},{"code":"02203096403","name":"南白山台３丁目","lat":40.47476,"lng":141.463683},{"code":"02203097101","name":"新井田西１丁目","lat":40.504005,"lng":141.519078},{"code":"02203097102","name":"新井田西２丁目","lat":40.501185,"lng":141.52036},{"code":"02203097103","name":"新井田西３丁目","lat":40.497384,"lng":141.517033},{"code":"02203097104","name":"新井田西４丁目","lat":40.500015,"lng":141.514927},{"code":"02203098001","name":"北インター工業団地１丁目","lat":40.545917,"lng":141.434229},{"code":"02203098002","name":"北インター工業団地２丁目","lat":40.545435,"lng":141.428742},{"code":"02203098003","name":"北インター工業団地３丁目","lat":40.547218,"lng":141.425427},{"code":"02203098004","name":"北インター工業団地４丁目","lat":40.558133,"lng":141.428612},{"code":"02203098005","name":"北インター工業団地５丁目","lat":40.553287,"lng":141.4297},{"code":"02203098006","name":"北インター工業団地６丁目","lat":40.551254,"lng":141.434108},{"code":"02203099001","name":"卸センター１丁目","lat":40.523612,"lng":141.452988},{"code":"02203099002","name":"卸センター２丁目","lat":40.522169,"lng":141.453741},{"code":"022031000","name":"南郷大字島守","lat":40.393075,"lng":141.498599},{"code":"022031010","name":"南郷大字頃巻沢","lat":40.435657,"lng":141.474195},{"code":"022031020","name":"南郷大字中野","lat":40.408459,"lng":141.416536},{"code":"022031030","name":"南郷大字市野沢","lat":40.400871,"lng":141.446128},{"code":"022031040","name":"南郷大字泥障作","lat":40.428358,"lng":141.452885},{"code":"022031050","name":"南郷大字大森","lat":40.37944,"lng":141.413827},{"code":"022031060","name":"南郷大字泉清水","lat":40.373331,"lng":141.38775},{"code":"02203107001","name":"桜ヶ丘１丁目","lat":40.499433,"lng":141.544045},{"code":"02203107002","name":"桜ヶ丘２丁目","lat":40.49538,"lng":141.546882},{"code":"02203107003","name":"桜ヶ丘３丁目","lat":40.496287,"lng":141.548774},{"code":"02203107004","name":"桜ヶ丘４丁目","lat":40.496902,"lng":141.551139}]}
