{"municipality":"02202","name":"弘前市","prefecture":"青森県","source":{"dataset":"frogcat/japan-small-area","census":"平成27年国勢調査 小地域（e-Stat 統計LOD）","license":"MIT（リポジトリ）／政府統計の総合窓口(e-Stat)の利用規約（元データ・出典表記必要）","fetched":"2026-07-06"},"towns":[{"code":"022020010","name":"大字本町","lat":40.59987,"lng":140.466112},{"code":"022020020","name":"大字元長町","lat":40.602286,"lng":140.468169},{"code":"022020030","name":"大字元大工町","lat":40.602002,"lng":140.46639},{"code":"022020040","name":"大字上白銀町","lat":40.603302,"lng":140.462621},{"code":"022020050","name":"大字塩分町","lat":40.602493,"lng":140.462912},{"code":"022020060","name":"大字森町","lat":40.601548,"lng":140.462491},{"code":"022020070","name":"大字覚仙町","lat":40.600564,"lng":140.462428},{"code":"022020080","name":"大字在府町","lat":40.598523,"lng":140.462082},{"code":"022020090","name":"大字相良町","lat":40.599867,"lng":140.46592},{"code":"022020100","name":"大字茂森町","lat":40.599826,"lng":140.460334},{"code":"022020110","name":"大字新寺町","lat":40.595246,"lng":140.463284},{"code":"022020120","name":"大字新寺町新割町","lat":40.596657,"lng":140.46348},{"code":"022020130","name":"大字北新寺町","lat":40.597654,"lng":140.466299},{"code":"02202014001","name":"大字西茂森１丁目","lat":40.599662,"lng":140.45446},{"code":"02202014002","name":"大字西茂森２丁目","lat":40.597778,"lng":140.455059},{"code":"02202016001","name":"大字茂森新町１丁目","lat":40.595642,"lng":140.455985},{"code":"02202016002","name":"大字茂森新町２丁目","lat":40.59647,"lng":140.455079},{"code":"02202016003","name":"大字茂森新町３丁目","lat":40.595759,"lng":140.449815},{"code":"02202016004","name":"大字茂森新町４丁目","lat":40.593206,"lng":140.451051},{"code":"022020200","name":"大字南塘町","lat":40.597332,"lng":140.463418},{"code":"022020210","name":"大字鍛冶町","lat":40.601104,"lng":140.470103},{"code":"022020220","name":"大字新鍛冶町","lat":40.600556,"lng":140.471112},{"code":"022020230","name":"大字桶屋町","lat":40.598947,"lng":140.469329},{"code":"022020240","name":"大字銅屋町","lat":40.597043,"lng":140.469257},{"code":"022020250","name":"大字南川端町","lat":40.597616,"lng":140.470849},{"code":"022020260","name":"大字北川端町","lat":40.600118,"lng":140.471976},{"code":"022020270","name":"大字土手町","lat":40.599393,"lng":140.474686},{"code":"022020280","name":"大字山道町","lat":40.599012,"lng":140.473801},{"code":"022020290","name":"大字住吉町","lat":40.597427,"lng":140.473391},{"code":"022020300","name":"大字松森町","lat":40.592563,"lng":140.481065},{"code":"022020310","name":"大字楮町","lat":40.593676,"lng":140.482544},{"code":"022020320","name":"大字和徳町","lat":40.608337,"lng":140.481494},{"code":"022020330","name":"大字代官町","lat":40.601497,"lng":140.478631},{"code":"022020340","name":"大字植田町","lat":40.603391,"lng":140.478455},{"code":"022020350","name":"大字緑町","lat":40.602396,"lng":140.477068},{"code":"022020360","name":"大字萱町","lat":40.604127,"lng":140.477635},{"code":"022020370","name":"大字上瓦ケ町","lat":40.600075,"lng":140.476431},{"code":"022020380","name":"大字中瓦ケ町","lat":40.60099,"lng":140.47603},{"code":"022020390","name":"大字南瓦ケ町","lat":40.600371,"lng":140.475128},{"code":"022020400","name":"大字北瓦ケ町","lat":40.601543,"lng":140.476636},{"code":"022020410","name":"大字坂本町","lat":40.602052,"lng":140.475464},{"code":"022020420","name":"大字山下町","lat":40.602533,"lng":140.475011},{"code":"022020430","name":"大字徒町","lat":40.603059,"lng":140.473262},{"code":"022020440","name":"大字田代町","lat":40.601973,"lng":140.474525},{"code":"022020450","name":"大字西川岸町","lat":40.601424,"lng":140.474267},{"code":"022020460","name":"大字徒町川端町","lat":40.604731,"lng":140.474059},{"code":"022020470","name":"大字徳田町","lat":40.60429,"lng":140.474908},{"code":"022020480","name":"大字南柳町","lat":40.60318,"lng":140.475354},{"code":"022020490","name":"大字北柳町","lat":40.604159,"lng":140.475758},{"code":"022020500","name":"大字南横町","lat":40.604363,"lng":140.476647},{"code":"022020510","name":"大字北横町","lat":40.608504,"lng":140.478051},{"code":"022020520","name":"大字茶畑町","lat":40.60698,"lng":140.481145},{"code":"02202053101","name":"大字堅田１丁目","lat":40.613822,"lng":140.488915},{"code":"02202053102","name":"大字堅田２丁目","lat":40.61667,"lng":140.49117},{"code":"02202053103","name":"大字堅田３丁目","lat":40.610646,"lng":140.489303},{"code":"02202053104","name":"大字堅田４丁目","lat":40.614035,"lng":140.491828},{"code":"02202053105","name":"大字堅田５丁目","lat":40.613433,"lng":140.493496},{"code":"022020532","name":"大字堅田","lat":40.629948,"lng":140.487438},{"code":"02202054001","name":"大字野田１丁目","lat":40.608516,"lng":140.481274},{"code":"02202054002","name":"大字野田２丁目","lat":40.60861,"lng":140.479611},{"code":"02202056001","name":"大字神田１丁目","lat":40.618151,"lng":140.488808},{"code":"02202056002","name":"大字神田２丁目","lat":40.619544,"lng":140.486288},{"code":"02202056003","name":"大字神田３丁目","lat":40.623951,"lng":140.486356},{"code":"02202056004","name":"大字神田４丁目","lat":40.624223,"lng":140.489098},{"code":"02202056005","name":"大字神田５丁目","lat":40.622942,"lng":140.491682},{"code":"022020610","name":"大字親方町","lat":40.60236,"lng":140.469579},{"code":"022020620","name":"大字一番町","lat":40.603097,"lng":140.47056},{"code":"022020630","name":"大字百石町","lat":40.604691,"lng":140.472779},{"code":"022020640","name":"大字百石町小路","lat":40.605836,"lng":140.472205},{"code":"022020650","name":"大字鉄砲町","lat":40.603844,"lng":140.471136},{"code":"022020660","name":"大字上鞘師町","lat":40.604581,"lng":140.471256},{"code":"022020670","name":"大字下鞘師町","lat":40.605618,"lng":140.471373},{"code":"022020680","name":"大字元寺町","lat":40.604856,"lng":140.469899},{"code":"022020690","name":"大字元寺町小路","lat":40.606329,"lng":140.471439},{"code":"022020700","name":"大字下白銀町","lat":40.607346,"lng":140.465539},{"code":"022020710","name":"大字東長町","lat":40.6068,"lng":140.472469},{"code":"022020720","name":"大字大浦町","lat":40.610477,"lng":140.469266},{"code":"022020730","name":"大字蔵主町","lat":40.609567,"lng":140.470179},{"code":"022020740","name":"大字長坂町","lat":40.609231,"lng":140.471598},{"code":"022020750","name":"大字笹森町","lat":40.608445,"lng":140.473286},{"code":"022020760","name":"大字田茂木町","lat":40.610873,"lng":140.476721},{"code":"02202077001","name":"大字田町１丁目","lat":40.611337,"lng":140.480527},{"code":"02202077002","name":"大字田町２丁目","lat":40.611779,"lng":140.478506},{"code":"02202077003","name":"大字田町３丁目","lat":40.613742,"lng":140.478463},{"code":"02202077004","name":"大字田町４丁目","lat":40.613952,"lng":140.480633},{"code":"02202077005","name":"大字田町５丁目","lat":40.613704,"lng":140.482582},{"code":"02202081001","name":"大字八幡町１丁目","lat":40.616449,"lng":140.479009},{"code":"02202081002","name":"大字八幡町２丁目","lat":40.616667,"lng":140.481402},{"code":"02202081003","name":"大字八幡町３丁目","lat":40.616147,"lng":140.483859},{"code":"022020830","name":"大字禰宜町","lat":40.612055,"lng":140.476016},{"code":"022020840","name":"大字亀甲町","lat":40.611717,"lng":140.469046},{"code":"022020850","name":"大字若党町","lat":40.612916,"lng":140.468371},{"code":"022020860","name":"大字小人町","lat":40.61305,"lng":140.472155},{"code":"022020870","name":"大字馬喰町","lat":40.613513,"lng":140.4686},{"code":"022020880","name":"大字春日町","lat":40.614764,"lng":140.467256},{"code":"02202089001","name":"大字栄町１丁目","lat":40.615155,"lng":140.46494},{"code":"02202089002","name":"大字栄町２丁目","lat":40.616513,"lng":140.465749},{"code":"02202089003","name":"大字栄町３丁目","lat":40.617958,"lng":140.469988},{"code":"02202089004","name":"大字栄町４丁目","lat":40.618647,"lng":140.467756},{"code":"02202093001","name":"大字西城北１丁目","lat":40.615143,"lng":140.470236},{"code":"02202093002","name":"大字西城北２丁目","lat":40.617753,"lng":140.47143},{"code":"02202095001","name":"大字東城北１丁目","lat":40.614218,"lng":140.473475},{"code":"02202095002","name":"大字東城北２丁目","lat":40.616135,"lng":140.47375},{"code":"02202095003","name":"大字東城北３丁目","lat":40.618469,"lng":140.473181},{"code":"02202098001","name":"大字宮園１丁目","lat":40.613868,"lng":140.476277},{"code":"02202098002","name":"大字宮園２丁目","lat":40.615901,"lng":140.476512},{"code":"02202098003","name":"大字宮園３丁目","lat":40.617697,"lng":140.475705},{"code":"02202098004","name":"大字宮園４丁目","lat":40.619462,"lng":140.478707},{"code":"02202098005","name":"大字宮園５丁目","lat":40.620037,"lng":140.475475},{"code":"022021030","name":"大字山王町","lat":40.609593,"lng":140.475178},{"code":"022021040","name":"大字馬屋町","lat":40.605834,"lng":140.460457},{"code":"022021050","name":"大字鷹匠町","lat":40.605561,"lng":140.45826},{"code":"022021060","name":"大字新町","lat":40.606747,"lng":140.457383},{"code":"022021070","name":"大字南袋町","lat":40.602384,"lng":140.458443},{"code":"022021080","name":"大字駒越町","lat":40.608196,"lng":140.452409},{"code":"022021090","name":"大字平岡町","lat":40.609839,"lng":140.453818},{"code":"022021100","name":"大字西大工町","lat":40.607842,"lng":140.455354},{"code":"022021110","name":"大字袋町","lat":40.610214,"lng":140.459125},{"code":"022021120","name":"大字五十石町","lat":40.609429,"lng":140.460379},{"code":"022021130","name":"大字紺屋町","lat":40.612925,"lng":140.46198},{"code":"022021140","name":"大字和田町","lat":40.612814,"lng":140.456785},{"code":"02202115001","name":"大字城西１丁目","lat":40.605464,"lng":140.453087},{"code":"02202115002","name":"大字城西２丁目","lat":40.606575,"lng":140.450108},{"code":"02202115003","name":"大字城西３丁目","lat":40.603887,"lng":140.448218},{"code":"02202115004","name":"大字城西４丁目","lat":40.603298,"lng":140.450335},{"code":"02202115005","name":"大字城西５丁目","lat":40.603411,"lng":140.454057},{"code":"022021200","name":"大字河原町","lat":40.608108,"lng":140.45032},{"code":"02202121101","name":"大字樋の口１丁目","lat":40.606098,"lng":140.44597},{"code":"02202121102","name":"大字樋の口２丁目","lat":40.60298,"lng":140.445311},{"code":"02202121201","name":"大字茜町１丁目","lat":40.600883,"lng":140.449119},{"code":"02202121202","name":"大字茜町２丁目","lat":40.59917,"lng":140.447349},{"code":"02202121203","name":"大字茜町３丁目","lat":40.599547,"lng":140.444473},{"code":"022021213","name":"大字樋の口町","lat":40.599432,"lng":140.438026},{"code":"02202122001","name":"大字南城西１丁目","lat":40.602301,"lng":140.454042},{"code":"02202122002","name":"大字南城西２丁目","lat":40.601321,"lng":140.454627},{"code":"02202124001","name":"大字富田１丁目","lat":40.596037,"lng":140.474013},{"code":"02202124002","name":"大字富田２丁目","lat":40.594192,"lng":140.473475},{"code":"02202124003","name":"大字富田３丁目","lat":40.592054,"lng":140.474235},{"code":"022021270","name":"大字吉野町","lat":40.597351,"lng":140.472027},{"code":"022021280","name":"大字紙漉町","lat":40.59497,"lng":140.470712},{"code":"022021290","name":"大字桜林町","lat":40.59344,"lng":140.469042},{"code":"022021300","name":"大字富士見町","lat":40.591496,"lng":140.470526},{"code":"022021310","name":"大字西ケ丘町","lat":40.587068,"lng":140.468186},{"code":"022021320","name":"大字寒沢町","lat":40.590169,"lng":140.467582},{"code":"02202133001","name":"大字桔梗野１丁目","lat":40.591536,"lng":140.465729},{"code":"02202133002","name":"大字桔梗野２丁目","lat":40.592243,"lng":140.462513},{"code":"02202133003","name":"大字桔梗野３丁目","lat":40.589991,"lng":140.461689},{"code":"02202133004","name":"大字桔梗野４丁目","lat":40.587922,"lng":140.462297},{"code":"02202133005","name":"大字桔梗野５丁目","lat":40.587523,"lng":140.465166},{"code":"02202138001","name":"大字樹木１丁目","lat":40.591623,"lng":140.458017},{"code":"02202138002","name":"大字樹木２丁目","lat":40.592379,"lng":140.454349},{"code":"02202138003","name":"大字樹木３丁目","lat":40.589291,"lng":140.452332},{"code":"02202138004","name":"大字樹木４丁目","lat":40.588747,"lng":140.456434},{"code":"02202138005","name":"大字樹木５丁目","lat":40.588297,"lng":140.45931},{"code":"022021430","name":"大字表町","lat":40.598564,"lng":140.485838},{"code":"02202144001","name":"大字大町１丁目","lat":40.596141,"lng":140.484022},{"code":"02202144002","name":"大字大町２丁目","lat":40.595073,"lng":140.48125},{"code":"02202144003","name":"大字大町３丁目","lat":40.596786,"lng":140.479698},{"code":"022021470","name":"大字駅前町","lat":40.598368,"lng":140.48242},{"code":"02202148001","name":"大字駅前１丁目","lat":40.601488,"lng":140.483727},{"code":"02202148002","name":"大字駅前２丁目","lat":40.601611,"lng":140.481086},{"code":"02202148003","name":"大字駅前３丁目","lat":40.598917,"lng":140.479395},{"code":"022021510","name":"大字東和徳町","lat":40.605819,"lng":140.483112},{"code":"02202153101","name":"大字高崎１丁目","lat":40.606589,"lng":140.490522},{"code":"02202153102","name":"大字高崎２丁目","lat":40.608257,"lng":140.494248},{"code":"022021532","name":"大字高崎","lat":40.610309,"lng":140.498973},{"code":"02202154001","name":"大字南大町１丁目","lat":40.593115,"lng":140.486025},{"code":"02202154002","name":"大字南大町２丁目","lat":40.59184,"lng":140.484043},{"code":"022021560","name":"大字品川町","lat":40.593988,"lng":140.47822},{"code":"022021570","name":"大字御幸町","lat":40.592759,"lng":140.476902},{"code":"022021580","name":"大字大富町","lat":40.589409,"lng":140.479237},{"code":"022021590","name":"大字富野町","lat":40.588939,"lng":140.475769},{"code":"022021600","name":"大字文京町","lat":40.587465,"lng":140.4723},{"code":"022021610","name":"大字富田町","lat":40.587436,"lng":140.478941},{"code":"022021620","name":"大字南富田町","lat":40.585992,"lng":140.479368},{"code":"02202163001","name":"大字豊原１丁目","lat":40.583387,"lng":140.477352},{"code":"02202163002","name":"大字豊原２丁目","lat":40.580972,"lng":140.477005},{"code":"022021650","name":"大字稔町","lat":40.583493,"lng":140.467612},{"code":"022021660","name":"大字清富町","lat":40.585363,"lng":140.465292},{"code":"02202167001","name":"大字旭ケ丘１丁目","lat":40.584425,"lng":140.462053},{"code":"02202167002","name":"大字旭ケ丘２丁目","lat":40.580006,"lng":140.458721},{"code":"02202169001","name":"大字緑ケ丘１丁目","lat":40.585711,"lng":140.458799},{"code":"02202169002","name":"大字緑ケ丘２丁目","lat":40.583259,"lng":140.45881},{"code":"02202169003","name":"大字緑ケ丘３丁目","lat":40.580585,"lng":140.456436},{"code":"02202172001","name":"大字清水１丁目","lat":40.585956,"lng":140.455269},{"code":"02202172002","name":"大字清水２丁目","lat":40.583227,"lng":140.455445},{"code":"02202172003","name":"大字清水３丁目","lat":40.581028,"lng":140.453443},{"code":"02202175001","name":"大字大原１丁目","lat":40.578659,"lng":140.453513},{"code":"02202175002","name":"大字大原２丁目","lat":40.576925,"lng":140.449902},{"code":"02202175003","name":"大字大原３丁目","lat":40.572432,"lng":140.447078},{"code":"02202178001","name":"大字桜ケ丘１丁目","lat":40.576195,"lng":140.451085},{"code":"02202178002","name":"大字桜ケ丘２丁目","lat":40.572526,"lng":140.449051},{"code":"02202178003","name":"大字桜ケ丘３丁目","lat":40.572475,"lng":140.451473},{"code":"02202178004","name":"大字桜ケ丘４丁目","lat":40.576031,"lng":140.453105},{"code":"02202178005","name":"大字桜ケ丘５丁目","lat":40.575539,"lng":140.455172},{"code":"022021830","name":"大字小沢","lat":40.559221,"lng":140.443002},{"code":"02202184001","name":"大字大開１丁目","lat":40.577934,"lng":140.448394},{"code":"02202184002","name":"大字大開２丁目","lat":40.575132,"lng":140.445778},{"code":"02202184003","name":"大字大開３丁目","lat":40.579668,"lng":140.445731},{"code":"022021870","name":"大字金属町","lat":40.580094,"lng":140.4416},{"code":"022021880","name":"大字青樹町","lat":40.580409,"lng":140.438741},{"code":"02202189001","name":"大字外崎１丁目","lat":40.598188,"lng":140.493528},{"code":"02202189002","name":"大字外崎２丁目","lat":40.598542,"lng":140.496442},{"code":"02202189003","name":"大字外崎３丁目","lat":40.598178,"lng":140.498571},{"code":"02202189004","name":"大字外崎４丁目","lat":40.59644,"lng":140.495218},{"code":"02202189005","name":"大字外崎５丁目","lat":40.595141,"lng":140.49573},{"code":"02202194001","name":"大字城東１丁目","lat":40.597469,"lng":140.488187},{"code":"02202194002","name":"大字城東２丁目","lat":40.59785,"lng":140.490949},{"code":"02202194003","name":"大字城東３丁目","lat":40.595849,"lng":140.48947},{"code":"02202194004","name":"大字城東４丁目","lat":40.594365,"lng":140.490264},{"code":"02202194005","name":"大字城東５丁目","lat":40.592342,"lng":140.491337},{"code":"02202199001","name":"大字城東中央１丁目","lat":40.600274,"lng":140.487911},{"code":"02202199002","name":"大字城東中央２丁目","lat":40.600657,"lng":140.490184},{"code":"02202199003","name":"大字城東中央３丁目","lat":40.601186,"lng":140.492993},{"code":"02202199004","name":"大字城東中央４丁目","lat":40.601545,"lng":140.496184},{"code":"02202199005","name":"大字城東中央５丁目","lat":40.601821,"lng":140.498733},{"code":"02202204001","name":"大字城東北１丁目","lat":40.604103,"lng":140.491322},{"code":"02202204002","name":"大字城東北２丁目","lat":40.604899,"lng":140.493186},{"code":"02202204003","name":"大字城東北３丁目","lat":40.605602,"lng":140.495894},{"code":"02202204004","name":"大字城東北４丁目","lat":40.606899,"lng":140.498061},{"code":"02202208001","name":"大字稲田１丁目","lat":40.602644,"lng":140.48662},{"code":"02202208002","name":"大字稲田２丁目","lat":40.60352,"lng":140.489168},{"code":"02202211101","name":"大字高田１丁目","lat":40.598202,"lng":140.500768},{"code":"02202211102","name":"大字高田２丁目","lat":40.599552,"lng":140.503216},{"code":"02202211103","name":"大字高田３丁目","lat":40.598907,"lng":140.505984},{"code":"02202211104","name":"大字高田４丁目","lat":40.59935,"lng":140.508484},{"code":"02202211105","name":"大字高田５丁目","lat":40.595896,"lng":140.506699},{"code":"022022112","name":"大字高田","lat":40.594816,"lng":140.509744},{"code":"022022120","name":"大字三岳町","lat":40.578905,"lng":140.477552},{"code":"022022130","name":"大字学園町","lat":40.577862,"lng":140.482788},{"code":"02202214001","name":"大字北園１丁目","lat":40.581436,"lng":140.479941},{"code":"02202214002","name":"大字北園２丁目","lat":40.582052,"lng":140.482433},{"code":"02202216001","name":"大字松原東１丁目","lat":40.576931,"lng":140.479361},{"code":"02202216002","name":"大字松原東２丁目","lat":40.574088,"lng":140.480867},{"code":"02202216003","name":"大字松原東３丁目","lat":40.571517,"lng":140.481197},{"code":"02202216004","name":"大字松原東４丁目","lat":40.569937,"lng":140.483018},{"code":"02202216005","name":"大字松原東５丁目","lat":40.573194,"lng":140.485154},{"code":"02202221001","name":"大字松原西１丁目","lat":40.572349,"lng":140.477527},{"code":"02202221002","name":"大字松原西２丁目","lat":40.569741,"lng":140.479195},{"code":"02202221003","name":"大字松原西３丁目","lat":40.567113,"lng":140.482204},{"code":"02202224001","name":"大字広野１丁目","lat":40.569119,"lng":140.487548},{"code":"02202224002","name":"大字広野２丁目","lat":40.571241,"lng":140.487551},{"code":"02202226001","name":"大字取上１丁目","lat":40.589217,"lng":140.486489},{"code":"02202226002","name":"大字取上２丁目","lat":40.58643,"lng":140.48303},{"code":"02202226003","name":"大字取上３丁目","lat":40.584595,"lng":140.484943},{"code":"02202226004","name":"大字取上４丁目","lat":40.586422,"lng":140.48878},{"code":"02202226005","name":"大字取上５丁目","lat":40.583429,"lng":140.488579},{"code":"02202231001","name":"大字清原１丁目","lat":40.581455,"lng":140.485899},{"code":"02202231002","name":"大字清原２丁目","lat":40.579766,"lng":140.486772},{"code":"02202231003","name":"大字清原３丁目","lat":40.580119,"lng":140.489123},{"code":"02202231004","name":"大字清原４丁目","lat":40.579459,"lng":140.490723},{"code":"02202235001","name":"大字安原１丁目","lat":40.576813,"lng":140.48851},{"code":"02202235002","name":"大字安原２丁目","lat":40.576483,"lng":140.48586},{"code":"02202235003","name":"大字安原３丁目","lat":40.574692,"lng":140.488058},{"code":"02202238001","name":"大字中野１丁目","lat":40.583675,"lng":140.47246},{"code":"02202238002","name":"大字中野２丁目","lat":40.581431,"lng":140.473318},{"code":"02202238003","name":"大字中野３丁目","lat":40.578605,"lng":140.474186},{"code":"02202238004","name":"大字中野４丁目","lat":40.575338,"lng":140.476775},{"code":"02202238005","name":"大字中野５丁目","lat":40.574786,"lng":140.474778},{"code":"02202243001","name":"大字城南１丁目","lat":40.579432,"lng":140.470567},{"code":"02202243002","name":"大字城南２丁目","lat":40.580638,"lng":140.467402},{"code":"02202243003","name":"大字城南３丁目","lat":40.577843,"lng":140.468417},{"code":"02202243004","name":"大字城南４丁目","lat":40.578315,"lng":140.465804},{"code":"02202243005","name":"大字城南５丁目","lat":40.578744,"lng":140.462476},{"code":"02202248001","name":"大字浜の町東１丁目","lat":40.618009,"lng":140.461886},{"code":"02202248002","name":"大字浜の町東２丁目","lat":40.621465,"lng":140.460513},{"code":"02202248003","name":"大字浜の町東３丁目","lat":40.624502,"lng":140.458352},{"code":"02202248004","name":"大字浜の町東４丁目","lat":40.619061,"lng":140.464425},{"code":"02202248005","name":"大字浜の町東５丁目","lat":40.622175,"lng":140.463668},{"code":"02202253001","name":"大字浜の町西１丁目","lat":40.617059,"lng":140.458788},{"code":"02202253002","name":"大字浜の町西２丁目","lat":40.619595,"lng":140.458172},{"code":"02202253003","name":"大字浜の町西３丁目","lat":40.62321,"lng":140.456196},{"code":"02202254001","name":"大字浜の町北１丁目","lat":40.624695,"lng":140.461729},{"code":"02202254002","name":"大字浜の町北２丁目","lat":40.627566,"lng":140.462284},{"code":"02202259101","name":"大字藤野１丁目","lat":40.621835,"lng":140.466834},{"code":"02202259102","name":"大字藤野２丁目","lat":40.62564,"lng":140.46961},{"code":"022022592","name":"大字萢中","lat":40.631248,"lng":140.467912},{"code":"02202260001","name":"大字若葉１丁目","lat":40.585882,"lng":140.45186},{"code":"02202260002","name":"大字若葉２丁目","lat":40.582625,"lng":140.450221},{"code":"02202262101","name":"大字自由ヶ丘１丁目","lat":40.582053,"lng":140.447057},{"code":"02202262102","name":"大字自由ヶ丘２丁目","lat":40.583533,"lng":140.44526},{"code":"02202262103","name":"大字自由ヶ丘３丁目","lat":40.584775,"lng":140.442445},{"code":"02202262104","name":"大字自由ヶ丘４丁目","lat":40.587363,"lng":140.447786},{"code":"02202262105","name":"大字自由ヶ丘５丁目","lat":40.583026,"lng":140.438104},{"code":"022022622","name":"大字清水富田","lat":40.589056,"lng":140.441868},{"code":"022022630","name":"大字坂元","lat":40.541785,"lng":140.426649},{"code":"022022640","name":"大字悪戸","lat":40.572913,"lng":140.424194},{"code":"022022650","name":"大字下湯口","lat":40.58454,"lng":140.419176},{"code":"02202266001","name":"大字常盤坂１丁目","lat":40.593025,"lng":140.444852},{"code":"02202266002","name":"大字常盤坂２丁目","lat":40.595496,"lng":140.445737},{"code":"02202266003","name":"大字常盤坂３丁目","lat":40.595836,"lng":140.441785},{"code":"02202266004","name":"大字常盤坂４丁目","lat":40.592085,"lng":140.440452},{"code":"02202270101","name":"大字撫牛子１丁目","lat":40.620773,"lng":140.495877},{"code":"02202270102","name":"大字撫牛子２丁目","lat":40.622062,"lng":140.49385},{"code":"02202270103","name":"大字撫牛子３丁目","lat":40.624374,"lng":140.497059},{"code":"02202270104","name":"大字撫牛子４丁目","lat":40.628488,"lng":140.497561},{"code":"02202270105","name":"大字撫牛子５丁目","lat":40.62051,"lng":140.49928},{"code":"022022702","name":"大字撫牛子","lat":40.625183,"lng":140.500679},{"code":"022022710","name":"大字大久保","lat":40.631393,"lng":140.493377},{"code":"022022720","name":"大字津賀野","lat":40.64326,"lng":140.48999},{"code":"022022730","name":"大字百田","lat":40.642321,"lng":140.494482},{"code":"02202274101","name":"大字向外瀬１丁目","lat":40.620894,"lng":140.47072},{"code":"02202274102","name":"大字向外瀬２丁目","lat":40.622901,"lng":140.473255},{"code":"02202274103","name":"大字向外瀬３丁目","lat":40.622469,"lng":140.476402},{"code":"02202274104","name":"大字向外瀬４丁目","lat":40.62582,"lng":140.474292},{"code":"02202274105","name":"大字向外瀬５丁目","lat":40.626249,"lng":140.476835},{"code":"022022742","name":"大字向外瀬","lat":40.630143,"lng":140.482081},{"code":"02202275101","name":"大字清野袋１丁目","lat":40.630275,"lng":140.478028},{"code":"02202275102","name":"大字清野袋２丁目","lat":40.631658,"lng":140.475275},{"code":"02202275103","name":"大字清野袋３丁目","lat":40.635713,"lng":140.478909},{"code":"02202275104","name":"大字清野袋４丁目","lat":40.636434,"lng":140.475059},{"code":"02202275105","name":"大字清野袋５丁目","lat":40.639388,"lng":140.480246},{"code":"022022752","name":"大字清野袋","lat":40.637732,"lng":140.47869},{"code":"02202280101","name":"大字小比内１丁目","lat":40.591978,"lng":140.495226},{"code":"02202280102","name":"大字小比内２丁目","lat":40.591857,"lng":140.497941},{"code":"02202280103","name":"大字小比内３丁目","lat":40.587972,"lng":140.498471},{"code":"02202280104","name":"大字小比内４丁目","lat":40.588841,"lng":140.495823},{"code":"02202280105","name":"大字小比内５丁目","lat":40.584251,"lng":140.496439},{"code":"022022802","name":"大字小比内","lat":40.58828,"lng":140.504399},{"code":"02202280301","name":"大字扇町１丁目","lat":40.587062,"lng":140.505166},{"code":"02202280302","name":"大字扇町２丁目","lat":40.587189,"lng":140.501958},{"code":"02202280303","name":"大字扇町３丁目","lat":40.585615,"lng":140.499675},{"code":"022022810","name":"大字新里","lat":40.593707,"lng":140.519379},{"code":"022022821","name":"大字福村","lat":40.607067,"lng":140.512715},{"code":"022022822","name":"大字福村","lat":40.608418,"lng":140.519104},{"code":"02202283101","name":"大字福田１丁目","lat":40.610027,"lng":140.507833},{"code":"02202283102","name":"大字福田２丁目","lat":40.607337,"lng":140.507926},{"code":"02202283103","name":"大字福田３丁目","lat":40.607465,"lng":140.510082},{"code":"022022832","name":"大字福田","lat":40.60357,"lng":140.510217},{"code":"02202283301","name":"大字早稲田１丁目","lat":40.605265,"lng":140.511523},{"code":"02202283302","name":"大字早稲田２丁目","lat":40.602871,"lng":140.511507},{"code":"02202283303","name":"大字早稲田３丁目","lat":40.599832,"lng":140.511429},{"code":"02202283304","name":"大字早稲田４丁目","lat":40.6026,"lng":140.515138},{"code":"022022841","name":"大字境関","lat":40.611515,"lng":140.504836},{"code":"022022842","name":"大字境関","lat":40.616313,"lng":140.504222},{"code":"02202285001","name":"大字川先１丁目","lat":40.589723,"lng":140.493221},{"code":"02202285002","name":"大字川先２丁目","lat":40.587222,"lng":140.494255},{"code":"02202285003","name":"大字川先３丁目","lat":40.586416,"lng":140.491444},{"code":"02202285004","name":"大字川先４丁目","lat":40.590079,"lng":140.489974},{"code":"02202294001","name":"大字豊田１丁目","lat":40.5941,"lng":140.497592},{"code":"02202294002","name":"大字豊田２丁目","lat":40.591773,"lng":140.502649},{"code":"02202294003","name":"大字豊田３丁目","lat":40.595383,"lng":140.502061},{"code":"02202297101","name":"大字大清水１丁目","lat":40.582735,"lng":140.493832},{"code":"02202297102","name":"大字大清水２丁目","lat":40.580452,"lng":140.497071},{"code":"02202297103","name":"大字大清水３丁目","lat":40.580205,"lng":140.494859},{"code":"02202297104","name":"大字大清水４丁目","lat":40.578472,"lng":140.492134},{"code":"02202297201","name":"大字泉野１丁目","lat":40.575878,"lng":140.491891},{"code":"02202297202","name":"大字泉野２丁目","lat":40.573091,"lng":140.491722},{"code":"02202297203","name":"大字泉野３丁目","lat":40.574859,"lng":140.494951},{"code":"02202297204","name":"大字泉野４丁目","lat":40.57616,"lng":140.497667},{"code":"02202297205","name":"大字泉野５丁目","lat":40.57202,"lng":140.494758},{"code":"02202298101","name":"大字門外１丁目","lat":40.581532,"lng":140.499965},{"code":"02202298102","name":"大字門外２丁目","lat":40.580688,"lng":140.505675},{"code":"02202298103","name":"大字門外３丁目","lat":40.579585,"lng":140.512384},{"code":"02202298104","name":"大字門外４丁目","lat":40.577123,"lng":140.5031},{"code":"022022982","name":"大字門外","lat":40.585438,"lng":140.512506},{"code":"022022990","name":"大字堀越","lat":40.571276,"lng":140.520286},{"code":"022023040","name":"大字川合","lat":40.578369,"lng":140.525597},{"code":"022023050","name":"大字清水森","lat":40.568492,"lng":140.503293},{"code":"022023060","name":"大字松木平","lat":40.561002,"lng":140.505819},{"code":"022023070","name":"大字小栗山","lat":40.549814,"lng":140.485451},{"code":"02202308101","name":"大字原ケ平１丁目","lat":40.568685,"lng":140.475011},{"code":"02202308102","name":"大字原ケ平２丁目","lat":40.566334,"lng":140.474675},{"code":"02202308103","name":"大字原ケ平３丁目","lat":40.564328,"lng":140.473728},{"code":"02202308104","name":"大字原ケ平４丁目","lat":40.567076,"lng":140.471198},{"code":"02202308105","name":"大字原ケ平５丁目","lat":40.56525,"lng":140.471349},{"code":"022023082","name":"大字原ケ平","lat":40.564898,"lng":140.463702},{"code":"022023090","name":"大字大和沢","lat":40.538049,"lng":140.470161},{"code":"022023100","name":"大字一野渡","lat":40.510469,"lng":140.447874},{"code":"022023110","name":"大字狼森","lat":40.559184,"lng":140.471186},{"code":"02202312001","name":"大字千年１丁目","lat":40.567531,"lng":140.477926},{"code":"02202312002","name":"大字千年２丁目","lat":40.564418,"lng":140.47654},{"code":"02202312003","name":"大字千年３丁目","lat":40.565083,"lng":140.480356},{"code":"02202312004","name":"大字千年４丁目","lat":40.56261,"lng":140.477236},{"code":"02202321001","name":"大字富士見台１丁目","lat":40.572014,"lng":140.473766},{"code":"02202321002","name":"大字富士見台２丁目","lat":40.569136,"lng":140.47274},{"code":"02202323001","name":"大字館野１丁目","lat":40.575831,"lng":140.464216},{"code":"02202323002","name":"大字館野２丁目","lat":40.576252,"lng":140.461335},{"code":"02202325001","name":"大字山崎１丁目","lat":40.575246,"lng":140.471862},{"code":"02202325002","name":"大字山崎２丁目","lat":40.57597,"lng":140.468741},{"code":"02202325003","name":"大字山崎３丁目","lat":40.573245,"lng":140.465114},{"code":"02202325004","name":"大字山崎４丁目","lat":40.574223,"lng":140.468449},{"code":"02202325005","name":"大字山崎５丁目","lat":40.572666,"lng":140.469646},{"code":"02202330101","name":"大字藤代１丁目","lat":40.613358,"lng":140.450133},{"code":"02202330102","name":"大字藤代２丁目","lat":40.614423,"lng":140.453901},{"code":"02202330103","name":"大字藤代３丁目","lat":40.618187,"lng":140.453911},{"code":"02202330104","name":"大字藤代４丁目","lat":40.618055,"lng":140.455617},{"code":"02202330105","name":"大字藤代５丁目","lat":40.621043,"lng":140.455078},{"code":"022023302","name":"大字藤代","lat":40.617581,"lng":140.450752},{"code":"022023310","name":"大字土堂","lat":40.623226,"lng":140.444165},{"code":"02202333101","name":"大字石渡１丁目","lat":40.62815,"lng":140.451234},{"code":"02202333102","name":"大字石渡２丁目","lat":40.628214,"lng":140.455173},{"code":"02202333103","name":"大字石渡３丁目","lat":40.627781,"lng":140.458232},{"code":"02202333104","name":"大字石渡４丁目","lat":40.630353,"lng":140.458047},{"code":"02202333105","name":"大字石渡５丁目","lat":40.630317,"lng":140.453571},{"code":"022023332","name":"大字石渡","lat":40.632853,"lng":140.450417},{"code":"02202334101","name":"大字外瀬１丁目","lat":40.625172,"lng":140.465549},{"code":"02202334102","name":"大字外瀬２丁目","lat":40.62741,"lng":140.465723},{"code":"022023342","name":"大字船水","lat":40.636678,"lng":140.467452},{"code":"02202335101","name":"大字町田１丁目","lat":40.635644,"lng":140.458913},{"code":"02202335102","name":"大字町田２丁目","lat":40.636708,"lng":140.456978},{"code":"02202335103","name":"大字町田３丁目","lat":40.639351,"lng":140.459253},{"code":"022023352","name":"大字藤内町","lat":40.634685,"lng":140.455106},{"code":"022023353","name":"大字八代町","lat":40.632459,"lng":140.455674},{"code":"02202335401","name":"大字船水１丁目","lat":40.629614,"lng":140.466593},{"code":"02202335402","name":"大字船水２丁目","lat":40.630086,"lng":140.462662},{"code":"02202335403","name":"大字船水３丁目","lat":40.632842,"lng":140.461985},{"code":"022023355","name":"大字町田","lat":40.641957,"lng":140.461782},{"code":"022023360","name":"大字中崎","lat":40.649586,"lng":140.460656},{"code":"022023370","name":"大字三世寺","lat":40.659811,"lng":140.453923},{"code":"022023380","name":"大字大川","lat":40.672722,"lng":140.457834},{"code":"022023390","name":"大字高野","lat":40.586484,"lng":140.359313},{"code":"022023400","name":"大字館後","lat":40.600941,"lng":140.351462},{"code":"022023410","name":"大字国吉","lat":40.596623,"lng":140.351685},{"code":"022023420","name":"大字黒土","lat":40.59617,"lng":140.337441},{"code":"022023430","name":"大字吉川","lat":40.585318,"lng":140.345274},{"code":"022023440","name":"大字桜庭","lat":40.592653,"lng":140.330771},{"code":"022023450","name":"大字平山","lat":40.580047,"lng":140.336227},{"code":"022023460","name":"大字米ケ袋","lat":40.580709,"lng":140.323263},{"code":"022023470","name":"大字中野","lat":40.592016,"lng":140.320165},{"code":"022023480","name":"大字中畑","lat":40.591429,"lng":140.308875},{"code":"022023490","name":"大字番館","lat":40.576282,"lng":140.312315},{"code":"022023500","name":"大字蒔苗","lat":40.632488,"lng":140.433449},{"code":"022023510","name":"大字富栄","lat":40.642536,"lng":140.428305},{"code":"022023520","name":"大字細越","lat":40.637875,"lng":140.406393},{"code":"022023530","name":"大字折笠","lat":40.645275,"lng":140.401135},{"code":"022023540","name":"大字宮舘","lat":40.649855,"lng":140.421916},{"code":"022023550","name":"大字中別所","lat":40.655279,"lng":140.396274},{"code":"022023560","name":"大字弥生","lat":40.660805,"lng":140.373718},{"code":"022023570","name":"大字元薬師堂","lat":40.631338,"lng":140.445364},{"code":"022023580","name":"大字独狐","lat":40.646119,"lng":140.444159},{"code":"022023590","name":"大字前坂","lat":40.658487,"lng":140.440857},{"code":"022023600","name":"大字高杉","lat":40.668738,"lng":140.411935},{"code":"022023610","name":"大字糠坪","lat":40.677948,"lng":140.432979},{"code":"022023620","name":"大字楢木","lat":40.685823,"lng":140.42494},{"code":"022023630","name":"大字鬼沢","lat":40.688622,"lng":140.40024},{"code":"022023640","name":"大字貝沢","lat":40.700632,"lng":140.376562},{"code":"022023650","name":"大字大森","lat":40.710643,"lng":140.363251},{"code":"022023660","name":"大字十面沢","lat":40.729335,"lng":140.354629},{"code":"022023670","name":"大字十腰内","lat":40.727706,"lng":140.317879},{"code":"022023680","name":"大字青女子","lat":40.6861,"lng":140.447905},{"code":"022023690","name":"大字種市","lat":40.704409,"lng":140.432777},{"code":"022023700","name":"大字小友","lat":40.711512,"lng":140.40998},{"code":"022023710","name":"大字三和","lat":40.726667,"lng":140.403257},{"code":"022023720","name":"大字笹館","lat":40.736291,"lng":140.389723},{"code":"022023730","name":"大字石川","lat":40.547594,"lng":140.535619},{"code":"02202374000","name":"大字小金崎字村元","lat":40.54265,"lng":140.54991},{"code":"02202374001","name":"大字小金崎１丁目","lat":40.543606,"lng":140.553198},{"code":"022023750","name":"大字大沢","lat":40.540224,"lng":140.507846},{"code":"022023760","name":"大字乳井","lat":40.549,"lng":140.56885},{"code":"022023770","name":"大字薬師堂","lat":40.553285,"lng":140.581306},{"code":"02202379001","name":"大字青山１丁目","lat":40.619206,"lng":140.4825},{"code":"02202379002","name":"大字青山２丁目","lat":40.622454,"lng":140.482929},{"code":"02202379003","name":"大字青山３丁目","lat":40.622754,"lng":140.479128},{"code":"02202379004","name":"大字青山４丁目","lat":40.625642,"lng":140.483361},{"code":"02202379005","name":"大字青山５丁目","lat":40.625949,"lng":140.479556},{"code":"02202382001","name":"大字宮川１丁目","lat":40.611223,"lng":140.483529},{"code":"02202382002","name":"大字宮川２丁目","lat":40.612887,"lng":140.484796},{"code":"02202382003","name":"大字宮川３丁目","lat":40.614994,"lng":140.486447},{"code":"02202383001","name":"大字岩賀１丁目","lat":40.642929,"lng":140.480646},{"code":"02202383002","name":"大字岩賀２丁目","lat":40.644021,"lng":140.476035},{"code":"02202383003","name":"大字岩賀３丁目","lat":40.642797,"lng":140.475533},{"code":"02202384001","name":"大字末広１丁目","lat":40.60698,"lng":140.500553},{"code":"02202384002","name":"大字末広２丁目","lat":40.602551,"lng":140.501292},{"code":"02202384003","name":"大字末広３丁目","lat":40.602686,"lng":140.503763},{"code":"02202384004","name":"大字末広４丁目","lat":40.60646,"lng":140.503305},{"code":"02202384005","name":"大字末広５丁目","lat":40.609874,"lng":140.504052},{"code":"02202385001","name":"大字田園１丁目","lat":40.60609,"lng":140.505381},{"code":"02202385002","name":"大字田園２丁目","lat":40.602857,"lng":140.505819},{"code":"02202385003","name":"大字田園３丁目","lat":40.602949,"lng":140.508131},{"code":"02202385004","name":"大字田園４丁目","lat":40.60582,"lng":140.507668},{"code":"02202385005","name":"大字田園５丁目","lat":40.608983,"lng":140.506162},{"code":"02202386001","name":"大字松ヶ枝１丁目","lat":40.603586,"lng":140.485228},{"code":"02202386002","name":"大字松ヶ枝２丁目","lat":40.604575,"lng":140.484513},{"code":"02202386003","name":"大字松ヶ枝３丁目","lat":40.604971,"lng":140.487832},{"code":"02202386004","name":"大字松ヶ枝４丁目","lat":40.605927,"lng":140.48648},{"code":"02202386005","name":"大字松ヶ枝５丁目","lat":40.607422,"lng":140.489022},{"code":"02202387001","name":"大字俵元１丁目","lat":40.606737,"lng":140.485525},{"code":"02202387002","name":"大字俵元２丁目","lat":40.608494,"lng":140.486849},{"code":"02202388001","name":"大字和泉１丁目","lat":40.610046,"lng":140.49206},{"code":"02202388002","name":"大字和泉２丁目","lat":40.611033,"lng":140.495828},{"code":"022023890","name":"大字駒越","lat":40.607006,"lng":140.442946},{"code":"022023900","name":"大字真土","lat":40.603383,"lng":140.431658},{"code":"022023910","name":"大字龍ノ口","lat":40.597728,"lng":140.421803},{"code":"022023920","name":"大字鳥井野","lat":40.597649,"lng":140.414382},{"code":"022023930","name":"大字如来瀬","lat":40.593145,"lng":140.394736},{"code":"022023940","name":"大字兼平","lat":40.602495,"lng":140.404314},{"code":"022023950","name":"大字一町田","lat":40.609128,"lng":140.426578},{"code":"022023960","name":"大字熊嶋","lat":40.61508,"lng":140.439292},{"code":"022023970","name":"大字高屋","lat":40.619987,"lng":140.426656},{"code":"02202398101","name":"大字賀田１丁目","lat":40.616523,"lng":140.419069},{"code":"02202398102","name":"大字賀田２丁目","lat":40.61482,"lng":140.41865},{"code":"022023982","name":"大字賀田","lat":40.617404,"lng":140.42103},{"code":"022023990","name":"大字八幡","lat":40.621737,"lng":140.412015},{"code":"022024000","name":"大字愛宕","lat":40.628135,"lng":140.40845},{"code":"022024010","name":"大字鼻和","lat":40.631681,"lng":140.418129},{"code":"022024020","name":"大字五代","lat":40.605457,"lng":140.387173},{"code":"022024030","name":"大字宮地","lat":40.619208,"lng":140.393446},{"code":"022024040","name":"大字新岡","lat":40.636083,"lng":140.391649},{"code":"022024050","name":"大字葛原","lat":40.62666,"lng":140.383709},{"code":"022024060","name":"大字新法師","lat":40.616316,"lng":140.367336},{"code":"022024070","name":"大字高岡","lat":40.625188,"lng":140.3595},{"code":"02202408001","name":"大字百沢字小松野","lat":40.615131,"lng":140.318271},{"code":"02202408002","name":"大字百沢字東岩木山","lat":40.655574,"lng":140.327187},{"code":"022024090","name":"大字常盤野","lat":40.602762,"lng":140.214991},{"code":"022024100","name":"大字沢田","lat":40.546858,"lng":140.319614},{"code":"022024110","name":"大字大助","lat":40.569854,"lng":140.345229},{"code":"022024120","name":"大字藍内","lat":40.50763,"lng":140.38014},{"code":"022024130","name":"大字相馬","lat":40.520935,"lng":140.346245},{"code":"022024140","name":"大字藤沢","lat":40.569755,"lng":140.370444},{"code":"022024150","name":"大字坂市","lat":40.575469,"lng":140.363709},{"code":"022024160","name":"大字紙漉沢","lat":40.583829,"lng":140.378877},{"code":"022024170","name":"大字水木在家","lat":40.554138,"lng":140.389237},{"code":"022024180","name":"大字五所","lat":40.582988,"lng":140.395847},{"code":"022024190","name":"大字黒滝","lat":40.579815,"lng":140.400745},{"code":"022024200","name":"大字湯口","lat":40.533049,"lng":140.410501},{"code":"022024210","name":"大字横町","lat":40.624562,"lng":140.432825},{"code":"022024220","name":"大字昴","lat":40.587756,"lng":140.408055}]}
