{"municipality":"02210","name":"平川市","prefecture":"青森県","source":{"dataset":"frogcat/japan-small-area","census":"平成27年国勢調査 小地域（e-Stat 統計LOD）","license":"MIT（リポジトリ）／政府統計の総合窓口(e-Stat)の利用規約（元データ・出典表記必要）","fetched":"2026-07-06"},"towns":[{"code":"02210001000","name":"大字金屋","lat":40.606008,"lng":140.616301},{"code":"02210001001","name":"大字金屋字上松元","lat":40.612504,"lng":140.604738},{"code":"02210001002","name":"大字金屋字上早稲田","lat":40.610184,"lng":140.607487},{"code":"02210001003","name":"大字金屋字中早稲田","lat":40.606331,"lng":140.606262},{"code":"02210001004","name":"大字金屋字下早稲田","lat":40.602835,"lng":140.606135},{"code":"02210001005","name":"大字金屋字下松元","lat":40.604511,"lng":140.599143},{"code":"02210001006","name":"大字金屋字中松元","lat":40.607478,"lng":140.601586},{"code":"02210001007","name":"大字金屋字西松元","lat":40.604778,"lng":140.591632},{"code":"02210002000","name":"大字南田中字東林元","lat":40.607906,"lng":140.593459},{"code":"02210002001","name":"大字南田中字北原","lat":40.612305,"lng":140.595578},{"code":"02210002002","name":"大字南田中字村内","lat":40.609304,"lng":140.596517},{"code":"02210002003","name":"大字南田中字西原","lat":40.608436,"lng":140.586991},{"code":"02210002006","name":"大字南田中字北林元","lat":40.613335,"lng":140.586781},{"code":"02210003001","name":"大字李平字下安原","lat":40.617782,"lng":140.595863},{"code":"02210003002","name":"大字李平字上安原","lat":40.615046,"lng":140.591972},{"code":"02210003003","name":"大字李平字安原","lat":40.61332,"lng":140.598068},{"code":"02210004001","name":"大字高木字松元","lat":40.626063,"lng":140.58114},{"code":"02210004002","name":"大字高木字原田","lat":40.622306,"lng":140.586983},{"code":"02210004003","name":"大字高木字北原","lat":40.618886,"lng":140.580799},{"code":"02210004004","name":"大字高木字西和田","lat":40.619513,"lng":140.587652},{"code":"02210004005","name":"大字高木字岡崎","lat":40.62834,"lng":140.588711},{"code":"02210004006","name":"大字高木字原富","lat":40.615643,"lng":140.584915},{"code":"022100050","name":"大字尾上","lat":40.616202,"lng":140.580366},{"code":"02210006001","name":"大字新屋町字松久","lat":40.609479,"lng":140.57491},{"code":"02210006002","name":"大字新屋町字松下","lat":40.611247,"lng":140.578698},{"code":"02210006003","name":"大字新屋町字北鶉野","lat":40.610732,"lng":140.582113},{"code":"02210006004","name":"大字新屋町字上沢田","lat":40.610955,"lng":140.574312},{"code":"02210006005","name":"大字新屋町字下田","lat":40.606733,"lng":140.569256},{"code":"02210006006","name":"大字新屋町字村元","lat":40.607562,"lng":140.575075},{"code":"02210006007","name":"大字新屋町字田川","lat":40.605144,"lng":140.579329},{"code":"02210006008","name":"大字新屋町字道ノ下","lat":40.606377,"lng":140.570889},{"code":"02210007001","name":"大字原字上原","lat":40.619199,"lng":140.576558},{"code":"02210007002","name":"大字原字大野","lat":40.615595,"lng":140.5775},{"code":"02210008001","name":"大字猿賀字明堂","lat":40.619406,"lng":140.555081},{"code":"02210008002","name":"大字猿賀字石林","lat":40.617475,"lng":140.564398},{"code":"02210008003","name":"大字猿賀字下野","lat":40.61267,"lng":140.552798},{"code":"02210008004","name":"大字猿賀字池上","lat":40.618714,"lng":140.566187},{"code":"02210008005","name":"大字猿賀字浅井","lat":40.623261,"lng":140.570966},{"code":"02210008006","name":"大字猿賀字南田","lat":40.614873,"lng":140.571435},{"code":"02210008007","name":"大字猿賀字南野","lat":40.613154,"lng":140.570422},{"code":"02210008008","name":"大字猿賀字遠林","lat":40.613368,"lng":140.564716},{"code":"02210008009","name":"大字猿賀字平塚","lat":40.612727,"lng":140.561611},{"code":"02210009001","name":"大字西野曽江字川崎","lat":40.613348,"lng":140.533747},{"code":"02210009002","name":"大字西野曽江字広田","lat":40.616059,"lng":140.531834},{"code":"02210010001","name":"大字中佐渡字南田","lat":40.612112,"lng":140.573057},{"code":"02210010002","name":"大字中佐渡字村元","lat":40.61129,"lng":140.564911},{"code":"02210010003","name":"大字中佐渡字前田","lat":40.608591,"lng":140.567205},{"code":"02210010004","name":"大字中佐渡字石田","lat":40.606779,"lng":140.564096},{"code":"02210010005","name":"大字中佐渡字鎌田","lat":40.606876,"lng":140.560312},{"code":"02210011001","name":"大字長田字沼田","lat":40.605881,"lng":140.551871},{"code":"02210011002","name":"大字長田字鎌田","lat":40.606258,"lng":140.556032},{"code":"02210011003","name":"大字長田字野田","lat":40.610663,"lng":140.557305},{"code":"02210011004","name":"大字長田字元村","lat":40.608196,"lng":140.549577},{"code":"02210012001","name":"大字八幡崎字松枝","lat":40.619361,"lng":140.537553},{"code":"02210012002","name":"大字八幡崎字本林","lat":40.620396,"lng":140.545614},{"code":"02210012003","name":"大字八幡崎字高原","lat":40.611858,"lng":140.544875},{"code":"02210012004","name":"大字八幡崎字宮本","lat":40.613297,"lng":140.538787},{"code":"02210013001","name":"大字日沼字李田","lat":40.621746,"lng":140.519367},{"code":"02210013002","name":"大字日沼字樋田","lat":40.619214,"lng":140.517631},{"code":"02210013003","name":"大字日沼字塚越","lat":40.617868,"lng":140.516856},{"code":"02210013004","name":"大字日沼字一本柳","lat":40.614531,"lng":140.514176},{"code":"02210013005","name":"大字日沼字高田","lat":40.616121,"lng":140.524863},{"code":"02210014001","name":"大字蒲田字三原","lat":40.62398,"lng":140.527535},{"code":"02210014002","name":"大字蒲田字一本松","lat":40.622705,"lng":140.527352},{"code":"02210014003","name":"大字蒲田字元宮","lat":40.620917,"lng":140.529216},{"code":"02210014004","name":"大字蒲田字豊田","lat":40.621257,"lng":140.526118},{"code":"02210014005","name":"大字蒲田字玉田","lat":40.620622,"lng":140.533406},{"code":"02210015001","name":"大字新山字岡部","lat":40.62816,"lng":140.535435},{"code":"02210015002","name":"大字新山字村元","lat":40.627617,"lng":140.53139},{"code":"02210015003","name":"大字新山字早稲田","lat":40.625558,"lng":140.530891},{"code":"02210015004","name":"大字新山字柳田","lat":40.626328,"lng":140.539656},{"code":"02210015005","name":"大字新山字松橋","lat":40.623767,"lng":140.538909},{"code":"022100160","name":"大字石郷","lat":40.572899,"lng":140.552905},{"code":"022100170","name":"大字石畑","lat":40.57603,"lng":140.539916},{"code":"022100180","name":"大字岩館","lat":40.560425,"lng":140.54411},{"code":"022100190","name":"大字柏木町","lat":40.578587,"lng":140.562468},{"code":"022100200","name":"大字小杉","lat":40.576499,"lng":140.542838},{"code":"022100210","name":"大字大坊","lat":40.568947,"lng":140.539741},{"code":"022100220","name":"大字高畑","lat":40.565902,"lng":140.57064},{"code":"022100230","name":"大字原田","lat":40.565266,"lng":140.553642},{"code":"022100240","name":"大字吹上","lat":40.57002,"lng":140.564415},{"code":"022100250","name":"大字四ツ屋","lat":40.576952,"lng":140.530548},{"code":"022100260","name":"大字荒田","lat":40.602357,"lng":140.568446},{"code":"022100270","name":"大字小和森","lat":40.594631,"lng":140.566773},{"code":"022100280","name":"大字杉館","lat":40.606521,"lng":140.537697},{"code":"022100290","name":"大字大光寺","lat":40.594149,"lng":140.550912},{"code":"022100300","name":"大字館田","lat":40.583254,"lng":140.537092},{"code":"022100310","name":"大字館山","lat":40.599288,"lng":140.538467},{"code":"022100320","name":"大字苗生松","lat":40.591293,"lng":140.535267},{"code":"022100330","name":"大字松崎","lat":40.593854,"lng":140.534632},{"code":"022100340","name":"大字松館","lat":40.601464,"lng":140.530029},{"code":"022100350","name":"大字本町","lat":40.58355,"lng":140.556258},{"code":"022100360","name":"大字沖館","lat":40.566341,"lng":140.583949},{"code":"022100370","name":"大字小国","lat":40.529097,"lng":140.685702},{"code":"022100380","name":"大字唐竹","lat":40.549717,"lng":140.618239},{"code":"022100390","name":"大字切明","lat":40.521512,"lng":140.800245},{"code":"022100400","name":"大字葛川","lat":40.542321,"lng":140.765697},{"code":"022100410","name":"大字新館","lat":40.576936,"lng":140.585781},{"code":"022100420","name":"大字広船","lat":40.565165,"lng":140.624819},{"code":"022100430","name":"大字新屋","lat":40.594561,"lng":140.621775},{"code":"022100440","name":"大字尾崎","lat":40.580144,"lng":140.627682},{"code":"022100450","name":"大字平田森","lat":40.597639,"lng":140.578285},{"code":"022100460","name":"大字町居","lat":40.584411,"lng":140.587062},{"code":"02210047001","name":"光城１丁目","lat":40.588141,"lng":140.562393},{"code":"02210047002","name":"光城２丁目","lat":40.590111,"lng":140.56205},{"code":"02210047003","name":"光城３丁目","lat":40.591808,"lng":140.561686},{"code":"02210047004","name":"光城４丁目","lat":40.59345,"lng":140.5609},{"code":"02210047005","name":"光城５丁目","lat":40.590672,"lng":140.559641},{"code":"02210047006","name":"光城６丁目","lat":40.589373,"lng":140.559799},{"code":"02210047007","name":"光城７丁目","lat":40.58815,"lng":140.559677},{"code":"022100480","name":"大字碇ケ関","lat":40.450443,"lng":140.67056},{"code":"022100490","name":"大字古懸","lat":40.491008,"lng":140.66536},{"code":"022100500","name":"大字久吉","lat":40.444735,"lng":140.658431}]}
