{"municipality":"02445","name":"三戸郡南部町","prefecture":"青森県","source":{"dataset":"frogcat/japan-small-area","census":"平成27年国勢調査 小地域（e-Stat 統計LOD）","license":"MIT（リポジトリ）／政府統計の総合窓口(e-Stat)の利用規約（元データ・出典表記必要）","fetched":"2026-07-06"},"towns":[{"code":"024450010","name":"大字下名久井","lat":40.41674,"lng":141.364849},{"code":"024450020","name":"大字平","lat":40.405226,"lng":141.350841},{"code":"024450030","name":"大字上名久井","lat":40.408877,"lng":141.328107},{"code":"024450040","name":"大字高瀬","lat":40.403158,"lng":141.315475},{"code":"024450050","name":"大字法光寺","lat":40.388781,"lng":141.335325},{"code":"024450060","name":"大字鳥舌内","lat":40.37666,"lng":141.349351},{"code":"024450070","name":"大字鳥谷","lat":40.355182,"lng":141.364587},{"code":"024450080","name":"大字斗賀","lat":40.466711,"lng":141.341799},{"code":"024450090","name":"大字剣吉","lat":40.447884,"lng":141.321823},{"code":"024450100","name":"大字虎渡","lat":40.435488,"lng":141.324598},{"code":"024450110","name":"大字森越","lat":40.434215,"lng":141.365762},{"code":"024450120","name":"大字小向","lat":40.414279,"lng":141.247403},{"code":"024450130","name":"大字大向","lat":40.397823,"lng":141.286155},{"code":"024450140","name":"大字沖田面","lat":40.418056,"lng":141.280464},{"code":"024450150","name":"大字赤石","lat":40.406028,"lng":141.298907},{"code":"024450160","name":"大字玉掛","lat":40.418361,"lng":141.29903},{"code":"024450170","name":"大字相内","lat":40.437865,"lng":141.305227},{"code":"024450180","name":"大字苫米地","lat":40.474504,"lng":141.375027},{"code":"024450190","name":"大字片岸","lat":40.474804,"lng":141.360301},{"code":"024450200","name":"大字高橋","lat":40.474842,"lng":141.389879},{"code":"024450210","name":"大字小泉","lat":40.472074,"lng":141.396054},{"code":"024450220","name":"大字麦沢","lat":40.490895,"lng":141.375029},{"code":"024450230","name":"大字福田","lat":40.446882,"lng":141.379222},{"code":"024450240","name":"大字埖渡","lat":40.444855,"lng":141.400083},{"code":"024450250","name":"大字杉沢","lat":40.442254,"lng":141.420921},{"code":"024450260","name":"大字椛木","lat":40.445343,"lng":141.438501},{"code":"024450270","name":"大字法師岡","lat":40.465953,"lng":141.413109}]}
