{"municipality":"03206","name":"北上市","prefecture":"岩手県","source":{"dataset":"frogcat/japan-small-area","census":"平成27年国勢調査 小地域（e-Stat 統計LOD）","license":"MIT（リポジトリ）／政府統計の総合窓口(e-Stat)の利用規約（元データ・出典表記必要）","fetched":"2026-07-06"},"towns":[{"code":"03206001001","name":"青柳町１丁目","lat":39.284075,"lng":141.120862},{"code":"03206001002","name":"青柳町２丁目","lat":39.28479,"lng":141.117223},{"code":"032060020","name":"有田町","lat":39.293674,"lng":141.105305},{"code":"03206003001","name":"上野町１丁目","lat":39.297704,"lng":141.126329},{"code":"03206003002","name":"上野町２丁目","lat":39.300661,"lng":141.12413},{"code":"03206003003","name":"上野町３丁目","lat":39.305888,"lng":141.123395},{"code":"03206003004","name":"上野町４丁目","lat":39.303166,"lng":141.12691},{"code":"03206003005","name":"上野町５丁目","lat":39.30113,"lng":141.129841},{"code":"03206004001","name":"大通り１丁目","lat":39.28203,"lng":141.12091},{"code":"03206004002","name":"大通り２丁目","lat":39.282915,"lng":141.116764},{"code":"03206004003","name":"大通り３丁目","lat":39.284394,"lng":141.112326},{"code":"03206004004","name":"大通り４丁目","lat":39.286671,"lng":141.106789},{"code":"032060050","name":"大曲町","lat":39.286148,"lng":141.111306},{"code":"03206006001","name":"鍛冶町１丁目","lat":39.289286,"lng":141.10807},{"code":"03206006002","name":"鍛冶町２丁目","lat":39.289854,"lng":141.105587},{"code":"03206006003","name":"鍛冶町３丁目","lat":39.290879,"lng":141.103123},{"code":"03206008001","name":"川岸１丁目","lat":39.276932,"lng":141.122612},{"code":"03206008002","name":"川岸２丁目","lat":39.285704,"lng":141.124157},{"code":"03206008003","name":"川岸３丁目","lat":39.283813,"lng":141.127271},{"code":"03206008004","name":"川岸４丁目","lat":39.286723,"lng":141.128875},{"code":"03206009001","name":"九年橋１丁目","lat":39.278595,"lng":141.114271},{"code":"03206009002","name":"九年橋２丁目","lat":39.282792,"lng":141.112689},{"code":"03206009003","name":"九年橋３丁目","lat":39.28277,"lng":141.10963},{"code":"03206010001","name":"黒沢尻１丁目","lat":39.289706,"lng":141.130326},{"code":"03206010002","name":"黒沢尻２丁目","lat":39.29406,"lng":141.130795},{"code":"03206010003","name":"黒沢尻３丁目","lat":39.296172,"lng":141.132063},{"code":"03206010004","name":"黒沢尻４丁目","lat":39.296445,"lng":141.136317},{"code":"032060110","name":"幸町","lat":39.286053,"lng":141.121683},{"code":"03206012001","name":"新穀町１丁目","lat":39.288925,"lng":141.113029},{"code":"03206012002","name":"新穀町２丁目","lat":39.289987,"lng":141.1106},{"code":"03206013001","name":"諏訪町１丁目","lat":39.286303,"lng":141.119506},{"code":"03206013002","name":"諏訪町２丁目","lat":39.286831,"lng":141.117576},{"code":"03206014001","name":"堤ケ丘１丁目","lat":39.30826,"lng":141.115836},{"code":"03206014002","name":"堤ケ丘２丁目","lat":39.312501,"lng":141.115146},{"code":"03206015001","name":"常盤台１丁目","lat":39.300513,"lng":141.119742},{"code":"03206015002","name":"常盤台２丁目","lat":39.300578,"lng":141.115462},{"code":"03206015003","name":"常盤台３丁目","lat":39.30373,"lng":141.113613},{"code":"03206015004","name":"常盤台４丁目","lat":39.307609,"lng":141.112426},{"code":"03206016001","name":"中野町１丁目","lat":39.289203,"lng":141.124647},{"code":"03206016002","name":"中野町２丁目","lat":39.293243,"lng":141.125653},{"code":"03206016003","name":"中野町３丁目","lat":39.295371,"lng":141.125624},{"code":"03206017001","name":"花園町１丁目","lat":39.288295,"lng":141.121048},{"code":"03206017002","name":"花園町２丁目","lat":39.289034,"lng":141.119083},{"code":"03206017003","name":"花園町３丁目","lat":39.290796,"lng":141.121463},{"code":"03206018001","name":"本石町１丁目","lat":39.290472,"lng":141.114442},{"code":"03206018002","name":"本石町２丁目","lat":39.292499,"lng":141.115713},{"code":"03206019001","name":"本通り１丁目","lat":39.28614,"lng":141.114778},{"code":"03206019002","name":"本通り２丁目","lat":39.288911,"lng":141.116672},{"code":"03206019003","name":"本通り３丁目","lat":39.292004,"lng":141.11901},{"code":"03206019004","name":"本通り４丁目","lat":39.294373,"lng":141.120814},{"code":"032060200","name":"孫屋敷","lat":39.291557,"lng":141.127371},{"code":"03206021001","name":"柳原町１丁目","lat":39.292936,"lng":141.11176},{"code":"03206021002","name":"柳原町２丁目","lat":39.293178,"lng":141.108871},{"code":"03206021003","name":"柳原町３丁目","lat":39.294598,"lng":141.116195},{"code":"03206021004","name":"柳原町４丁目","lat":39.295482,"lng":141.112869},{"code":"03206021005","name":"柳原町５丁目","lat":39.295946,"lng":141.108732},{"code":"032060220","name":"芳町","lat":39.287461,"lng":141.111412},{"code":"03206023001","name":"若宮町１丁目","lat":39.277641,"lng":141.117978},{"code":"03206023002","name":"若宮町２丁目","lat":39.280907,"lng":141.11592},{"code":"032060240","name":"小鳥崎","lat":39.298333,"lng":141.143244},{"code":"032060250","name":"里分","lat":39.292478,"lng":141.136093},{"code":"032060260","name":"立花","lat":39.281843,"lng":141.14604},{"code":"032060270","name":"町分","lat":39.297997,"lng":141.104999},{"code":"032060281","name":"飯豊","lat":39.350915,"lng":141.092968},{"code":"032060282","name":"成田","lat":39.347301,"lng":141.124024},{"code":"032060283","name":"藤沢","lat":39.322113,"lng":141.086494},{"code":"032060284","name":"村崎野","lat":39.332917,"lng":141.098723},{"code":"032060285","name":"北工業団地","lat":39.335036,"lng":141.12674},{"code":"032060286","name":"流通センター","lat":39.317003,"lng":141.096},{"code":"032060290","name":"二子町","lat":39.317766,"lng":141.139809},{"code":"032060301","name":"更木","lat":39.341307,"lng":141.157239},{"code":"032060302","name":"臥牛","lat":39.350668,"lng":141.176956},{"code":"032060311","name":"黒岩","lat":39.30534,"lng":141.163812},{"code":"032060312","name":"平沢","lat":39.32627,"lng":141.172686},{"code":"032060313","name":"湯沢","lat":39.318356,"lng":141.17387},{"code":"032060320","name":"口内町","lat":39.289061,"lng":141.207769},{"code":"032060330","name":"稲瀬町","lat":39.256617,"lng":141.139105},{"code":"032060340","name":"相去町","lat":39.252682,"lng":141.083409},{"code":"03206035001","name":"大堤北１丁目","lat":39.264516,"lng":141.101285},{"code":"03206035002","name":"大堤北２丁目","lat":39.26446,"lng":141.104832},{"code":"03206036001","name":"大堤西１丁目","lat":39.264683,"lng":141.097648},{"code":"03206036002","name":"大堤西２丁目","lat":39.262801,"lng":141.097347},{"code":"03206037001","name":"大堤東１丁目","lat":39.264342,"lng":141.1081},{"code":"03206037002","name":"大堤東２丁目","lat":39.264082,"lng":141.110839},{"code":"03206037003","name":"大堤東３丁目","lat":39.261217,"lng":141.107466},{"code":"03206038001","name":"大堤南１丁目","lat":39.262401,"lng":141.100998},{"code":"03206038002","name":"大堤南２丁目","lat":39.262293,"lng":141.104585},{"code":"03206038003","name":"大堤南３丁目","lat":39.260339,"lng":141.104713},{"code":"032060391","name":"鬼柳町","lat":39.275521,"lng":141.092006},{"code":"032060392","name":"上鬼柳","lat":39.276639,"lng":141.071758},{"code":"032060393","name":"下鬼柳","lat":39.272932,"lng":141.105356},{"code":"032060400","name":"上江釣子","lat":39.29961,"lng":141.07431},{"code":"032060410","name":"下江釣子","lat":39.293528,"lng":141.05481},{"code":"032060420","name":"滑田","lat":39.312939,"lng":141.06543},{"code":"032060430","name":"新平","lat":39.324384,"lng":141.059952},{"code":"032060440","name":"鳩岡崎","lat":39.310562,"lng":141.086563},{"code":"032060450","name":"北鬼柳","lat":39.295024,"lng":141.095617},{"code":"03206046001","name":"和賀町横川目","lat":39.375549,"lng":140.903717},{"code":"03206046002","name":"和賀町竪川目","lat":39.304623,"lng":140.999477},{"code":"03206046003","name":"和賀町仙人","lat":39.306328,"lng":140.909742},{"code":"03206046004","name":"和賀町岩沢","lat":39.299538,"lng":140.938942},{"code":"03206046005","name":"和賀町山口","lat":39.295285,"lng":140.974273},{"code":"03206046006","name":"和賀町煤孫","lat":39.277497,"lng":140.995251},{"code":"03206046007","name":"和賀町岩崎","lat":39.26681,"lng":141.032408},{"code":"03206046008","name":"和賀町岩崎新田","lat":39.245146,"lng":140.926238},{"code":"03206046009","name":"和賀町藤根","lat":39.313948,"lng":141.032156},{"code":"03206046010","name":"和賀町長沼","lat":39.297305,"lng":141.021039},{"code":"03206046011","name":"和賀町後藤","lat":39.334106,"lng":141.012479},{"code":"03206047001","name":"さくら通り１丁目","lat":39.296294,"lng":141.115258},{"code":"03206047002","name":"さくら通り２丁目","lat":39.298038,"lng":141.109367},{"code":"03206047003","name":"さくら通り３丁目","lat":39.297547,"lng":141.116195},{"code":"03206047004","name":"さくら通り４丁目","lat":39.299616,"lng":141.112106},{"code":"03206047005","name":"さくら通り５丁目","lat":39.302019,"lng":141.109646}]}
