{"municipality":"03209","name":"一関市","prefecture":"岩手県","source":{"dataset":"frogcat/japan-small-area","census":"平成27年国勢調査 小地域（e-Stat 統計LOD）","license":"MIT（リポジトリ）／政府統計の総合窓口(e-Stat)の利用規約（元データ・出典表記必要）","fetched":"2026-07-06"},"towns":[{"code":"032090010","name":"八幡町","lat":38.925444,"lng":141.132965},{"code":"032090020","name":"城内","lat":38.926997,"lng":141.130868},{"code":"032090030","name":"台町","lat":38.917556,"lng":141.130465},{"code":"032090040","name":"高崎町","lat":38.922549,"lng":141.130641},{"code":"032090050","name":"宮坂町","lat":38.921303,"lng":141.132777},{"code":"032090060","name":"旭町","lat":38.919987,"lng":141.134095},{"code":"032090070","name":"千代田町","lat":38.913543,"lng":141.132591},{"code":"032090080","name":"新大町","lat":38.924877,"lng":141.134602},{"code":"032090090","name":"駅前","lat":38.924986,"lng":141.137529},{"code":"032090101","name":"南新町","lat":38.923774,"lng":141.13558},{"code":"032090102","name":"字新山","lat":38.92294,"lng":141.135996},{"code":"032090110","name":"字釣山","lat":38.923173,"lng":141.128896},{"code":"032090120","name":"字広街","lat":38.925745,"lng":141.130334},{"code":"032090130","name":"字台町","lat":38.918701,"lng":141.128206},{"code":"032090140","name":"田村町","lat":38.929966,"lng":141.131937},{"code":"032090150","name":"大手町","lat":38.92919,"lng":141.134659},{"code":"032090160","name":"地主町","lat":38.932094,"lng":141.134741},{"code":"032090170","name":"磐井町","lat":38.934663,"lng":141.134962},{"code":"032090180","name":"桜木町","lat":38.933841,"lng":141.137685},{"code":"032090190","name":"大町","lat":38.928853,"lng":141.13654},{"code":"032090200","name":"上大槻街","lat":38.928725,"lng":141.137977},{"code":"032090210","name":"東地主町","lat":38.931331,"lng":141.138653},{"code":"032090220","name":"字北豊隆","lat":38.931912,"lng":141.144868},{"code":"032090230","name":"字北十軒街","lat":38.933661,"lng":141.141537},{"code":"032090240","name":"字久保","lat":38.934158,"lng":141.147133},{"code":"032090250","name":"桜街","lat":38.933131,"lng":141.140025},{"code":"032090260","name":"字下大槻街","lat":38.932632,"lng":141.139757},{"code":"032090270","name":"字東花王町","lat":38.935408,"lng":141.139354},{"code":"032090280","name":"字南十軒街","lat":38.932375,"lng":141.141081},{"code":"032090290","name":"豊町","lat":38.931686,"lng":141.140713},{"code":"032090300","name":"字要害","lat":38.934752,"lng":141.143173},{"code":"032090310","name":"字宇南","lat":38.927101,"lng":141.143288},{"code":"032090320","name":"五十人町","lat":38.930543,"lng":141.141549},{"code":"032090330","name":"字散田","lat":38.926383,"lng":141.144661},{"code":"032090340","name":"字吸川街","lat":38.928263,"lng":141.139368},{"code":"032090350","name":"字鳴神","lat":38.92912,"lng":141.143882},{"code":"032090360","name":"字二本木","lat":38.927953,"lng":141.142521},{"code":"032090370","name":"字沼田","lat":38.928538,"lng":141.145829},{"code":"032090380","name":"字樋渡","lat":38.93056,"lng":141.14691},{"code":"032090390","name":"字南豊隆","lat":38.929744,"lng":141.142651},{"code":"032090401","name":"字機織山","lat":38.920966,"lng":141.138946},{"code":"032090402","name":"字沢","lat":38.908529,"lng":141.146206},{"code":"032090410","name":"字機織山","lat":38.917296,"lng":141.137383},{"code":"032090421","name":"字相去","lat":38.923568,"lng":141.13999},{"code":"032090422","name":"字柳町","lat":38.927046,"lng":141.140448},{"code":"032090423","name":"字柄貝","lat":38.925055,"lng":141.141886},{"code":"032090440","name":"字西沢","lat":38.922156,"lng":141.138009},{"code":"032090450","name":"関が丘","lat":38.917953,"lng":141.14576},{"code":"032091010","name":"宮下町","lat":38.940755,"lng":141.128072},{"code":"032091020","name":"宮前町","lat":38.938249,"lng":141.128154},{"code":"032091030","name":"五代町","lat":38.936205,"lng":141.131613},{"code":"032091040","name":"竹山町","lat":38.935328,"lng":141.126504},{"code":"03209105001","name":"中央町１丁目","lat":38.933909,"lng":141.130002},{"code":"03209105002","name":"中央町２丁目","lat":38.936017,"lng":141.129326},{"code":"03209106001","name":"青葉１丁目","lat":38.929517,"lng":141.127204},{"code":"03209106002","name":"青葉２丁目","lat":38.931677,"lng":141.128676},{"code":"032091070","name":"幸町","lat":38.930138,"lng":141.122908},{"code":"03209108001","name":"末広１丁目","lat":38.92719,"lng":141.124773},{"code":"03209108002","name":"末広２丁目","lat":38.926144,"lng":141.120497},{"code":"032091090","name":"銅谷町","lat":38.932742,"lng":141.125428},{"code":"03209110001","name":"山目字三反田","lat":38.932721,"lng":141.120283},{"code":"03209110002","name":"山目字十二神","lat":38.925913,"lng":141.117379},{"code":"03209110003","name":"山目字十二神","lat":38.928502,"lng":141.117137},{"code":"03209110004","name":"山目字向野","lat":38.930446,"lng":141.121142},{"code":"03209110005","name":"山目字泥田山下","lat":38.939282,"lng":141.115393},{"code":"03209110006","name":"山目字才天","lat":38.931302,"lng":141.112614},{"code":"03209110007","name":"山目字才天","lat":38.932046,"lng":141.113778},{"code":"03209110008","name":"山目字立沢","lat":38.929472,"lng":141.112391},{"code":"03209110009","name":"山目字境","lat":38.934591,"lng":141.110735},{"code":"03209110010","name":"山目字中野","lat":38.933952,"lng":141.115952},{"code":"03209110011","name":"山目字前田","lat":38.932972,"lng":141.123484},{"code":"03209110012","name":"山目字前田","lat":38.934777,"lng":141.12315},{"code":"03209110013","name":"山目字大槻","lat":38.937012,"lng":141.118236},{"code":"03209110014","name":"山目字寺前","lat":38.936976,"lng":141.122108},{"code":"03209110015","name":"山目字泥田","lat":38.938146,"lng":141.112464},{"code":"03209110016","name":"山目字沢内","lat":38.941933,"lng":141.115789},{"code":"03209110017","name":"山目字館","lat":38.944636,"lng":141.115353},{"code":"03209111001","name":"赤荻字上谷地","lat":38.933981,"lng":141.100478},{"code":"03209111002","name":"赤荻字口袋","lat":38.927297,"lng":141.103666},{"code":"03209111003","name":"赤荻字堺","lat":38.938533,"lng":141.108287},{"code":"03209111004","name":"赤荻字下谷地","lat":38.934195,"lng":141.105069},{"code":"03209111005","name":"赤荻字鶴巻","lat":38.937692,"lng":141.101528},{"code":"03209111006","name":"赤荻字野中","lat":38.931266,"lng":141.10588},{"code":"03209111007","name":"赤荻字松木","lat":38.929504,"lng":141.099867},{"code":"03209111008","name":"赤荻字鬼吉","lat":38.932261,"lng":141.088494},{"code":"03209111009","name":"赤荻字上袋","lat":38.935978,"lng":141.089959},{"code":"03209111010","name":"赤荻字荻野","lat":38.934362,"lng":141.095023},{"code":"03209111011","name":"赤荻字亀田","lat":38.940316,"lng":141.090781},{"code":"03209111012","name":"赤荻字桜町","lat":38.93976,"lng":141.095345},{"code":"03209111013","name":"赤荻字槻本","lat":38.938059,"lng":141.086096},{"code":"03209111014","name":"赤荻字宿","lat":38.946291,"lng":141.094574},{"code":"03209111015","name":"赤荻字月町","lat":38.940515,"lng":141.101883},{"code":"03209111016","name":"赤荻字中条","lat":38.943909,"lng":141.106012},{"code":"03209111017","name":"赤荻字宮田","lat":38.947096,"lng":141.101824},{"code":"03209111018","name":"赤荻字福泉","lat":38.947198,"lng":141.083547},{"code":"03209111019","name":"赤荻字雲南","lat":38.941913,"lng":141.086324},{"code":"03209111020","name":"赤荻字笹谷","lat":38.958859,"lng":141.102155},{"code":"03209111021","name":"赤荻字外山","lat":38.958832,"lng":141.086402},{"code":"032091120","name":"東五代","lat":38.941657,"lng":141.13158},{"code":"03209201001","name":"山目町１丁目","lat":38.944005,"lng":141.129132},{"code":"03209201002","name":"山目町２丁目","lat":38.946883,"lng":141.130669},{"code":"03209201003","name":"山目町３丁目","lat":38.950463,"lng":141.130971},{"code":"032092020","name":"蘭梅町","lat":38.943889,"lng":141.126454},{"code":"032092030","name":"新町","lat":38.955435,"lng":141.129459},{"code":"03209204001","name":"中里字沢田","lat":38.946627,"lng":141.124041},{"code":"03209204002","name":"中里字沢田","lat":38.952259,"lng":141.122669},{"code":"03209204003","name":"中里字大平山","lat":38.951164,"lng":141.114365},{"code":"03209204007","name":"中里字在家","lat":38.937963,"lng":141.155311},{"code":"03209204009","name":"中里字南白幡","lat":38.939945,"lng":141.143312},{"code":"03209204011","name":"中里字神明","lat":38.941414,"lng":141.147376},{"code":"03209204012","name":"中里字照井","lat":38.938049,"lng":141.145161},{"code":"03209204013","name":"中里字舟場","lat":38.936371,"lng":141.149122},{"code":"03209204014","name":"中里字南白幡","lat":38.939917,"lng":141.138953},{"code":"03209204015","name":"中里字南谷起","lat":38.931771,"lng":141.156764},{"code":"032092050","name":"川辺","lat":38.959045,"lng":141.146015},{"code":"032092060","name":"石畑","lat":38.937528,"lng":141.13437},{"code":"032092070","name":"上日照","lat":38.939522,"lng":141.134524},{"code":"032092080","name":"上坊","lat":38.942374,"lng":141.134072},{"code":"032092090","name":"町浦","lat":38.94465,"lng":141.1323},{"code":"03209301001","name":"三関字小沢","lat":38.916541,"lng":141.152099},{"code":"03209301002","name":"三関字白崎","lat":38.925657,"lng":141.154156},{"code":"03209301003","name":"三関字外山","lat":38.927034,"lng":141.162599},{"code":"03209301004","name":"三関字桜町","lat":38.930085,"lng":141.152898},{"code":"03209301005","name":"三関字神田","lat":38.923547,"lng":141.145046},{"code":"03209301006","name":"三関字外谷起","lat":38.932442,"lng":141.150326},{"code":"03209301007","name":"三関字仲田","lat":38.926512,"lng":141.15041},{"code":"03209301008","name":"三関字日照","lat":38.927888,"lng":141.148305},{"code":"032093020","name":"東台","lat":38.921063,"lng":141.161427},{"code":"032093031","name":"中里","lat":38.930066,"lng":141.157752},{"code":"03209303201","name":"狐禅寺字久田","lat":38.935752,"lng":141.166384},{"code":"03209303202","name":"狐禅寺字大平","lat":38.939222,"lng":141.172875},{"code":"03209303203","name":"狐禅寺字八郎沢","lat":38.930071,"lng":141.16296},{"code":"03209303204","name":"狐禅寺字舞台","lat":38.945001,"lng":141.166342},{"code":"03209303205","name":"狐禅寺字小倉沢","lat":38.936534,"lng":141.179425},{"code":"03209303206","name":"狐禅寺字宇南田","lat":38.941909,"lng":141.180852},{"code":"03209303207","name":"狐禅寺字川口","lat":38.946954,"lng":141.176875},{"code":"03209303208","name":"狐禅寺字草ケ沢","lat":38.934254,"lng":141.191301},{"code":"03209303209","name":"狐禅寺字草ケ沢","lat":38.932318,"lng":141.208412},{"code":"03209304001","name":"滝沢字藤","lat":38.902256,"lng":141.201685},{"code":"03209304002","name":"滝沢字一ノ沢","lat":38.898203,"lng":141.200541},{"code":"03209304003","name":"滝沢字苦木","lat":38.901492,"lng":141.190884},{"code":"03209304004","name":"滝沢字二ノ沢","lat":38.886527,"lng":141.204631},{"code":"03209304005","name":"滝沢字大川原","lat":38.911051,"lng":141.188891},{"code":"03209304006","name":"滝沢字芦沢","lat":38.924566,"lng":141.174703},{"code":"03209304007","name":"滝沢字水口","lat":38.90794,"lng":141.173592},{"code":"03209304008","name":"滝沢字館下","lat":38.906645,"lng":141.177091},{"code":"03209304009","name":"滝沢字鶴ケ沢","lat":38.906092,"lng":141.16456},{"code":"03209304010","name":"滝沢字八幡下","lat":38.890469,"lng":141.174526},{"code":"03209304011","name":"滝沢字九鬼","lat":38.901727,"lng":141.183658},{"code":"03209304012","name":"滝沢字鶴ケ沢","lat":38.911674,"lng":141.171207},{"code":"03209304013","name":"滝沢字水口","lat":38.913139,"lng":141.167292},{"code":"03209304014","name":"滝沢字矢ノ目沢","lat":38.911416,"lng":141.16265},{"code":"032093051","name":"萩荘","lat":38.906047,"lng":141.115816},{"code":"03209305201","name":"真柴字矢ノ目沢","lat":38.907865,"lng":141.156482},{"code":"03209305202","name":"真柴字鹿込","lat":38.891319,"lng":141.153477},{"code":"03209305203","name":"真柴字原下","lat":38.889785,"lng":141.13545},{"code":"03209305204","name":"真柴字中田","lat":38.908672,"lng":141.13421},{"code":"03209305206","name":"真柴字牧田","lat":38.887753,"lng":141.116998},{"code":"03209305207","name":"真柴字八幡","lat":38.901103,"lng":141.125777},{"code":"03209305208","name":"真柴字原下","lat":38.90633,"lng":141.127153},{"code":"03209305209","name":"真柴字武奈沢","lat":38.885611,"lng":141.116418},{"code":"03209305210","name":"真柴字柳沢","lat":38.895047,"lng":141.105218},{"code":"03209305211","name":"真柴字新山","lat":38.90377,"lng":141.120747},{"code":"03209305212","name":"真柴字千刈田","lat":38.911874,"lng":141.129298},{"code":"03209305213","name":"真柴字宮沢","lat":38.912814,"lng":141.123806},{"code":"03209305214","name":"真柴字中田","lat":38.907663,"lng":141.138884},{"code":"032093060","name":"南町","lat":38.915334,"lng":141.131321},{"code":"03209401001","name":"厳美町字上野","lat":38.947293,"lng":141.071551},{"code":"03209401002","name":"厳美町字古館","lat":38.953945,"lng":141.061436},{"code":"03209401003","name":"厳美町字宿","lat":38.944047,"lng":141.058589},{"code":"03209401004","name":"厳美町字滝ノ上","lat":38.94796,"lng":141.047157},{"code":"03209401005","name":"厳美町字山口","lat":38.960351,"lng":141.036567},{"code":"03209401006","name":"厳美町字入道","lat":38.974895,"lng":141.004165},{"code":"03209401007","name":"厳美町字小河原","lat":38.959217,"lng":141.017771},{"code":"03209401008","name":"厳美町字天王","lat":38.96652,"lng":140.987317},{"code":"03209401009","name":"厳美町字天王","lat":38.98598,"lng":140.9729},{"code":"03209401010","name":"厳美町字下真坂","lat":38.977354,"lng":140.960037},{"code":"03209401011","name":"厳美町字沖要害","lat":38.982063,"lng":140.940813},{"code":"03209401012","name":"厳美町字岡山","lat":38.968427,"lng":140.934642},{"code":"03209401013","name":"厳美町字若井原","lat":38.9819,"lng":140.926883},{"code":"03209401014","name":"厳美町字上ノ台","lat":38.941641,"lng":141.042851},{"code":"03209401015","name":"厳美町字舟卸","lat":38.937839,"lng":141.056214},{"code":"03209401016","name":"厳美町字南滝ノ上","lat":38.944537,"lng":141.043855},{"code":"03209401017","name":"厳美町字上ノ台","lat":38.934485,"lng":141.039955},{"code":"03209401018","name":"厳美町字宮田","lat":38.948664,"lng":140.983494},{"code":"03209401019","name":"厳美町字山梨","lat":38.960663,"lng":140.953447},{"code":"03209401020","name":"厳美町字中上","lat":38.940986,"lng":140.924746},{"code":"03209401021","name":"厳美町字横森","lat":38.974261,"lng":140.919832},{"code":"03209401022","name":"厳美町字下り松","lat":38.979797,"lng":140.923154},{"code":"03209401023","name":"厳美町字下り松","lat":38.982732,"lng":140.907828},{"code":"03209401024","name":"厳美町","lat":38.986421,"lng":140.853068},{"code":"03209401025","name":"厳美町字市野々原","lat":39.007168,"lng":140.895948},{"code":"03209401026","name":"厳美町字祭畤","lat":39.012568,"lng":140.858505},{"code":"03209501001","name":"萩荘字高梨南方","lat":38.921617,"lng":141.111869},{"code":"03209501002","name":"萩荘字大清水","lat":38.920629,"lng":141.11556},{"code":"03209501003","name":"萩荘字川崎","lat":38.919742,"lng":141.112821},{"code":"03209501004","name":"萩荘字小萩","lat":38.922891,"lng":141.11344},{"code":"03209501005","name":"萩荘字下中田","lat":38.919449,"lng":141.109987},{"code":"03209501006","name":"萩荘字高梨南方","lat":38.922847,"lng":141.111951},{"code":"03209501007","name":"萩荘字中町","lat":38.924038,"lng":141.115141},{"code":"03209501008","name":"萩荘字本町","lat":38.923085,"lng":141.118877},{"code":"03209501009","name":"萩荘字脇田郷","lat":38.923493,"lng":141.125109},{"code":"03209501010","name":"萩荘字白山田","lat":38.90839,"lng":141.103542},{"code":"03209501011","name":"萩荘字鍋倉","lat":38.904155,"lng":141.10714},{"code":"03209501012","name":"萩荘字境ノ神","lat":38.915237,"lng":141.091294},{"code":"03209501013","name":"萩荘字境ノ神","lat":38.921204,"lng":141.095747},{"code":"03209501014","name":"萩荘字下モ下釜","lat":38.923469,"lng":141.10114},{"code":"03209501015","name":"萩荘字上川台","lat":38.896761,"lng":141.077901},{"code":"03209501016","name":"萩荘字越河","lat":38.929405,"lng":141.07517},{"code":"03209501017","name":"萩荘字梨木平","lat":38.919435,"lng":141.06638},{"code":"03209501018","name":"萩荘字上大桑","lat":38.902233,"lng":141.054474},{"code":"03209501019","name":"萩荘字霜後","lat":38.92298,"lng":141.044796},{"code":"03209501020","name":"萩荘字八森","lat":38.894999,"lng":141.032436},{"code":"03209501021","name":"萩荘字赤猪子","lat":38.894077,"lng":140.990946},{"code":"03209501022","name":"萩荘字外山","lat":38.910125,"lng":141.011436},{"code":"03209501023","name":"萩荘字外山","lat":38.917765,"lng":140.990947},{"code":"03209501024","name":"萩荘字堂ノ沢","lat":38.925011,"lng":141.022355},{"code":"03209501025","name":"萩荘字栃倉","lat":38.934216,"lng":140.99865},{"code":"03209501026","name":"萩荘字長倉","lat":38.928683,"lng":140.952768},{"code":"03209501027","name":"萩荘字栃倉","lat":38.915011,"lng":140.962625},{"code":"03209501028","name":"萩荘字下モ下釜","lat":38.919561,"lng":141.104987},{"code":"03209501029","name":"萩荘字釜ケ渕","lat":38.926053,"lng":141.111802},{"code":"03209501030","name":"萩荘字高梨北方","lat":38.927878,"lng":141.109069},{"code":"03209501031","name":"萩荘字高梨東","lat":38.922157,"lng":141.108309},{"code":"03209501032","name":"萩荘字高梨南方","lat":38.92419,"lng":141.108207},{"code":"03209501033","name":"萩荘字大清水","lat":38.918783,"lng":141.116899},{"code":"03209501034","name":"萩荘字駒下","lat":38.919183,"lng":141.119113},{"code":"03209501035","name":"萩荘字箱清水","lat":38.920544,"lng":141.12178},{"code":"03209501036","name":"萩荘字谷起島西方","lat":38.924999,"lng":141.096295},{"code":"03209601001","name":"舞川字木戸","lat":38.97738,"lng":141.16181},{"code":"03209601002","name":"舞川字榎木","lat":38.97397,"lng":141.166491},{"code":"03209601003","name":"舞川字大平","lat":38.982656,"lng":141.171549},{"code":"03209601004","name":"舞川字水無沢","lat":38.972772,"lng":141.173765},{"code":"03209601005","name":"舞川字蓬田","lat":38.978016,"lng":141.182932},{"code":"03209601006","name":"舞川字一本松","lat":38.96523,"lng":141.183261},{"code":"03209601007","name":"舞川字堀切","lat":38.965394,"lng":141.171158},{"code":"03209601008","name":"舞川字館ノ越","lat":38.968904,"lng":141.17184},{"code":"03209601009","name":"舞川字西平","lat":38.95891,"lng":141.174424},{"code":"03209601010","name":"舞川字清水","lat":38.954019,"lng":141.173625},{"code":"03209601011","name":"舞川字山根","lat":38.955047,"lng":141.186826},{"code":"03209601012","name":"舞川字山根","lat":38.957241,"lng":141.200076},{"code":"03209601013","name":"舞川字根岸","lat":38.939498,"lng":141.221546},{"code":"03209601014","name":"舞川字三ツ森","lat":38.953278,"lng":141.222381},{"code":"03209601015","name":"舞川字岩沢","lat":38.961599,"lng":141.211218},{"code":"03209601016","name":"舞川字小塚","lat":38.968359,"lng":141.215898},{"code":"03209601017","name":"舞川字外大久保","lat":38.97716,"lng":141.222462},{"code":"03209601018","name":"舞川字中入","lat":38.970792,"lng":141.201191},{"code":"03209601019","name":"舞川字原沢","lat":38.978681,"lng":141.210959},{"code":"03209601020","name":"舞川字中里","lat":38.975218,"lng":141.204552},{"code":"03209601021","name":"舞川字原沢","lat":38.987021,"lng":141.210053},{"code":"03209601022","name":"舞川字折ノ口","lat":38.981181,"lng":141.196864},{"code":"03209601023","name":"舞川字折ノ口","lat":38.991195,"lng":141.193782},{"code":"03209601024","name":"川辺字中島","lat":38.960106,"lng":141.164122},{"code":"03209701001","name":"弥栄字内ノ目","lat":38.873188,"lng":141.249367},{"code":"03209701002","name":"弥栄字丑子畑","lat":38.881174,"lng":141.231869},{"code":"03209701003","name":"弥栄字鶴巻","lat":38.885161,"lng":141.2517},{"code":"03209701004","name":"弥栄字運南田","lat":38.883786,"lng":141.243552},{"code":"03209701005","name":"弥栄字茄子沢","lat":38.8884,"lng":141.257897},{"code":"03209701006","name":"弥栄字沼畑","lat":38.898392,"lng":141.25167},{"code":"03209701007","name":"弥栄字大奈良","lat":38.901293,"lng":141.234914},{"code":"03209701008","name":"弥栄字一ノ沢","lat":38.900724,"lng":141.217935},{"code":"03209701009","name":"弥栄字川底","lat":38.913478,"lng":141.231961},{"code":"03209701010","name":"弥栄字北ノ沢","lat":38.916853,"lng":141.221543},{"code":"032097020","name":"永井","lat":38.775952,"lng":141.228456},{"code":"032097030","name":"涌津","lat":38.80466,"lng":141.196005},{"code":"032097040","name":"油島","lat":38.804573,"lng":141.162597},{"code":"032097050","name":"花泉","lat":38.835795,"lng":141.146232},{"code":"032097060","name":"老松","lat":38.828073,"lng":141.211674},{"code":"032097070","name":"日形","lat":38.838198,"lng":141.240402},{"code":"032097080","name":"金沢","lat":38.867084,"lng":141.190313},{"code":"03209709001","name":"大原字大杉","lat":39.08786,"lng":141.448401},{"code":"03209709002","name":"大原字古小屋","lat":39.062448,"lng":141.447904},{"code":"03209709003","name":"大原字当摩","lat":39.039608,"lng":141.443453},{"code":"03209709004","name":"大原字中田","lat":39.036149,"lng":141.41715},{"code":"03209709005","name":"大原字和田戸","lat":39.031758,"lng":141.406336},{"code":"03209709006","name":"大原字沼ノ沢","lat":39.010259,"lng":141.445272},{"code":"03209709007","name":"大原字上川原","lat":39.001649,"lng":141.431393},{"code":"03209709008","name":"大原字外大久保","lat":38.988977,"lng":141.433702},{"code":"03209709009","name":"大原字和野","lat":39.002102,"lng":141.409979},{"code":"03209709010","name":"大原字山谷沢","lat":39.006754,"lng":141.38884},{"code":"03209709011","name":"大原字若宮","lat":39.008844,"lng":141.372633},{"code":"03209709012","name":"大原字跡ノ沢","lat":39.021947,"lng":141.375908},{"code":"03209709013","name":"大原字山吹","lat":39.023591,"lng":141.392513},{"code":"03209709014","name":"大原字川内","lat":39.018142,"lng":141.396979},{"code":"03209709015","name":"大原字中島","lat":39.018389,"lng":141.406015},{"code":"03209709016","name":"大原字矢ノ目","lat":39.014671,"lng":141.406498},{"code":"03209709017","name":"大原字一六","lat":39.016669,"lng":141.401878},{"code":"03209709018","name":"大原字一六","lat":39.013075,"lng":141.401601},{"code":"03209709019","name":"大原字立町","lat":39.014423,"lng":141.398234},{"code":"03209709020","name":"大原字立町","lat":39.011713,"lng":141.394659},{"code":"03209710001","name":"摺沢字上摺沢沖","lat":39.000413,"lng":141.33187},{"code":"03209710002","name":"摺沢字大森","lat":39.002233,"lng":141.346003},{"code":"03209710003","name":"摺沢字栃折沢","lat":38.98942,"lng":141.341849},{"code":"03209710004","name":"摺沢字源八","lat":38.987274,"lng":141.352894},{"code":"03209710005","name":"摺沢字金山沢","lat":38.977498,"lng":141.346344},{"code":"03209710006","name":"摺沢字北長者","lat":38.970998,"lng":141.339692},{"code":"03209710007","name":"摺沢字松原新田","lat":38.976984,"lng":141.32332},{"code":"03209710008","name":"摺沢字松原新田","lat":38.965105,"lng":141.327783},{"code":"03209710009","name":"摺沢字中羽根折沢","lat":38.959083,"lng":141.341083},{"code":"03209710010","name":"摺沢字栃折沢","lat":38.988621,"lng":141.333094},{"code":"03209710011","name":"摺沢字摺沢駅","lat":38.991441,"lng":141.328697},{"code":"03209710012","name":"摺沢字堀河ノ沢","lat":38.986036,"lng":141.31629},{"code":"03209710013","name":"摺沢字雲南田","lat":38.979717,"lng":141.305736},{"code":"03209710014","name":"摺沢字流矢","lat":38.998481,"lng":141.303608},{"code":"03209710015","name":"摺沢字魚集","lat":39.005159,"lng":141.309125},{"code":"03209710016","name":"摺沢字上堺ノ沢","lat":39.007435,"lng":141.324604},{"code":"03209710017","name":"摺沢字街道下","lat":38.995214,"lng":141.321831},{"code":"03209710018","name":"摺沢字新右衛門土手","lat":38.996604,"lng":141.325471},{"code":"03209710019","name":"摺沢字百目木","lat":38.995122,"lng":141.331123},{"code":"03209710020","name":"摺沢字観音堂","lat":38.991571,"lng":141.325889},{"code":"03209710021","name":"摺沢字堀河ノ沢","lat":38.992201,"lng":141.322481},{"code":"03209710022","name":"摺沢字荒屋敷","lat":38.998778,"lng":141.319097},{"code":"03209711101","name":"沖田字八日町","lat":39.047037,"lng":141.373727},{"code":"03209711102","name":"沖田字市道","lat":39.036243,"lng":141.372746},{"code":"03209711103","name":"沖田字大住","lat":39.039505,"lng":141.376842},{"code":"03209711104","name":"沖田字赤菅","lat":39.038056,"lng":141.35486},{"code":"03209711105","name":"沖田字大門","lat":39.04015,"lng":141.329936},{"code":"03209711106","name":"沖田字大平","lat":39.057674,"lng":141.332669},{"code":"03209711107","name":"沖田字狩集前","lat":39.045263,"lng":141.341772},{"code":"03209711108","name":"沖田字枇杷木","lat":39.047334,"lng":141.354328},{"code":"03209711201","name":"鳥海字清水","lat":39.048224,"lng":141.368561},{"code":"03209711209","name":"鳥海字小山","lat":39.050771,"lng":141.361653},{"code":"03209711210","name":"鳥海字古戸前","lat":39.052614,"lng":141.379597},{"code":"03209711211","name":"鳥海字西小森","lat":39.060214,"lng":141.357726},{"code":"03209711212","name":"鳥海字上野","lat":39.069032,"lng":141.345079},{"code":"03209711213","name":"鳥海字東丑石","lat":39.096794,"lng":141.359374},{"code":"03209711214","name":"鳥海字西丑石","lat":39.091762,"lng":141.335058},{"code":"03209711215","name":"鳥海字安原","lat":39.118687,"lng":141.325064},{"code":"03209711316","name":"中川字野田","lat":39.080114,"lng":141.405501},{"code":"03209711317","name":"中川字新城","lat":39.05928,"lng":141.407855},{"code":"03209711318","name":"中川字根岸","lat":39.126346,"lng":141.382625},{"code":"03209711319","name":"中川字篠ケ崎","lat":39.087695,"lng":141.384937},{"code":"03209711320","name":"中川字川ノ畑","lat":39.071567,"lng":141.381693},{"code":"03209711321","name":"中川字川又","lat":39.061743,"lng":141.372977},{"code":"03209712001","name":"猿沢字町方","lat":39.036842,"lng":141.296044},{"code":"03209712002","name":"猿沢字町方","lat":39.03816,"lng":141.279862},{"code":"03209712003","name":"猿沢字倉林","lat":39.045212,"lng":141.283954},{"code":"03209712004","name":"猿沢字宿通前","lat":39.057142,"lng":141.282606},{"code":"03209712005","name":"猿沢字大久保","lat":39.076463,"lng":141.278132},{"code":"03209712006","name":"猿沢字七ツ森","lat":39.064323,"lng":141.308118},{"code":"03209712007","name":"猿沢字地ノ神","lat":39.034947,"lng":141.31368},{"code":"03209712008","name":"猿沢字荒谷","lat":39.026478,"lng":141.319117},{"code":"03209712009","name":"猿沢字清水川","lat":39.019997,"lng":141.30487},{"code":"03209712010","name":"猿沢字清水田","lat":39.016943,"lng":141.28844},{"code":"03209712011","name":"猿沢字板倉","lat":39.029196,"lng":141.282478},{"code":"03209712012","name":"猿沢字板倉","lat":39.033728,"lng":141.296515},{"code":"03209712013","name":"猿沢字長洞","lat":39.045992,"lng":141.309342},{"code":"03209713101","name":"曽慶字角地","lat":38.995891,"lng":141.396462},{"code":"03209713102","name":"曽慶字大森","lat":38.986114,"lng":141.409533},{"code":"03209713103","name":"曽慶字小森","lat":38.978546,"lng":141.399142},{"code":"03209713104","name":"曽慶字柳森","lat":38.978778,"lng":141.386115},{"code":"03209713105","name":"曽慶字猫舘","lat":38.981998,"lng":141.368862},{"code":"03209713106","name":"曽慶字中居","lat":38.993044,"lng":141.368509},{"code":"03209713107","name":"曽慶字七洞","lat":39.001715,"lng":141.362518},{"code":"03209713113","name":"曽慶字後沢","lat":38.994516,"lng":141.384714},{"code":"03209713208","name":"渋民字雄水","lat":39.017644,"lng":141.358947},{"code":"03209713209","name":"渋民字佐野脇","lat":39.026029,"lng":141.353051},{"code":"03209713210","name":"渋民字小林","lat":39.017378,"lng":141.341771},{"code":"03209713211","name":"渋民字大洞地","lat":39.023979,"lng":141.330136},{"code":"03209713212","name":"渋民字石合","lat":39.015564,"lng":141.324232},{"code":"03209714001","name":"千厩字北方","lat":38.918844,"lng":141.320023},{"code":"03209714002","name":"千厩字町浦","lat":38.914754,"lng":141.330656},{"code":"03209714003","name":"千厩字北方","lat":38.92063,"lng":141.330585},{"code":"03209714004","name":"千厩字北方","lat":38.919752,"lng":141.334875},{"code":"03209714005","name":"千厩字前田","lat":38.918463,"lng":141.339377},{"code":"03209714006","name":"千厩字宮田","lat":38.923967,"lng":141.339444},{"code":"03209714007","name":"千厩字草井沢","lat":38.929517,"lng":141.346117},{"code":"03209714008","name":"千厩字鳥羽","lat":38.911865,"lng":141.35492},{"code":"03209714009","name":"千厩字梅田","lat":38.906778,"lng":141.327369},{"code":"03209715026","name":"磐清水字小峠","lat":38.955819,"lng":141.313887},{"code":"03209715027","name":"磐清水字境田","lat":38.94323,"lng":141.320426},{"code":"03209715028","name":"磐清水字蓬田","lat":38.928143,"lng":141.3103},{"code":"03209716018","name":"奥玉字登戸","lat":38.967524,"lng":141.421887},{"code":"03209716019","name":"奥玉字松原","lat":38.950165,"lng":141.409243},{"code":"03209716020","name":"奥玉字中日向","lat":38.962848,"lng":141.384914},{"code":"03209716021","name":"奥玉字長者","lat":38.949873,"lng":141.387408},{"code":"03209716022","name":"奥玉字土樋","lat":38.951805,"lng":141.371052},{"code":"03209716023","name":"奥玉字町下","lat":38.967253,"lng":141.364652},{"code":"03209716024","name":"奥玉字町下","lat":38.956916,"lng":141.349332},{"code":"03209716025","name":"奥玉字金山沢","lat":38.944005,"lng":141.359882},{"code":"03209717015","name":"清田字内野","lat":38.923279,"lng":141.395535},{"code":"03209717016","name":"清田字田畑","lat":38.937326,"lng":141.394645},{"code":"03209717017","name":"清田字鳥喰","lat":38.932127,"lng":141.365331},{"code":"03209718010","name":"小梨字中長者","lat":38.907214,"lng":141.376589},{"code":"03209718011","name":"小梨字浦ノ沢","lat":38.88601,"lng":141.38708},{"code":"03209718012","name":"小梨字不動","lat":38.876084,"lng":141.390389},{"code":"03209718013","name":"小梨字尖ノ森","lat":38.894227,"lng":141.392264},{"code":"03209718014","name":"小梨字新田","lat":38.90445,"lng":141.400301},{"code":"03209719001","name":"長坂字町","lat":38.986002,"lng":141.24884},{"code":"03209719002","name":"長坂字町","lat":38.992012,"lng":141.25291},{"code":"03209719003","name":"長坂字長平","lat":38.99529,"lng":141.23207},{"code":"03209719004","name":"長坂字西本町","lat":39.000397,"lng":141.254524},{"code":"03209719005","name":"長坂字北磐井里","lat":39.01014,"lng":141.269394},{"code":"03209719006","name":"長坂字平林","lat":39.017657,"lng":141.257333},{"code":"03209719007","name":"長坂字柴宿","lat":38.997389,"lng":141.275748},{"code":"03209719008","name":"長坂字里前","lat":38.98628,"lng":141.280532},{"code":"03209719009","name":"長坂字金山","lat":38.992241,"lng":141.294025},{"code":"03209719010","name":"長坂字木戸割","lat":38.971241,"lng":141.288476},{"code":"03209720001","name":"田河津字竹沢","lat":39.038799,"lng":141.224228},{"code":"03209720002","name":"田河津字夏山","lat":39.053465,"lng":141.246066},{"code":"03209720003","name":"田河津字横沢","lat":39.034945,"lng":141.257673},{"code":"03209720004","name":"田河津字高金","lat":39.011214,"lng":141.238135},{"code":"03209720005","name":"田河津字野土","lat":39.016889,"lng":141.22761},{"code":"03209720006","name":"田河津字小沼","lat":39.021303,"lng":141.196545},{"code":"03209720007","name":"田河津字大森","lat":39.019149,"lng":141.212358},{"code":"03209720008","name":"田河津字矢ノ森","lat":39.003008,"lng":141.210539},{"code":"03209721001","name":"松川字中通","lat":38.952885,"lng":141.274945},{"code":"03209721002","name":"松川字館","lat":38.945213,"lng":141.253773},{"code":"03209721003","name":"松川字岩ノ下","lat":38.950081,"lng":141.240403},{"code":"03209721004","name":"松川字三室","lat":38.964027,"lng":141.237444},{"code":"03209721005","name":"松川字滝ノ沢平","lat":38.980173,"lng":141.23509},{"code":"03209721006","name":"松川字野平","lat":38.974232,"lng":141.246175},{"code":"03209721007","name":"松川字卯入道平","lat":38.962648,"lng":141.257424},{"code":"03209721008","name":"松川字大久保","lat":38.975937,"lng":141.264192},{"code":"03209721009","name":"松川字一市町","lat":38.956594,"lng":141.256382},{"code":"03209721010","name":"松川字六日町","lat":38.95547,"lng":141.25464},{"code":"03209722001","name":"折壁字上前木","lat":38.907761,"lng":141.477138},{"code":"03209722002","name":"折壁字五反田","lat":38.930115,"lng":141.483293},{"code":"03209722003","name":"折壁字大洞","lat":38.914342,"lng":141.456132},{"code":"03209722004","name":"折壁字岩田","lat":38.926381,"lng":141.472192},{"code":"03209722005","name":"折壁字西風田茂木","lat":38.939898,"lng":141.468387},{"code":"03209722006","name":"折壁字田茂木","lat":38.96677,"lng":141.470618},{"code":"03209722007","name":"折壁字兵沢","lat":38.955722,"lng":141.451109},{"code":"03209722008","name":"折壁字絵図下","lat":38.938057,"lng":141.449843},{"code":"03209722009","name":"折壁字聖沢","lat":38.950566,"lng":141.436847},{"code":"03209722010","name":"折壁字月山下","lat":38.929293,"lng":141.443865},{"code":"03209723001","name":"矢越字七日市","lat":38.937432,"lng":141.419018},{"code":"03209723002","name":"矢越字二本木","lat":38.922737,"lng":141.423576},{"code":"03209723003","name":"矢越字境田","lat":38.905309,"lng":141.424569},{"code":"03209723004","name":"矢越字山口","lat":38.890511,"lng":141.447925},{"code":"03209723005","name":"矢越字宿","lat":38.889556,"lng":141.420125},{"code":"03209724001","name":"津谷川字有切","lat":38.871699,"lng":141.433426},{"code":"03209724002","name":"津谷川字竹野下","lat":38.862603,"lng":141.425983},{"code":"03209724003","name":"津谷川字向平","lat":38.848914,"lng":141.42758},{"code":"03209724004","name":"津谷川字古金生","lat":38.833384,"lng":141.422756},{"code":"03209724005","name":"津谷川字上千代ヶ原","lat":38.821252,"lng":141.437735},{"code":"032097250","name":"門崎","lat":38.927847,"lng":141.261122},{"code":"032097260","name":"薄衣","lat":38.8962,"lng":141.28792},{"code":"03209727001","name":"藤沢字西風","lat":38.861048,"lng":141.351667},{"code":"03209727002","name":"藤沢字大平","lat":38.865914,"lng":141.337656},{"code":"03209727003","name":"藤沢字梅ケ沢","lat":38.867509,"lng":141.34751},{"code":"03209727004","name":"藤沢字町裏","lat":38.858853,"lng":141.348857},{"code":"03209727005","name":"藤沢字新地","lat":38.856742,"lng":141.335413},{"code":"03209727009","name":"藤沢字馬場","lat":38.828053,"lng":141.335889},{"code":"03209727010","name":"藤沢字伏房","lat":38.830238,"lng":141.348143},{"code":"03209727011","name":"藤沢字黒木","lat":38.841116,"lng":141.356718},{"code":"03209727045","name":"藤沢字仁郷","lat":38.86594,"lng":141.348927},{"code":"03209728006","name":"西口字東立石","lat":38.875069,"lng":141.319816},{"code":"03209728007","name":"西口字切付","lat":38.867891,"lng":141.307246},{"code":"03209728008","name":"西口字玉川","lat":38.859534,"lng":141.317037},{"code":"03209729012","name":"黄海字深田和","lat":38.868043,"lng":141.286866},{"code":"03209729013","name":"黄海字上場","lat":38.855125,"lng":141.292818},{"code":"03209729014","name":"黄海字辻山","lat":38.857827,"lng":141.278603},{"code":"03209729015","name":"黄海字本沢","lat":38.848725,"lng":141.264932},{"code":"03209729016","name":"黄海字天堤","lat":38.850324,"lng":141.299747},{"code":"03209729017","name":"黄海字八景下","lat":38.83577,"lng":141.312033},{"code":"03209729018","name":"黄海字箕ノ輪","lat":38.836901,"lng":141.294243},{"code":"03209729019","name":"黄海字川口沖","lat":38.835539,"lng":141.274129},{"code":"03209729020","name":"黄海字小日形","lat":38.821246,"lng":141.265541},{"code":"03209729021","name":"黄海字上曲田","lat":38.801759,"lng":141.259805},{"code":"03209729022","name":"黄海字上中山","lat":38.809845,"lng":141.289463},{"code":"03209729023","name":"黄海字西深萱","lat":38.843201,"lng":141.322899},{"code":"03209730024","name":"徳田字野岡","lat":38.866154,"lng":141.357868},{"code":"03209730025","name":"徳田字名生城","lat":38.860752,"lng":141.366498},{"code":"03209730026","name":"徳田字馬場","lat":38.861806,"lng":141.378807},{"code":"03209730027","name":"徳田字馬場","lat":38.867243,"lng":141.386721},{"code":"03209730028","name":"徳田字唱石","lat":38.872887,"lng":141.370338},{"code":"03209731029","name":"砂子田字新田","lat":38.877962,"lng":141.36212},{"code":"03209731030","name":"砂子田字高田","lat":38.883275,"lng":141.358446},{"code":"03209731031","name":"砂子田字小沼田","lat":38.893489,"lng":141.355079},{"code":"03209732032","name":"増沢字立石","lat":38.895426,"lng":141.331931},{"code":"03209732033","name":"増沢字畑沢","lat":38.885531,"lng":141.327378},{"code":"03209732034","name":"増沢字日当","lat":38.888271,"lng":141.339309},{"code":"03209733024","name":"新沼字石合","lat":38.873961,"lng":141.355511},{"code":"03209733030","name":"新沼字西風","lat":38.882699,"lng":141.347101},{"code":"03209733034","name":"新沼字西風","lat":38.883395,"lng":141.343408},{"code":"03209733035","name":"新沼字大洞","lat":38.874796,"lng":141.342784},{"code":"03209734036","name":"保呂羽字口舟","lat":38.83684,"lng":141.370698},{"code":"03209734037","name":"保呂羽字宇道沢","lat":38.850891,"lng":141.370653},{"code":"03209734038","name":"保呂羽字二本柳","lat":38.84473,"lng":141.380206},{"code":"03209734039","name":"保呂羽字苅萱","lat":38.845509,"lng":141.395038},{"code":"03209735040","name":"大篭字千松","lat":38.796518,"lng":141.421487},{"code":"03209735041","name":"大篭字蜂ノ沢","lat":38.800202,"lng":141.405254},{"code":"03209735042","name":"大篭字中在","lat":38.809406,"lng":141.388122},{"code":"03209735043","name":"大篭字洞木","lat":38.820452,"lng":141.373364}]}
