{"municipality":"03301","name":"岩手郡雫石町","prefecture":"岩手県","source":{"dataset":"frogcat/japan-small-area","census":"平成27年国勢調査 小地域（e-Stat 統計LOD）","license":"MIT（リポジトリ）／政府統計の総合窓口(e-Stat)の利用規約（元データ・出典表記必要）","fetched":"2026-07-06"},"towns":[{"code":"03301001001","name":"雫石高前田","lat":39.696146,"lng":140.959802},{"code":"03301001002","name":"雫石高前田","lat":39.699274,"lng":140.960404},{"code":"03301001003","name":"雫石高前田","lat":39.6928,"lng":140.962434},{"code":"03301001004","name":"雫石八卦","lat":39.694519,"lng":140.967601},{"code":"03301001005","name":"雫石上町東","lat":39.698648,"lng":140.968115},{"code":"03301001006","name":"雫石源大堂","lat":39.692972,"lng":140.969285},{"code":"03301001007","name":"雫石万田渡","lat":39.697249,"lng":140.974176},{"code":"03301001008","name":"雫石町裏","lat":39.692552,"lng":140.973226},{"code":"03301001009","name":"雫石町裏","lat":39.696822,"lng":140.977145},{"code":"03301001010","name":"雫石下町西","lat":39.695081,"lng":140.981047},{"code":"03301001011","name":"雫石下町","lat":39.691256,"lng":140.976904},{"code":"03301001012","name":"雫石寺の下","lat":39.694873,"lng":140.985914},{"code":"03301001013","name":"雫石下町東","lat":39.689988,"lng":140.983722},{"code":"03301001014","name":"雫石源大堂","lat":39.685658,"lng":140.975585},{"code":"03301001015","name":"雫石下町東","lat":39.680367,"lng":140.989239},{"code":"03301001016","name":"雫石柿木","lat":39.702983,"lng":140.966012},{"code":"03301001017","name":"雫石下笹森","lat":39.703486,"lng":140.984268},{"code":"03301001018","name":"雫石中沼","lat":39.714934,"lng":140.990246},{"code":"03301001019","name":"雫石中黒沢川","lat":39.722438,"lng":140.984198},{"code":"03301001020","name":"雫石七ツ森","lat":39.710345,"lng":141.002913},{"code":"03301001021","name":"雫石板橋","lat":39.69827,"lng":141.010612},{"code":"03301001022","name":"雫石板橋","lat":39.702965,"lng":141.025195},{"code":"03301001023","name":"雫石丸谷地","lat":39.744863,"lng":141.006179},{"code":"03301001024","name":"雫石黒沢川","lat":39.690924,"lng":140.994692},{"code":"03301001025","name":"雫石七ツ森","lat":39.696854,"lng":141.013438},{"code":"03301001026","name":"雫石高前田","lat":39.705559,"lng":140.961335},{"code":"03301001027","name":"雫石中黒沢川","lat":39.734527,"lng":140.985761},{"code":"03301002001","name":"西安庭第１地割","lat":39.646687,"lng":140.940885},{"code":"03301002006","name":"西安庭第３８地割","lat":39.634248,"lng":140.973591},{"code":"03301002007","name":"西安庭第３６地割","lat":39.642278,"lng":140.95853},{"code":"03301002008","name":"西安庭第５地割","lat":39.6508,"lng":140.929044},{"code":"03301002009","name":"西安庭第３１地割","lat":39.654033,"lng":140.965989},{"code":"03301002010","name":"西安庭第２６地割","lat":39.617908,"lng":140.979631},{"code":"03301002011","name":"西安庭第１５地割","lat":39.672572,"lng":140.983513},{"code":"03301002012","name":"西安庭第９地割","lat":39.672386,"lng":140.966221},{"code":"03301002013","name":"西安庭第２５地割","lat":39.658256,"lng":140.998758},{"code":"03301002014","name":"西安庭第４４地割","lat":39.624163,"lng":140.992325},{"code":"03301002015","name":"西安庭第４７地割","lat":39.61263,"lng":141.024132},{"code":"03301003001","name":"南畑第３２地割","lat":39.636747,"lng":140.939281},{"code":"03301003002","name":"南畑第２地割","lat":39.560272,"lng":140.900985},{"code":"03301003003","name":"南畑第７地割","lat":39.572301,"lng":140.941729},{"code":"03301003004","name":"南畑第１０地割","lat":39.603657,"lng":140.930574},{"code":"03301003005","name":"南畑第２０地割","lat":39.614866,"lng":140.946343},{"code":"03301003006","name":"南畑第２６地割","lat":39.607842,"lng":140.964199},{"code":"03301003007","name":"南畑第３２地割","lat":39.645413,"lng":140.946665},{"code":"033010040","name":"鴬宿","lat":39.613133,"lng":140.885844},{"code":"03301005001","name":"橋場龍川山国有林","lat":39.735774,"lng":140.839298},{"code":"03301005002","name":"橋場安栖","lat":39.705692,"lng":140.889385},{"code":"03301006013","name":"上野新里","lat":39.694456,"lng":140.945509},{"code":"03301006014","name":"上野上野沢","lat":39.692627,"lng":140.936995},{"code":"03301006015","name":"上野沢口","lat":39.698172,"lng":140.928383},{"code":"03301006016","name":"上野上和野","lat":39.708296,"lng":140.92718},{"code":"03301006017","name":"上野松嶺","lat":39.725823,"lng":140.90358},{"code":"03301006018","name":"上野横欠","lat":39.723248,"lng":140.92759},{"code":"03301006019","name":"上野土橋","lat":39.704636,"lng":140.940694},{"code":"03301006020","name":"上野岩持","lat":39.704274,"lng":140.947352},{"code":"03301006021","name":"上野岩持","lat":39.699964,"lng":140.948903},{"code":"03301006022","name":"上野下川原","lat":39.693647,"lng":140.952585},{"code":"03301006023","name":"上野間取沢","lat":39.710672,"lng":140.94217},{"code":"03301007003","name":"御明神小赤沢","lat":39.687337,"lng":140.868745},{"code":"03301007004","name":"御明神山津田","lat":39.726367,"lng":140.890959},{"code":"03301007005","name":"御明神滝沢","lat":39.643372,"lng":140.843354},{"code":"03301007006","name":"御明神南野","lat":39.680703,"lng":140.925335},{"code":"03301007007","name":"御明神一本木平","lat":39.675026,"lng":140.917179},{"code":"03301007008","name":"御明神天川","lat":39.657568,"lng":140.907291},{"code":"03301007009","name":"御明神高八卦","lat":39.685715,"lng":140.939197},{"code":"03301007010","name":"御明神干泥","lat":39.688315,"lng":140.946358},{"code":"03301007011","name":"御明神上黒沢","lat":39.683162,"lng":140.956453},{"code":"03301007012","name":"御明神籬野","lat":39.674335,"lng":140.954651},{"code":"03301007017","name":"御明神山津田","lat":39.704459,"lng":140.90465},{"code":"03301008001","name":"長山盆花平","lat":39.814668,"lng":140.980238},{"code":"03301008002","name":"長山極楽野","lat":39.782049,"lng":140.988272},{"code":"03301008003","name":"長山篠ケ森","lat":39.777583,"lng":140.958218},{"code":"03301008004","name":"長山堀切野","lat":39.751233,"lng":140.966917},{"code":"03301008005","name":"長山林ノ沢","lat":39.746194,"lng":140.9788},{"code":"03301008006","name":"長山梍","lat":39.734068,"lng":140.97207},{"code":"03301008007","name":"長山猿子","lat":39.727738,"lng":140.970737},{"code":"03301008008","name":"長山栗木","lat":39.719046,"lng":140.96858},{"code":"03301008009","name":"長山松木","lat":39.710051,"lng":140.961726},{"code":"03301008017","name":"長山岩手山","lat":39.828521,"lng":140.952459},{"code":"03301008018","name":"長山東葛根田国有林","lat":39.847099,"lng":140.867249},{"code":"03301008019","name":"長山林崎","lat":39.706929,"lng":140.96735},{"code":"03301008020","name":"長山赤坂","lat":39.703895,"lng":140.976325},{"code":"03301008021","name":"長山高前田","lat":39.696835,"lng":140.957202},{"code":"03301008022","name":"長山高前田","lat":39.700027,"lng":140.957447},{"code":"03301008023","name":"長山高前田","lat":39.69819,"lng":140.957046},{"code":"03301009010","name":"西根清水端","lat":39.763367,"lng":140.904986},{"code":"03301009011","name":"西根八丁野","lat":39.740492,"lng":140.923022},{"code":"03301009012","name":"西根上葛根田","lat":39.731487,"lng":140.937625},{"code":"03301009013","name":"西根上駒木野","lat":39.753214,"lng":140.955418},{"code":"03301009014","name":"西根東駒木野","lat":39.737314,"lng":140.955105},{"code":"03301009015","name":"西根下駒木野","lat":39.720358,"lng":140.949192},{"code":"03301009016","name":"西根上篠崎","lat":39.78877,"lng":140.914762},{"code":"03301009018","name":"西根高倉山国有林","lat":39.826887,"lng":140.831235},{"code":"03301010016","name":"繋第５地割","lat":39.681321,"lng":141.004723},{"code":"03301010017","name":"繋第５地割","lat":39.687378,"lng":140.998206}]}
