{"municipality":"03461","name":"上閉伊郡大槌町","prefecture":"岩手県","source":{"dataset":"frogcat/japan-small-area","census":"平成27年国勢調査 小地域（e-Stat 統計LOD）","license":"MIT（リポジトリ）／政府統計の総合窓口(e-Stat)の利用規約（元データ・出典表記必要）","fetched":"2026-07-06"},"towns":[{"code":"03461001101","name":"大ヶ口１丁目","lat":39.370318,"lng":141.889868},{"code":"03461001102","name":"大ヶ口２丁目","lat":39.374514,"lng":141.885985},{"code":"034610012","name":"大槌","lat":39.39687,"lng":141.872146},{"code":"034610020","name":"末広町","lat":39.361236,"lng":141.903018},{"code":"034610030","name":"新町","lat":39.361767,"lng":141.906208},{"code":"03461004001","name":"安渡１丁目","lat":39.36095,"lng":141.911193},{"code":"03461004002","name":"安渡２丁目","lat":39.359888,"lng":141.916859},{"code":"03461004003","name":"安渡３丁目","lat":39.356615,"lng":141.921399},{"code":"034610050","name":"新港町","lat":39.358139,"lng":141.912878},{"code":"034610060","name":"港町","lat":39.355814,"lng":141.915447},{"code":"03461007001","name":"赤浜１丁目","lat":39.353971,"lng":141.928917},{"code":"03461007002","name":"赤浜２丁目","lat":39.354598,"lng":141.934348},{"code":"03461007003","name":"赤浜３丁目","lat":39.351002,"lng":141.938058},{"code":"034610080","name":"大町","lat":39.35882,"lng":141.906941},{"code":"034610090","name":"須賀町","lat":39.356251,"lng":141.906961},{"code":"034610100","name":"小鎚","lat":39.381481,"lng":141.823033},{"code":"034610110","name":"上町","lat":39.3589,"lng":141.897044},{"code":"034610120","name":"本町","lat":39.358148,"lng":141.901924},{"code":"034610130","name":"栄町","lat":39.35487,"lng":141.900629},{"code":"034610140","name":"桜木町","lat":39.358885,"lng":141.88795},{"code":"034610150","name":"金沢","lat":39.459364,"lng":141.771704},{"code":"03461017101","name":"吉里吉里１丁目","lat":39.368289,"lng":141.941648},{"code":"03461017102","name":"吉里吉里２丁目","lat":39.368891,"lng":141.938771},{"code":"03461017103","name":"吉里吉里３丁目","lat":39.367273,"lng":141.952712},{"code":"03461017104","name":"吉里吉里４丁目","lat":39.3723,"lng":141.935241},{"code":"03461017201","name":"吉里吉里第８地割","lat":39.39076,"lng":141.926599},{"code":"03461017202","name":"吉里吉里","lat":39.358404,"lng":141.938762},{"code":"03461017203","name":"吉里吉里第３２地割","lat":39.371962,"lng":141.955101},{"code":"03461017204","name":"吉里吉里第１地割","lat":39.369962,"lng":141.927152}]}
