{"municipality":"04103","name":"仙台市若林区","prefecture":"宮城県","source":{"dataset":"frogcat/japan-small-area","census":"平成27年国勢調査 小地域（e-Stat 統計LOD）","license":"MIT（リポジトリ）／政府統計の総合窓口(e-Stat)の利用規約（元データ・出典表記必要）","fetched":"2026-07-06"},"towns":[{"code":"041030010","name":"荒井","lat":38.233495,"lng":140.95419},{"code":"041030020","name":"荒浜","lat":38.222403,"lng":140.97731},{"code":"04103003001","name":"荒浜新１丁目","lat":38.220365,"lng":140.978086},{"code":"04103003002","name":"荒浜新２丁目","lat":38.216699,"lng":140.975285},{"code":"041030040","name":"荒町","lat":38.248817,"lng":140.884193},{"code":"041030050","name":"飯田","lat":38.21796,"lng":140.929689},{"code":"041030070","name":"石垣町","lat":38.247196,"lng":140.885655},{"code":"041030080","name":"石名坂","lat":38.244363,"lng":140.885927},{"code":"041030090","name":"五橋","lat":38.253541,"lng":140.883242},{"code":"041030100","name":"一本杉町","lat":38.244632,"lng":140.905458},{"code":"041030110","name":"井土","lat":38.202,"lng":140.966873},{"code":"041030120","name":"今泉","lat":38.204051,"lng":140.933032},{"code":"041030130","name":"裏柴田町","lat":38.249616,"lng":140.895011},{"code":"041030140","name":"沖野","lat":38.224435,"lng":140.926398},{"code":"04103015001","name":"沖野１丁目","lat":38.232547,"lng":140.912168},{"code":"04103015002","name":"沖野２丁目","lat":38.230062,"lng":140.912006},{"code":"04103015003","name":"沖野３丁目","lat":38.226624,"lng":140.91179},{"code":"04103015004","name":"沖野４丁目","lat":38.223269,"lng":140.909226},{"code":"04103015005","name":"沖野５丁目","lat":38.223647,"lng":140.911374},{"code":"04103015006","name":"沖野６丁目","lat":38.223672,"lng":140.917473},{"code":"04103015007","name":"沖野７丁目","lat":38.227504,"lng":140.91966},{"code":"041030160","name":"表柴田町","lat":38.248467,"lng":140.894722},{"code":"04103017001","name":"卸町東１丁目","lat":38.258423,"lng":140.939861},{"code":"04103017002","name":"卸町東２丁目","lat":38.258441,"lng":140.946339},{"code":"04103017003","name":"卸町東３丁目","lat":38.255506,"lng":140.942638},{"code":"04103017004","name":"卸町東４丁目","lat":38.255503,"lng":140.949509},{"code":"04103017005","name":"卸町東５丁目","lat":38.253526,"lng":140.955261},{"code":"04103018001","name":"卸町１丁目","lat":38.254212,"lng":140.919475},{"code":"04103018002","name":"卸町２丁目","lat":38.254076,"lng":140.923908},{"code":"04103018003","name":"卸町３丁目","lat":38.259017,"lng":140.92388},{"code":"04103018004","name":"卸町４丁目","lat":38.259086,"lng":140.93205},{"code":"04103018005","name":"卸町５丁目","lat":38.254772,"lng":140.930087},{"code":"04103019000","name":"霞目字谷風","lat":38.231713,"lng":140.932258},{"code":"04103019001","name":"霞目１丁目","lat":38.234642,"lng":140.921084},{"code":"04103019002","name":"霞目２丁目","lat":38.234904,"lng":140.929233},{"code":"041030201","name":"蒲町","lat":38.245046,"lng":140.927114},{"code":"041030202","name":"蒲町","lat":38.242057,"lng":140.930321},{"code":"041030210","name":"上飯田","lat":38.219039,"lng":140.923668},{"code":"04103022001","name":"河原町１丁目","lat":38.238985,"lng":140.888553},{"code":"04103022002","name":"河原町２丁目","lat":38.237578,"lng":140.891821},{"code":"04103023001","name":"木ノ下１丁目","lat":38.251444,"lng":140.898231},{"code":"04103023002","name":"木ノ下２丁目","lat":38.251534,"lng":140.901207},{"code":"04103023003","name":"木ノ下３丁目","lat":38.251566,"lng":140.904306},{"code":"04103023004","name":"木ノ下４丁目","lat":38.249114,"lng":140.899775},{"code":"04103023005","name":"木ノ下５丁目","lat":38.248693,"lng":140.904223},{"code":"041030240","name":"穀町","lat":38.245179,"lng":140.889118},{"code":"041030250","name":"椌木通","lat":38.248195,"lng":140.899449},{"code":"041030260","name":"五十人町","lat":38.245572,"lng":140.89433},{"code":"041030270","name":"三百人町","lat":38.24655,"lng":140.894721},{"code":"041030280","name":"三本塚","lat":38.211858,"lng":140.954081},{"code":"041030290","name":"清水小路","lat":38.25122,"lng":140.881871},{"code":"041030300","name":"下飯田","lat":38.218789,"lng":140.940097},{"code":"041030310","name":"白萩町","lat":38.250901,"lng":140.908183},{"code":"041030320","name":"志波町","lat":38.250471,"lng":140.912395},{"code":"04103033001","name":"新寺１丁目","lat":38.255801,"lng":140.88413},{"code":"04103033002","name":"新寺２丁目","lat":38.256526,"lng":140.888399},{"code":"04103033003","name":"新寺３丁目","lat":38.254924,"lng":140.888039},{"code":"04103033004","name":"新寺４丁目","lat":38.254498,"lng":140.892593},{"code":"04103033005","name":"新寺５丁目","lat":38.255982,"lng":140.893783},{"code":"041030340","name":"新弓ノ町","lat":38.240992,"lng":140.890891},{"code":"041030350","name":"畳屋丁","lat":38.245012,"lng":140.890991},{"code":"041030360","name":"種次","lat":38.193197,"lng":140.946425},{"code":"041030370","name":"長喜城","lat":38.237415,"lng":140.937541},{"code":"041030380","name":"土樋","lat":38.24609,"lng":140.883396},{"code":"041030390","name":"土樋","lat":38.2471,"lng":140.880687},{"code":"041030400","name":"鶴代町","lat":38.258136,"lng":140.953511},{"code":"041030410","name":"遠見塚東","lat":38.237214,"lng":140.915308},{"code":"04103042001","name":"遠見塚１丁目","lat":38.237733,"lng":140.910644},{"code":"04103042002","name":"遠見塚２丁目","lat":38.240832,"lng":140.912458},{"code":"04103042003","name":"遠見塚３丁目","lat":38.242245,"lng":140.918099},{"code":"041030430","name":"堰場","lat":38.242057,"lng":140.885628},{"code":"04103044001","name":"中倉１丁目","lat":38.244553,"lng":140.911183},{"code":"04103044002","name":"中倉２丁目","lat":38.24457,"lng":140.916286},{"code":"04103044003","name":"中倉３丁目","lat":38.245925,"lng":140.921221},{"code":"041030450","name":"成田町","lat":38.247567,"lng":140.894626},{"code":"041030460","name":"二軒茶屋","lat":38.253198,"lng":140.895712},{"code":"041030470","name":"西新丁","lat":38.247663,"lng":140.899382},{"code":"041030480","name":"日辺","lat":38.208864,"lng":140.916938},{"code":"041030490","name":"八軒小路","lat":38.242616,"lng":140.891495},{"code":"041030500","name":"東新丁","lat":38.247828,"lng":140.902083},{"code":"041030510","name":"東七番丁","lat":38.251091,"lng":140.883067},{"code":"041030520","name":"東八番丁","lat":38.250681,"lng":140.884251},{"code":"041030530","name":"東九番丁","lat":38.250727,"lng":140.88557},{"code":"041030540","name":"藤塚","lat":38.184507,"lng":140.957739},{"code":"041030550","name":"二木","lat":38.201891,"lng":140.950653},{"code":"041030560","name":"舟丁","lat":38.242904,"lng":140.887607},{"code":"04103057001","name":"古城１丁目","lat":38.237966,"lng":140.895739},{"code":"04103057002","name":"古城２丁目","lat":38.236831,"lng":140.9008},{"code":"04103057003","name":"古城３丁目","lat":38.234441,"lng":140.907075},{"code":"041030580","name":"文化町","lat":38.241662,"lng":140.896055},{"code":"041030590","name":"保春院前丁","lat":38.245462,"lng":140.900264},{"code":"041030600","name":"南石切町","lat":38.242255,"lng":140.890002},{"code":"041030610","name":"南鍛冶町","lat":38.248137,"lng":140.888777},{"code":"04103062001","name":"南小泉字八軒小路","lat":38.241329,"lng":140.892835},{"code":"04103062002","name":"南小泉字梅木","lat":38.239769,"lng":140.928628},{"code":"04103063001","name":"南小泉１丁目","lat":38.24229,"lng":140.901098},{"code":"04103063002","name":"南小泉２丁目","lat":38.241437,"lng":140.905656},{"code":"04103063003","name":"南小泉３丁目","lat":38.239617,"lng":140.899821},{"code":"04103063004","name":"南小泉４丁目","lat":38.238773,"lng":140.905137},{"code":"041030640","name":"南材木町","lat":38.242196,"lng":140.889001},{"code":"041030650","name":"南染師町","lat":38.24378,"lng":140.892862},{"code":"041030660","name":"元茶畑","lat":38.249898,"lng":140.891673},{"code":"04103067001","name":"大和町１丁目","lat":38.247722,"lng":140.906987},{"code":"04103067002","name":"大和町２丁目","lat":38.247426,"lng":140.913008},{"code":"04103067003","name":"大和町３丁目","lat":38.247471,"lng":140.918146},{"code":"04103067004","name":"大和町４丁目","lat":38.250158,"lng":140.917452},{"code":"04103067005","name":"大和町５丁目","lat":38.249491,"lng":140.923859},{"code":"041030680","name":"弓ノ町","lat":38.246786,"lng":140.887337},{"code":"041030690","name":"連坊小路","lat":38.251143,"lng":140.888786},{"code":"04103070001","name":"連坊１丁目","lat":38.252934,"lng":140.887743},{"code":"04103070002","name":"連坊２丁目","lat":38.252262,"lng":140.892882},{"code":"041030710","name":"六十人町","lat":38.244311,"lng":140.895766},{"code":"041030720","name":"六丁の目","lat":38.248992,"lng":140.958804},{"code":"041030730","name":"六丁の目北町","lat":38.25229,"lng":140.949183},{"code":"041030740","name":"六丁の目中町","lat":38.252402,"lng":140.94112},{"code":"041030750","name":"六丁の目西町","lat":38.253758,"lng":140.934705},{"code":"041030760","name":"六丁の目東町","lat":38.249723,"lng":140.950379},{"code":"041030770","name":"六丁の目南町","lat":38.249798,"lng":140.940046},{"code":"04103078001","name":"若林１丁目","lat":38.234816,"lng":140.895257},{"code":"04103078002","name":"若林２丁目","lat":38.231698,"lng":140.89542},{"code":"04103078003","name":"若林３丁目","lat":38.233329,"lng":140.900821},{"code":"04103078004","name":"若林４丁目","lat":38.228382,"lng":140.900698},{"code":"04103078005","name":"若林５丁目","lat":38.23087,"lng":140.904191},{"code":"04103078006","name":"若林６丁目","lat":38.22844,"lng":140.90665},{"code":"04103078007","name":"若林７丁目","lat":38.225604,"lng":140.905331},{"code":"041030790","name":"かすみ町","lat":38.241342,"lng":140.922714},{"code":"041030800","name":"六丁の目元町","lat":38.249418,"lng":140.929936},{"code":"04103081001","name":"今泉１丁目","lat":38.21435,"lng":140.928842},{"code":"04103081002","name":"今泉２丁目","lat":38.211104,"lng":140.927473},{"code":"04103082001","name":"上飯田１丁目","lat":38.221069,"lng":140.915778},{"code":"04103082002","name":"上飯田２丁目","lat":38.217917,"lng":140.916323},{"code":"04103082003","name":"上飯田３丁目","lat":38.214589,"lng":140.922638},{"code":"04103082004","name":"上飯田４丁目","lat":38.216862,"lng":140.927353},{"code":"041030830","name":"六郷","lat":38.215242,"lng":140.933244},{"code":"041030840","name":"伊在","lat":38.24388,"lng":140.940483}]}
