{"municipality":"05207","name":"湯沢市","prefecture":"秋田県","source":{"dataset":"frogcat/japan-small-area","census":"平成27年国勢調査 小地域（e-Stat 統計LOD）","license":"MIT（リポジトリ）／政府統計の総合窓口(e-Stat)の利用規約（元データ・出典表記必要）","fetched":"2026-07-06"},"towns":[{"code":"052070010","name":"大工町","lat":39.168675,"lng":140.49579},{"code":"05207002001","name":"湯ノ原１丁目","lat":39.165582,"lng":140.498788},{"code":"05207002002","name":"湯ノ原２丁目","lat":39.167312,"lng":140.499685},{"code":"052070030","name":"佐竹町","lat":39.164546,"lng":140.495449},{"code":"05207004001","name":"裏門１丁目","lat":39.161417,"lng":140.506696},{"code":"05207004002","name":"裏門２丁目","lat":39.162997,"lng":140.507353},{"code":"05207004003","name":"裏門３丁目","lat":39.163516,"lng":140.509029},{"code":"052070050","name":"字赤土","lat":39.168152,"lng":140.506012},{"code":"052070060","name":"岩崎","lat":39.199664,"lng":140.504465},{"code":"052070070","name":"成沢","lat":39.190996,"lng":140.506794},{"code":"052070080","name":"杉沢","lat":39.177098,"lng":140.515573},{"code":"052070090","name":"杉沢新所","lat":39.180412,"lng":140.495427},{"code":"052070100","name":"字山谷","lat":39.152816,"lng":140.524371},{"code":"05207011001","name":"表町１丁目","lat":39.164367,"lng":140.489979},{"code":"05207011002","name":"表町２丁目","lat":39.164113,"lng":140.487827},{"code":"05207011003","name":"表町３丁目","lat":39.167562,"lng":140.490522},{"code":"05207011004","name":"表町４丁目","lat":39.167803,"lng":140.488681},{"code":"05207012001","name":"柳町１丁目","lat":39.165258,"lng":140.49273},{"code":"05207012002","name":"柳町２丁目","lat":39.165522,"lng":140.491511},{"code":"052070130","name":"北荒町","lat":39.165781,"lng":140.493889},{"code":"05207014001","name":"大町１丁目","lat":39.162324,"lng":140.492463},{"code":"05207014002","name":"大町２丁目","lat":39.162602,"lng":140.491559},{"code":"052070150","name":"西新町","lat":39.163465,"lng":140.48541},{"code":"05207016001","name":"材木町１丁目","lat":39.162124,"lng":140.490095},{"code":"05207016002","name":"材木町２丁目","lat":39.161012,"lng":140.488106},{"code":"052070170","name":"字内舘町","lat":39.160701,"lng":140.500589},{"code":"052070180","name":"古館町","lat":39.171781,"lng":140.490038},{"code":"05207019001","name":"前森１丁目","lat":39.167911,"lng":140.493499},{"code":"05207019002","name":"前森２丁目","lat":39.16817,"lng":140.492094},{"code":"05207019003","name":"前森３丁目","lat":39.171164,"lng":140.491998},{"code":"05207019004","name":"前森４丁目","lat":39.17188,"lng":140.494695},{"code":"052070200","name":"桜通り","lat":39.174067,"lng":140.497233},{"code":"05207021001","name":"田町１丁目","lat":39.159065,"lng":140.492469},{"code":"05207021002","name":"田町２丁目","lat":39.158817,"lng":140.490648},{"code":"05207022001","name":"千石町１丁目","lat":39.158015,"lng":140.488005},{"code":"05207022002","name":"千石町２丁目","lat":39.155567,"lng":140.484005},{"code":"05207022003","name":"千石町３丁目","lat":39.152623,"lng":140.483927},{"code":"05207022004","name":"千石町４丁目","lat":39.155346,"lng":140.489921},{"code":"052070230","name":"御囲地町","lat":39.154937,"lng":140.491148},{"code":"05207024001","name":"吹張１丁目","lat":39.155055,"lng":140.492599},{"code":"05207024002","name":"吹張２丁目","lat":39.154766,"lng":140.491969},{"code":"052070250","name":"内町","lat":39.15694,"lng":140.500966},{"code":"052070260","name":"字荒町","lat":39.154727,"lng":140.498939},{"code":"052070270","name":"字両神","lat":39.171883,"lng":140.478594},{"code":"05207028101","name":"元清水１丁目","lat":39.16829,"lng":140.485928},{"code":"05207028102","name":"元清水２丁目","lat":39.169173,"lng":140.483321},{"code":"05207028103","name":"元清水３丁目","lat":39.169835,"lng":140.486331},{"code":"05207028104","name":"元清水４丁目","lat":39.170753,"lng":140.483543},{"code":"052070282","name":"字元清水","lat":39.170697,"lng":140.481822},{"code":"05207029001","name":"清水町１丁目","lat":39.16561,"lng":140.484981},{"code":"05207029002","name":"清水町２丁目","lat":39.167128,"lng":140.484164},{"code":"05207029003","name":"清水町３丁目","lat":39.167922,"lng":140.480497},{"code":"05207029004","name":"清水町４丁目","lat":39.165538,"lng":140.480425},{"code":"05207029005","name":"清水町５丁目","lat":39.165633,"lng":140.476761},{"code":"05207029006","name":"清水町６丁目","lat":39.168321,"lng":140.476473},{"code":"052070300","name":"字中野","lat":39.160193,"lng":140.483823},{"code":"052070310","name":"幸町","lat":39.162915,"lng":140.48381},{"code":"052070320","name":"岡田町","lat":39.161212,"lng":140.480191},{"code":"052070330","name":"字小豆田","lat":39.159623,"lng":140.484864},{"code":"052070340","name":"柳田","lat":39.186635,"lng":140.458173},{"code":"052070350","name":"倉内","lat":39.180062,"lng":140.470993},{"code":"052070360","name":"字大島町","lat":39.176395,"lng":140.484354},{"code":"052070370","name":"森","lat":39.190258,"lng":140.476196},{"code":"052070380","name":"角間","lat":39.212121,"lng":140.4684},{"code":"052070390","name":"二井田","lat":39.20309,"lng":140.481773},{"code":"052070400","name":"八幡","lat":39.203529,"lng":140.455483},{"code":"052070410","name":"金谷","lat":39.193019,"lng":140.462109},{"code":"052070420","name":"字新町","lat":39.15245,"lng":140.496159},{"code":"05207043001","name":"愛宕町１丁目","lat":39.15012,"lng":140.493206},{"code":"05207043002","name":"愛宕町２丁目","lat":39.15175,"lng":140.491113},{"code":"05207043003","name":"愛宕町３丁目","lat":39.150165,"lng":140.489551},{"code":"05207043004","name":"愛宕町４丁目","lat":39.146549,"lng":140.492941},{"code":"05207043005","name":"愛宕町５丁目","lat":39.146675,"lng":140.490219},{"code":"052070440","name":"関口","lat":39.134368,"lng":140.505384},{"code":"052070450","name":"下関","lat":39.124646,"lng":140.489599},{"code":"052070460","name":"上関","lat":39.111163,"lng":140.515046},{"code":"052070470","name":"酒蒔","lat":39.110236,"lng":140.468016},{"code":"052070480","name":"相川","lat":39.088125,"lng":140.499473},{"code":"052070490","name":"宇留院内","lat":39.085425,"lng":140.533419},{"code":"052070500","name":"高松","lat":39.022447,"lng":140.56734},{"code":"052070510","name":"深堀","lat":39.167394,"lng":140.462852},{"code":"052070520","name":"山田","lat":39.140608,"lng":140.463488},{"code":"052070530","name":"石塚","lat":39.116837,"lng":140.441873},{"code":"052070540","name":"松岡","lat":39.13778,"lng":140.426714},{"code":"052070550","name":"字東松沢","lat":39.150042,"lng":140.501825},{"code":"052070560","name":"西愛宕町","lat":39.148999,"lng":140.487561},{"code":"052070570","name":"若葉町","lat":39.146272,"lng":140.487487},{"code":"052070580","name":"南台","lat":39.143489,"lng":140.487828},{"code":"05207059001","name":"駒形町字三又明戸","lat":39.184647,"lng":140.548767},{"code":"05207059002","name":"駒形町字三又高村","lat":39.185822,"lng":140.556162},{"code":"05207059003","name":"駒形町字三又","lat":39.178784,"lng":140.560437},{"code":"052070600","name":"駒形町","lat":39.18622,"lng":140.569473},{"code":"05207061001","name":"駒形町字東福寺松沢山","lat":39.157086,"lng":140.597465},{"code":"05207061002","name":"駒形町字東福寺大沢","lat":39.173886,"lng":140.577029},{"code":"05207061003","name":"駒形町字東福寺張山","lat":39.175111,"lng":140.569626},{"code":"052070620","name":"駒形町","lat":39.176582,"lng":140.55197},{"code":"05207063001","name":"駒形町字八面八面深沢","lat":39.16787,"lng":140.544842},{"code":"05207063002","name":"駒形町字八面西川連","lat":39.163336,"lng":140.555673},{"code":"05207063003","name":"駒形町字八面袖沢","lat":39.164114,"lng":140.560311},{"code":"05207063004","name":"駒形町字八面狐塚","lat":39.170664,"lng":140.555653},{"code":"05207063005","name":"駒形町字八面村尻","lat":39.170965,"lng":140.564633},{"code":"05207063006","name":"駒形町字八面","lat":39.164505,"lng":140.566739},{"code":"05207063007","name":"駒形町字八面佐野","lat":39.167627,"lng":140.577279},{"code":"05207063008","name":"駒形町字八面仙道","lat":39.162417,"lng":140.577127},{"code":"05207064001","name":"川連町字上野","lat":39.158963,"lng":140.578972},{"code":"05207064002","name":"川連町字川連","lat":39.154576,"lng":140.578432},{"code":"05207064003","name":"川連町字中久保","lat":39.155894,"lng":140.551754},{"code":"05207064004","name":"川連町字久保","lat":39.154379,"lng":140.561617},{"code":"05207064005","name":"川連町字野村","lat":39.155896,"lng":140.567501},{"code":"05207065001","name":"川連町字麓","lat":39.148674,"lng":140.583204},{"code":"05207065002","name":"川連町字大館下村","lat":39.147531,"lng":140.566427},{"code":"052070660","name":"三梨町","lat":39.147701,"lng":140.550652},{"code":"05207067001","name":"三梨町字下宿","lat":39.144136,"lng":140.580663},{"code":"05207067002","name":"三梨町字御嶽堂","lat":39.138597,"lng":140.581127},{"code":"05207067003","name":"三梨町字清水小屋","lat":39.137371,"lng":140.567467},{"code":"05207067004","name":"三梨町字菻田","lat":39.130372,"lng":140.579708},{"code":"05207067005","name":"三梨町字樽木","lat":39.124911,"lng":140.569279},{"code":"05207067006","name":"三梨町字古三梨","lat":39.141047,"lng":140.567933},{"code":"05207067007","name":"川連町字大館中野","lat":39.143804,"lng":140.567534},{"code":"05207067008","name":"三梨町字羽龍","lat":39.138046,"lng":140.559648},{"code":"05207067009","name":"三梨町字羽龍","lat":39.136118,"lng":140.552196},{"code":"05207067010","name":"三梨町字京政","lat":39.124278,"lng":140.559345},{"code":"05207067011","name":"三梨町字上久保","lat":39.120335,"lng":140.563446},{"code":"052070680","name":"三梨町","lat":39.129613,"lng":140.559388},{"code":"05207069001","name":"稲庭町字下川原","lat":39.114485,"lng":140.567359},{"code":"05207069002","name":"稲庭町字岩城","lat":39.108323,"lng":140.571389},{"code":"05207069003","name":"稲庭町字鍛冶屋布","lat":39.119188,"lng":140.579692},{"code":"05207069004","name":"稲庭町字沢口台","lat":39.113939,"lng":140.584666},{"code":"05207069005","name":"稲庭町字大森沢","lat":39.104379,"lng":140.579152},{"code":"05207069006","name":"稲庭町字稲庭","lat":39.098825,"lng":140.583656},{"code":"05207069007","name":"稲庭町字新処","lat":39.09153,"lng":140.581121},{"code":"05207069008","name":"稲庭町字小沢","lat":39.085473,"lng":140.592148},{"code":"05207069009","name":"稲庭町字大谷","lat":39.081478,"lng":140.59267},{"code":"05207069010","name":"稲庭町字大森山","lat":39.095527,"lng":140.60517},{"code":"052070700","name":"雌長子内","lat":39.126461,"lng":140.54724},{"code":"052070710","name":"下院内","lat":39.059654,"lng":140.428791},{"code":"052070720","name":"下院内","lat":39.052436,"lng":140.387092},{"code":"052070730","name":"横堀","lat":39.053392,"lng":140.453664},{"code":"052070740","name":"寺沢","lat":39.032884,"lng":140.466508},{"code":"052070750","name":"秋ノ宮","lat":38.9566,"lng":140.518523},{"code":"052070760","name":"小野","lat":39.062175,"lng":140.461278},{"code":"052070770","name":"桑崎","lat":39.052399,"lng":140.488923},{"code":"052070780","name":"小野","lat":39.086711,"lng":140.449432},{"code":"052070790","name":"皆瀬","lat":39.051881,"lng":140.603645},{"code":"052070800","name":"皆瀬","lat":38.988759,"lng":140.663656},{"code":"052070810","name":"字中川原","lat":39.160876,"lng":140.477283}]}
