{"municipality":"06203","name":"鶴岡市","prefecture":"山形県","source":{"dataset":"frogcat/japan-small-area","census":"平成27年国勢調査 小地域（e-Stat 統計LOD）","license":"MIT（リポジトリ）／政府統計の総合窓口(e-Stat)の利用規約（元データ・出典表記必要）","fetched":"2026-07-06"},"towns":[{"code":"06203001001","name":"本町１丁目","lat":38.727438,"lng":139.831631},{"code":"06203001002","name":"本町２丁目","lat":38.723876,"lng":139.828149},{"code":"06203001003","name":"本町３丁目","lat":38.72438,"lng":139.821986},{"code":"062030020","name":"三和町","lat":38.720747,"lng":139.831392},{"code":"062030030","name":"睦町","lat":38.720836,"lng":139.827126},{"code":"062030040","name":"三光町","lat":38.72139,"lng":139.823804},{"code":"062030050","name":"双葉町","lat":38.718138,"lng":139.823793},{"code":"062030060","name":"文園町","lat":38.716033,"lng":139.828486},{"code":"062030070","name":"千石町","lat":38.716505,"lng":139.832103},{"code":"062030080","name":"長者町","lat":38.71884,"lng":139.835314},{"code":"062030090","name":"城南町","lat":38.711424,"lng":139.83221},{"code":"06203010051","name":"日枝字宮脇","lat":38.710123,"lng":139.825208},{"code":"06203010052","name":"日枝字坂本","lat":38.710568,"lng":139.820651},{"code":"06203010054","name":"日枝字大塚","lat":38.714838,"lng":139.821342},{"code":"06203010055","name":"日枝字海老島","lat":38.713052,"lng":139.825797},{"code":"06203010057","name":"日枝字清水上","lat":38.711808,"lng":139.815265},{"code":"06203010058","name":"日枝字鳥居上","lat":38.709201,"lng":139.813067},{"code":"06203010060","name":"日枝字宮ノ下","lat":38.713179,"lng":139.82044},{"code":"062030110","name":"昭和町","lat":38.72626,"lng":139.834088},{"code":"062030120","name":"大東町","lat":38.725237,"lng":139.83892},{"code":"062030130","name":"神明町","lat":38.722662,"lng":139.834305},{"code":"062030140","name":"苗津町","lat":38.72141,"lng":139.839694},{"code":"06203015001","name":"日出１丁目","lat":38.724201,"lng":139.844692},{"code":"06203015002","name":"日出２丁目","lat":38.721941,"lng":139.849118},{"code":"062030160","name":"東原町","lat":38.72061,"lng":139.845038},{"code":"062030170","name":"錦町","lat":38.738366,"lng":139.830802},{"code":"062030180","name":"新形町","lat":38.736586,"lng":139.824086},{"code":"062030190","name":"上畑町","lat":38.7345,"lng":139.830341},{"code":"062030200","name":"山王町","lat":38.731357,"lng":139.834511},{"code":"062030210","name":"泉町","lat":38.731168,"lng":139.830246},{"code":"062030220","name":"若葉町","lat":38.732617,"lng":139.825297},{"code":"062030230","name":"家中新町","lat":38.729371,"lng":139.820356},{"code":"062030240","name":"馬場町","lat":38.727601,"lng":139.825858},{"code":"062030250","name":"東新斎町","lat":38.735271,"lng":139.817514},{"code":"06203026001","name":"宝田１丁目","lat":38.743873,"lng":139.835686},{"code":"06203026002","name":"宝田２丁目","lat":38.747447,"lng":139.841324},{"code":"06203026003","name":"宝田３丁目","lat":38.751752,"lng":139.846202},{"code":"062030270","name":"城北町","lat":38.738697,"lng":139.820179},{"code":"062030280","name":"新形","lat":38.742488,"lng":139.824718},{"code":"06203029052","name":"茅原字西茅原","lat":38.750577,"lng":139.834744},{"code":"06203029054","name":"茅原字草見鶴","lat":38.756308,"lng":139.841399},{"code":"06203029055","name":"茅原字中谷地","lat":38.754653,"lng":139.836765},{"code":"062030300","name":"陽光町","lat":38.723105,"lng":139.816399},{"code":"062030310","name":"青柳町","lat":38.723808,"lng":139.812512},{"code":"062030320","name":"美原町","lat":38.719331,"lng":139.818936},{"code":"06203033001","name":"稲生１丁目","lat":38.717193,"lng":139.810764},{"code":"06203033002","name":"稲生２丁目","lat":38.716045,"lng":139.806611},{"code":"06203035051","name":"番田字東田","lat":38.711265,"lng":139.809178},{"code":"06203035052","name":"番田字南田","lat":38.714189,"lng":139.803727},{"code":"062030360","name":"柳田","lat":38.723208,"lng":139.808333},{"code":"062030370","name":"道形町","lat":38.743224,"lng":139.845609},{"code":"062030380","name":"大宝寺町","lat":38.737919,"lng":139.842847},{"code":"062030390","name":"末広町","lat":38.739282,"lng":139.837657},{"code":"062030400","name":"日吉町","lat":38.734991,"lng":139.835244},{"code":"062030410","name":"宝町","lat":38.734848,"lng":139.839982},{"code":"062030420","name":"鳥居町","lat":38.729534,"lng":139.83796},{"code":"062030430","name":"切添町","lat":38.732221,"lng":139.843599},{"code":"062030440","name":"朝暘町","lat":38.72748,"lng":139.843829},{"code":"06203045051","name":"文下字村ノ内","lat":38.763224,"lng":139.84702},{"code":"06203045052","name":"文下字久保田","lat":38.770286,"lng":139.848313},{"code":"06203045053","name":"文下字家岸","lat":38.767634,"lng":139.844371},{"code":"06203045054","name":"文下字上川原","lat":38.749077,"lng":139.852312},{"code":"06203047053","name":"大宝寺字中野","lat":38.73578,"lng":139.853298},{"code":"06203047055","name":"大宝寺字大宝地","lat":38.734162,"lng":139.848009},{"code":"06203047060","name":"大宝寺字日本国","lat":38.74736,"lng":139.826887},{"code":"062030480","name":"みどり町","lat":38.732438,"lng":139.8097},{"code":"062030490","name":"新海町","lat":38.729877,"lng":139.815671},{"code":"062030500","name":"大西町","lat":38.72716,"lng":139.809206},{"code":"062030510","name":"西新斎町","lat":38.736305,"lng":139.8131},{"code":"062030520","name":"砂田町","lat":38.732333,"lng":139.804639},{"code":"062030530","name":"淀川町","lat":38.730129,"lng":139.80331},{"code":"062030540","name":"道田町","lat":38.726927,"lng":139.802656},{"code":"06203056051","name":"斎藤川原字間々下","lat":38.706191,"lng":139.844683},{"code":"06203056052","name":"斎藤川原字林俣","lat":38.70797,"lng":139.848728},{"code":"06203056053","name":"斎藤川原字中道","lat":38.70851,"lng":139.854931},{"code":"06203056054","name":"斎藤川原字小鷹","lat":38.707401,"lng":139.843068},{"code":"06203057051","name":"勝福寺字中通","lat":38.689812,"lng":139.851689},{"code":"06203057052","name":"勝福寺字泉山","lat":38.694909,"lng":139.851161},{"code":"06203057053","name":"勝福寺字下川田","lat":38.685192,"lng":139.856473},{"code":"06203057054","name":"勝福寺字前川原","lat":38.691102,"lng":139.857641},{"code":"06203058051","name":"我老林字五里市","lat":38.703002,"lng":139.855866},{"code":"06203058052","name":"我老林字向川原","lat":38.69743,"lng":139.858545},{"code":"06203058053","name":"我老林字野中川原","lat":38.704553,"lng":139.847139},{"code":"06203058054","name":"我老林字村西","lat":38.6999,"lng":139.851233},{"code":"06203058057","name":"我老林字西川原","lat":38.700605,"lng":139.848324},{"code":"06203059051","name":"外内島字古川","lat":38.704135,"lng":139.835781},{"code":"06203059052","name":"外内島字明神川原","lat":38.708329,"lng":139.833937},{"code":"06203059053","name":"外内島字信州川原","lat":38.702996,"lng":139.830952},{"code":"06203059054","name":"外内島字石名田","lat":38.707677,"lng":139.831428},{"code":"062030601","name":"のぞみ町","lat":38.714471,"lng":139.835681},{"code":"06203060251","name":"遠賀原字高間々","lat":38.708344,"lng":139.8403},{"code":"06203060252","name":"遠賀原字芦原","lat":38.707612,"lng":139.837731},{"code":"06203061051","name":"八ツ興屋字土谷俣","lat":38.712432,"lng":139.841932},{"code":"06203061055","name":"八ツ興屋字北田","lat":38.715528,"lng":139.840831},{"code":"06203062051","name":"伊勢横内字伊勢郷","lat":38.712817,"lng":139.851848},{"code":"06203062052","name":"伊勢横内字大場川原","lat":38.721797,"lng":139.851882},{"code":"06203062053","name":"伊勢横内字前川原","lat":38.713551,"lng":139.856292},{"code":"06203062059","name":"伊勢横内字畑福","lat":38.711956,"lng":139.848191},{"code":"062030630","name":"苗津","lat":38.717467,"lng":139.841281},{"code":"06203064051","name":"青龍寺字村下","lat":38.691158,"lng":139.817021},{"code":"06203064052","name":"青龍寺字北内","lat":38.690922,"lng":139.812805},{"code":"06203064053","name":"青龍寺字金峯","lat":38.688365,"lng":139.810951},{"code":"06203064054","name":"青龍寺字川内","lat":38.68528,"lng":139.817528},{"code":"06203064055","name":"青龍寺字村東","lat":38.688404,"lng":139.818556},{"code":"06203065051","name":"滝沢字水尻","lat":38.677893,"lng":139.819953},{"code":"06203065052","name":"滝沢字水上","lat":38.675306,"lng":139.812268},{"code":"06203065060","name":"滝沢字村内","lat":38.671085,"lng":139.816742},{"code":"06203066051","name":"上山谷字前沢","lat":38.666525,"lng":139.819134},{"code":"06203066052","name":"上山谷字村尻","lat":38.669684,"lng":139.82279},{"code":"06203066053","name":"上山谷字大沢尻","lat":38.664986,"lng":139.821613},{"code":"06203066054","name":"上山谷字外川原","lat":38.671531,"lng":139.825624},{"code":"06203067051","name":"金谷字大沢","lat":38.667354,"lng":139.826487},{"code":"06203067052","name":"金谷字村東","lat":38.665415,"lng":139.828398},{"code":"06203068051","name":"谷定字河原田","lat":38.66329,"lng":139.831323},{"code":"06203068052","name":"谷定字白山","lat":38.659147,"lng":139.835934},{"code":"06203068053","name":"谷定字宮下","lat":38.662955,"lng":139.824133},{"code":"06203068054","name":"谷定字楯の前","lat":38.659884,"lng":139.826558},{"code":"06203068055","name":"谷定字伊勢堂","lat":38.658862,"lng":139.829976},{"code":"06203068056","name":"谷定字十二林","lat":38.654526,"lng":139.830218},{"code":"06203068057","name":"谷定字小荒沢","lat":38.660535,"lng":139.82257},{"code":"06203069051","name":"寿字川口","lat":38.683764,"lng":139.825541},{"code":"06203069052","name":"寿字塩田","lat":38.682999,"lng":139.828944},{"code":"06203070051","name":"中橋字備川","lat":38.694381,"lng":139.827218},{"code":"06203070052","name":"中橋字板井堰","lat":38.690951,"lng":139.822871},{"code":"06203070053","name":"中橋字中入","lat":38.690746,"lng":139.82827},{"code":"06203070054","name":"中橋字村東","lat":38.688754,"lng":139.829684},{"code":"06203070055","name":"中橋字村西","lat":38.687533,"lng":139.825218},{"code":"06203070057","name":"中橋字石ナ田","lat":38.694015,"lng":139.821323},{"code":"06203070058","name":"中橋字大川原","lat":38.695691,"lng":139.829548},{"code":"06203070059","name":"中橋字山王下","lat":38.696117,"lng":139.827011},{"code":"06203071051","name":"民田字船附","lat":38.703822,"lng":139.82647},{"code":"06203071052","name":"民田字村下","lat":38.705874,"lng":139.823812},{"code":"06203071053","name":"民田字五百刈","lat":38.699005,"lng":139.827228},{"code":"06203071054","name":"民田字天王前","lat":38.698063,"lng":139.822556},{"code":"06203071055","name":"民田字十二前","lat":38.703791,"lng":139.820606},{"code":"06203072051","name":"高坂字楯ノ下","lat":38.698474,"lng":139.814328},{"code":"06203072052","name":"高坂字山口","lat":38.695433,"lng":139.81015},{"code":"06203072053","name":"高坂字宮下","lat":38.708183,"lng":139.804381},{"code":"06203072054","name":"高坂字杉ケ沢","lat":38.698821,"lng":139.805985},{"code":"06203072055","name":"高坂字前田元","lat":38.702692,"lng":139.812267},{"code":"06203072056","name":"高坂字天王原","lat":38.704873,"lng":139.815646},{"code":"06203072057","name":"高坂字新沢田","lat":38.699191,"lng":139.80313},{"code":"06203072058","name":"高坂字金沢","lat":38.703366,"lng":139.807388},{"code":"06203072059","name":"高坂字三ケ水口","lat":38.705651,"lng":139.812177},{"code":"06203072060","name":"高坂字堰下","lat":38.704198,"lng":139.803065},{"code":"06203072061","name":"高坂字仏供沢","lat":38.705805,"lng":139.801574},{"code":"06203072062","name":"高坂字村西","lat":38.710225,"lng":139.799244},{"code":"06203073051","name":"湯田川字瀬戸ノ沢","lat":38.691554,"lng":139.767026},{"code":"06203073052","name":"湯田川字湯元","lat":38.693179,"lng":139.770201},{"code":"06203073053","name":"湯田川字万年入","lat":38.692598,"lng":139.770837},{"code":"06203073054","name":"湯田川字中田","lat":38.700772,"lng":139.771746},{"code":"06203073055","name":"湯田川字滝ノ沢","lat":38.701994,"lng":139.767393},{"code":"06203073057","name":"湯田川字茗ケ沢","lat":38.690128,"lng":139.76807},{"code":"06203074051","name":"藤沢字荒沢","lat":38.690618,"lng":139.778739},{"code":"06203074052","name":"藤沢字西側","lat":38.690992,"lng":139.774019},{"code":"06203074053","name":"藤沢字東側","lat":38.693458,"lng":139.775933},{"code":"06203074054","name":"藤沢字軽井沢","lat":38.700786,"lng":139.78601},{"code":"06203074055","name":"藤沢字船見台","lat":38.687336,"lng":139.774057},{"code":"06203074056","name":"藤沢字小巻島","lat":38.696477,"lng":139.780203},{"code":"06203074058","name":"藤沢字中辻","lat":38.702175,"lng":139.776802},{"code":"06203075051","name":"白山字新田","lat":38.719372,"lng":139.791476},{"code":"06203075052","name":"白山字興野","lat":38.726275,"lng":139.789606},{"code":"06203075053","name":"白山字村北","lat":38.728298,"lng":139.784326},{"code":"06203075054","name":"白山字西野","lat":38.720967,"lng":139.782776},{"code":"06203075055","name":"白山字囲地田","lat":38.724432,"lng":139.783988},{"code":"06203075057","name":"白山字西木村","lat":38.722561,"lng":139.775807},{"code":"06203076051","name":"矢馳字上矢馳","lat":38.732856,"lng":139.774362},{"code":"06203076052","name":"矢馳字金光寺","lat":38.728653,"lng":139.781197},{"code":"06203077051","name":"山田字小京田","lat":38.738796,"lng":139.776199},{"code":"06203077052","name":"山田字油田","lat":38.742399,"lng":139.771954},{"code":"06203077053","name":"山田字仲道","lat":38.744012,"lng":139.777428},{"code":"06203077054","name":"山田字境興屋","lat":38.744368,"lng":139.782858},{"code":"06203078051","name":"布目字中通","lat":38.739315,"lng":139.797796},{"code":"06203078052","name":"布目字西通","lat":38.740706,"lng":139.79425},{"code":"06203078054","name":"布目字宮田","lat":38.744292,"lng":139.792701},{"code":"06203079051","name":"大淀川字畑田","lat":38.738915,"lng":139.788737},{"code":"06203079052","name":"大淀川字けぬき橋","lat":38.738029,"lng":139.781687},{"code":"06203079053","name":"大淀川字洞合","lat":38.733158,"lng":139.786731},{"code":"06203080051","name":"小淀川字村東","lat":38.73022,"lng":139.800339},{"code":"06203080052","name":"小淀川字谷地田","lat":38.734817,"lng":139.794493},{"code":"06203080053","name":"小淀川字色田","lat":38.730928,"lng":139.7949},{"code":"06203080054","name":"小淀川字辰巳","lat":38.72316,"lng":139.806913},{"code":"06203081051","name":"寺田字道田","lat":38.727581,"lng":139.798475},{"code":"06203081052","name":"寺田字大東","lat":38.72264,"lng":139.803842},{"code":"06203081053","name":"寺田字月記","lat":38.719279,"lng":139.800793},{"code":"06203081054","name":"寺田字後田","lat":38.722779,"lng":139.79477},{"code":"06203081055","name":"寺田字大道下","lat":38.727592,"lng":139.794611},{"code":"06203082051","name":"井岡字和田","lat":38.712492,"lng":139.793713},{"code":"06203082052","name":"井岡字塔の腰","lat":38.710608,"lng":139.803897},{"code":"06203082053","name":"井岡字沢田","lat":38.706596,"lng":139.795316},{"code":"06203082054","name":"井岡字御衣田","lat":38.714282,"lng":139.799081},{"code":"06203082055","name":"井岡字奈良岡","lat":38.716031,"lng":139.788779},{"code":"062030830","name":"岡山","lat":38.708771,"lng":139.785452},{"code":"06203084000","name":"森片","lat":38.708667,"lng":139.771612},{"code":"06203084051","name":"森片字山崎","lat":38.711592,"lng":139.777947},{"code":"06203084052","name":"森片字前田","lat":38.707508,"lng":139.774418},{"code":"06203085051","name":"上清水字蔵王前","lat":38.70486,"lng":139.757881},{"code":"06203085052","name":"上清水","lat":38.707755,"lng":139.76116},{"code":"06203086051","name":"中清水字大沢田","lat":38.707003,"lng":139.766038},{"code":"06203086052","name":"中清水字割田","lat":38.711912,"lng":139.75294},{"code":"06203086053","name":"中清水字桃木沢","lat":38.71221,"lng":139.764839},{"code":"06203086054","name":"中清水字柿木沢","lat":38.710501,"lng":139.773369},{"code":"06203087051","name":"下清水字内田元","lat":38.715632,"lng":139.767991},{"code":"06203087052","name":"下清水字田中","lat":38.725197,"lng":139.767919},{"code":"06203087053","name":"下清水字山田","lat":38.717525,"lng":139.771697},{"code":"062030880","name":"清水新田","lat":38.725739,"lng":139.76166},{"code":"06203089051","name":"高田字上村","lat":38.744046,"lng":139.813969},{"code":"06203089052","name":"高田字下村","lat":38.752171,"lng":139.807623},{"code":"06203089053","name":"高田字宮ノ腰","lat":38.747881,"lng":139.81444},{"code":"062030900","name":"北京田","lat":38.747895,"lng":139.817052},{"code":"06203091051","name":"覚岸寺字水上","lat":38.751685,"lng":139.824565},{"code":"06203091052","name":"覚岸寺字菅谷地","lat":38.750036,"lng":139.819786},{"code":"06203092051","name":"荒井京田字荒田","lat":38.755547,"lng":139.821415},{"code":"06203092052","name":"荒井京田字北田","lat":38.760239,"lng":139.816445},{"code":"06203092053","name":"荒井京田字西田","lat":38.757886,"lng":139.813078},{"code":"06203093051","name":"福田字免田","lat":38.762658,"lng":139.809124},{"code":"06203093052","name":"福田字八日田","lat":38.766729,"lng":139.812721},{"code":"06203093053","name":"福田字中田","lat":38.766791,"lng":139.808918},{"code":"06203093054","name":"福田字阿部","lat":38.765362,"lng":139.804074},{"code":"06203094051","name":"豊田字堰向","lat":38.770308,"lng":139.811687},{"code":"06203094052","name":"豊田字谷地田","lat":38.773404,"lng":139.812506},{"code":"06203094053","name":"豊田字中瀬","lat":38.774706,"lng":139.806846},{"code":"06203095051","name":"林崎字鍬代","lat":38.759498,"lng":139.806433},{"code":"06203095052","name":"林崎字中堰","lat":38.759836,"lng":139.803651},{"code":"06203095053","name":"林崎字水口","lat":38.759426,"lng":139.800252},{"code":"06203095054","name":"林崎字千苅","lat":38.759969,"lng":139.797743},{"code":"06203096051","name":"安丹字村上","lat":38.748363,"lng":139.790337},{"code":"06203096052","name":"安丹字上丹波","lat":38.750765,"lng":139.793077},{"code":"06203096053","name":"安丹字東丹波","lat":38.757291,"lng":139.795298},{"code":"06203096054","name":"安丹字山ノ下","lat":38.755036,"lng":139.790669},{"code":"06203097051","name":"中野京田字荒田","lat":38.743315,"lng":139.805646},{"code":"06203097052","name":"中野京田字壱柳","lat":38.745244,"lng":139.800595},{"code":"06203097053","name":"中野京田字大坪","lat":38.748011,"lng":139.795593},{"code":"06203097054","name":"中野京田字白川","lat":38.747389,"lng":139.798172},{"code":"06203097055","name":"中野京田字上大坪","lat":38.741432,"lng":139.799941},{"code":"062030980","name":"平京田","lat":38.739188,"lng":139.804017},{"code":"062030990","name":"西京田","lat":38.748022,"lng":139.805107},{"code":"06203100051","name":"本田字八百地","lat":38.755651,"lng":139.832172},{"code":"06203100052","name":"本田字相田","lat":38.761108,"lng":139.826595},{"code":"06203100053","name":"本田字馬場添","lat":38.761997,"lng":139.83221},{"code":"062031010","name":"小京田","lat":38.762769,"lng":139.820023},{"code":"06203102051","name":"播磨字上堤","lat":38.762915,"lng":139.834914},{"code":"06203102052","name":"播磨字野中","lat":38.766565,"lng":139.837911},{"code":"06203102053","name":"播磨字樋口","lat":38.770815,"lng":139.834041},{"code":"06203102054","name":"播磨字相生","lat":38.767779,"lng":139.83109},{"code":"06203102055","name":"播磨字通端","lat":38.771547,"lng":139.825718},{"code":"06203102056","name":"播磨字若松","lat":38.772175,"lng":139.820631},{"code":"06203102057","name":"播磨字助郷","lat":38.767306,"lng":139.820633},{"code":"06203103051","name":"平田字平元","lat":38.777304,"lng":139.812199},{"code":"06203103052","name":"平田字伊久田","lat":38.778457,"lng":139.814635},{"code":"06203103053","name":"平田字長田","lat":38.780991,"lng":139.817455},{"code":"06203103054","name":"平田字財当","lat":38.783131,"lng":139.814184},{"code":"06203103055","name":"平田字披栄田","lat":38.780324,"lng":139.811997},{"code":"06203104051","name":"中京田字上田本","lat":38.773853,"lng":139.831639},{"code":"06203104052","name":"中京田字太夫の越","lat":38.77926,"lng":139.829952},{"code":"06203104053","name":"中京田字十王免","lat":38.774134,"lng":139.825505},{"code":"06203104054","name":"中京田字宮の越","lat":38.779912,"lng":139.823089},{"code":"06203105051","name":"湯野沢字新田","lat":38.778327,"lng":139.835496},{"code":"06203105052","name":"湯野沢字畑田","lat":38.773017,"lng":139.842299},{"code":"06203105053","name":"湯野沢","lat":38.776099,"lng":139.843729},{"code":"06203105054","name":"湯野沢字下川原","lat":38.780467,"lng":139.839969},{"code":"06203106051","name":"田川字岩行","lat":38.674066,"lng":139.746525},{"code":"06203106052","name":"田川字山田","lat":38.676617,"lng":139.747091},{"code":"06203106053","name":"田川字細入","lat":38.676684,"lng":139.744415},{"code":"06203106054","name":"田川字蓮花寺","lat":38.680652,"lng":139.745141},{"code":"06203106055","name":"田川字八幡","lat":38.686089,"lng":139.749338},{"code":"06203106056","name":"田川字白山前","lat":38.680783,"lng":139.756334},{"code":"06203106057","name":"田川字宮野前","lat":38.695148,"lng":139.751407},{"code":"06203106058","name":"田川字品の町","lat":38.701613,"lng":139.748412},{"code":"06203106059","name":"田川字七日台","lat":38.687718,"lng":139.752838},{"code":"06203106060","name":"田川字高田","lat":38.68405,"lng":139.745689},{"code":"06203106061","name":"田川字中田","lat":38.683141,"lng":139.749451},{"code":"06203106062","name":"田川字町沢田","lat":38.690212,"lng":139.755099},{"code":"06203107051","name":"少連寺字家ノ前","lat":38.674914,"lng":139.76329},{"code":"06203107052","name":"少連寺字川原谷","lat":38.67546,"lng":139.766661},{"code":"06203107053","name":"少連寺字黒森","lat":38.678332,"lng":139.761889},{"code":"06203108051","name":"関根字外野村","lat":38.655753,"lng":139.738911},{"code":"06203108052","name":"関根字道野上","lat":38.661497,"lng":139.740338},{"code":"06203108053","name":"関根字堂野入","lat":38.665262,"lng":139.742044},{"code":"06203108054","name":"関根字橋下","lat":38.669061,"lng":139.745084},{"code":"06203108055","name":"関根字実俣","lat":38.672754,"lng":139.743293},{"code":"06203108056","name":"関根字田中川原","lat":38.669035,"lng":139.741893},{"code":"06203108099","name":"関根","lat":38.685092,"lng":139.73352},{"code":"06203109051","name":"東目字河倉","lat":38.644434,"lng":139.754227},{"code":"06203109052","name":"東目字小松沢","lat":38.656647,"lng":139.74367},{"code":"06203109053","name":"東目字落合","lat":38.660477,"lng":139.750892},{"code":"06203110051","name":"坂野下字峠下","lat":38.640907,"lng":139.744071},{"code":"06203110052","name":"坂野下字坂下","lat":38.650026,"lng":139.739689},{"code":"062031110","name":"砂谷","lat":38.659428,"lng":139.77163},{"code":"062031120","name":"大机","lat":38.634673,"lng":139.756436},{"code":"06203113051","name":"水沢字熊野前","lat":38.689219,"lng":139.746012},{"code":"06203113052","name":"水沢字四日市","lat":38.692753,"lng":139.745081},{"code":"06203113053","name":"水沢字丑ケ沢","lat":38.696503,"lng":139.742818},{"code":"06203113054","name":"水沢字沢田","lat":38.699469,"lng":139.741661},{"code":"06203113055","name":"水沢字楯ノ下","lat":38.703488,"lng":139.740535},{"code":"06203113056","name":"水沢字前川原","lat":38.703901,"lng":139.743396},{"code":"06203113057","name":"水沢字木ノ下","lat":38.706054,"lng":139.735529},{"code":"06203113058","name":"水沢字行司免","lat":38.710104,"lng":139.743204},{"code":"06203113061","name":"水沢字水沢尻","lat":38.711339,"lng":139.737696},{"code":"06203113062","name":"水沢字水京","lat":38.708862,"lng":139.73551},{"code":"06203113063","name":"水沢字中布目","lat":38.712719,"lng":139.74115},{"code":"06203113064","name":"水沢字山ノ腰","lat":38.707674,"lng":139.739854},{"code":"06203114051","name":"大広字山越","lat":38.700333,"lng":139.734134},{"code":"06203114052","name":"大広字広浜","lat":38.703028,"lng":139.73344},{"code":"06203114053","name":"大広字大木ノ下","lat":38.707002,"lng":139.728963},{"code":"06203114054","name":"大広字大谷","lat":38.698516,"lng":139.728651},{"code":"06203114055","name":"大広字嶽の下","lat":38.703315,"lng":139.7242},{"code":"06203114056","name":"大広字山崎","lat":38.711548,"lng":139.730995},{"code":"06203115051","name":"中山字草見","lat":38.696207,"lng":139.704902},{"code":"06203115052","name":"中山字中坪","lat":38.693106,"lng":139.70141},{"code":"06203115053","name":"中山字瓜沢","lat":38.690407,"lng":139.698216},{"code":"06203115054","name":"中山字石川原","lat":38.689516,"lng":139.701753},{"code":"06203115055","name":"中山字妻ノ神前","lat":38.690815,"lng":139.705047},{"code":"06203116051","name":"矢引字堰口","lat":38.704379,"lng":139.711204},{"code":"06203116052","name":"矢引字矢引","lat":38.701882,"lng":139.711423},{"code":"06203116053","name":"矢引字成石","lat":38.701715,"lng":139.709396},{"code":"06203117051","name":"中沢字村上山","lat":38.7075,"lng":139.718268},{"code":"06203117052","name":"中沢字宮ノ本","lat":38.708601,"lng":139.714921},{"code":"06203117053","name":"中沢字清水端","lat":38.711888,"lng":139.716512},{"code":"06203117054","name":"中沢字石名川","lat":38.703487,"lng":139.717601},{"code":"06203117055","name":"中沢","lat":38.710849,"lng":139.723682},{"code":"06203117056","name":"中沢字森ノ腰","lat":38.713312,"lng":139.720008},{"code":"06203118051","name":"大荒字門脇","lat":38.716406,"lng":139.727942},{"code":"06203118052","name":"大荒字荒沢前","lat":38.717241,"lng":139.720828},{"code":"06203118053","name":"大荒字下谷地","lat":38.71535,"lng":139.725478},{"code":"06203118054","name":"大荒字大戸前","lat":38.715931,"lng":139.73051},{"code":"06203119051","name":"西目字京田前","lat":38.719761,"lng":139.725234},{"code":"06203119052","name":"西目字鷲嶽沢","lat":38.725059,"lng":139.718409},{"code":"06203119053","name":"西目字村里","lat":38.726165,"lng":139.72535},{"code":"06203119054","name":"西目字竹浦","lat":38.731372,"lng":139.726317},{"code":"06203119055","name":"西目字袋沢田","lat":38.736036,"lng":139.726762},{"code":"06203119056","name":"西目字水上沢","lat":38.737111,"lng":139.732504},{"code":"06203119057","name":"西目字熊船","lat":38.732633,"lng":139.730054},{"code":"06203119058","name":"西目字大水沢","lat":38.721876,"lng":139.718623},{"code":"06203119059","name":"西目字神社口","lat":38.729371,"lng":139.720537},{"code":"06203119060","name":"西目字深田","lat":38.735249,"lng":139.735425},{"code":"06203119061","name":"西目字殿田","lat":38.720771,"lng":139.734252},{"code":"06203119062","name":"西目字斎藤","lat":38.724171,"lng":139.722348},{"code":"06203120051","name":"三瀬字越戸","lat":38.696413,"lng":139.677026},{"code":"06203120052","name":"三瀬字獅子畑","lat":38.692049,"lng":139.673793},{"code":"06203120053","name":"三瀬字白山","lat":38.694854,"lng":139.674733},{"code":"06203120054","name":"三瀬字堅田","lat":38.700571,"lng":139.672794},{"code":"06203120055","name":"三瀬字殿田","lat":38.701591,"lng":139.668479},{"code":"06203120056","name":"三瀬字横町","lat":38.704036,"lng":139.663841},{"code":"06203120057","name":"三瀬字宮ノ前","lat":38.710202,"lng":139.668414},{"code":"06203120058","name":"三瀬字浦田","lat":38.704905,"lng":139.669616},{"code":"06203120068","name":"三瀬字冷田","lat":38.698938,"lng":139.670941},{"code":"06203121001","name":"由良１丁目","lat":38.717514,"lng":139.682649},{"code":"06203121002","name":"由良２丁目","lat":38.721297,"lng":139.686404},{"code":"06203121003","name":"由良３丁目","lat":38.722849,"lng":139.691334},{"code":"06203122054","name":"由良字町田","lat":38.718846,"lng":139.691312},{"code":"06203122057","name":"由良字由良沢","lat":38.71531,"lng":139.679253},{"code":"06203122058","name":"由良字川原田","lat":38.722105,"lng":139.693287},{"code":"06203122059","name":"由良字楮","lat":38.726281,"lng":139.69505},{"code":"06203123051","name":"小波渡字明ノ下","lat":38.692224,"lng":139.650528},{"code":"06203123052","name":"小波渡字宮林","lat":38.692636,"lng":139.650952},{"code":"06203123053","name":"小波渡字浜田","lat":38.698375,"lng":139.653676},{"code":"06203123054","name":"小波渡","lat":38.688785,"lng":139.646318},{"code":"06203123055","name":"小波渡字甘木台","lat":38.690844,"lng":139.644796},{"code":"06203124051","name":"堅苔沢字宮田","lat":38.68289,"lng":139.63195},{"code":"06203124052","name":"堅苔沢字淵ノ上","lat":38.684311,"lng":139.639325},{"code":"06203124053","name":"堅苔沢字平畑","lat":38.686748,"lng":139.643135},{"code":"06203124054","name":"堅苔沢字深浦","lat":38.683551,"lng":139.627309},{"code":"06203125051","name":"加茂字加茂","lat":38.761739,"lng":139.735199},{"code":"06203125052","name":"加茂字岩倉","lat":38.759602,"lng":139.73725},{"code":"06203125053","name":"加茂字坂ノ下","lat":38.755581,"lng":139.737881},{"code":"06203125054","name":"加茂字弁慶沢","lat":38.765508,"lng":139.734807},{"code":"06203125055","name":"加茂字清水平","lat":38.757895,"lng":139.733578},{"code":"06203125056","name":"加茂字大崩","lat":38.760823,"lng":139.731281},{"code":"06203126051","name":"今泉","lat":38.756475,"lng":139.721761},{"code":"06203126052","name":"今泉字大久保","lat":38.76104,"lng":139.727287},{"code":"06203127051","name":"油戸字中田","lat":38.749371,"lng":139.719668},{"code":"06203127052","name":"油戸字油沢","lat":38.747329,"lng":139.710709},{"code":"062031280","name":"金沢","lat":38.770106,"lng":139.740967},{"code":"06203129001","name":"湯野浜１丁目","lat":38.78205,"lng":139.75397},{"code":"06203129002","name":"湯野浜２丁目","lat":38.7809,"lng":139.755479},{"code":"06203130051","name":"湯野浜字浜泉","lat":38.783094,"lng":139.758298},{"code":"06203130054","name":"湯野浜字石上","lat":38.776677,"lng":139.750934},{"code":"062031310","name":"宮沢","lat":38.774253,"lng":139.746869},{"code":"06203132001","name":"大山１丁目","lat":38.743852,"lng":139.765637},{"code":"06203132002","name":"大山２丁目","lat":38.748494,"lng":139.763295},{"code":"06203132003","name":"大山３丁目","lat":38.753386,"lng":139.76352},{"code":"062031330","name":"友江町","lat":38.748817,"lng":139.772142},{"code":"06203134051","name":"大山字上柳原","lat":38.749643,"lng":139.785763},{"code":"06203134052","name":"大山字中柳原","lat":38.754893,"lng":139.777311},{"code":"06203134054","name":"大山字都沢","lat":38.758886,"lng":139.762471},{"code":"06203134055","name":"大山字下柳原","lat":38.764429,"lng":139.785193},{"code":"06203134056","name":"大山字米出新田","lat":38.768968,"lng":139.798365},{"code":"06203134057","name":"大山字六明新田","lat":38.773962,"lng":139.799049},{"code":"06203134058","name":"大山","lat":38.748534,"lng":139.75316},{"code":"06203134059","name":"大山字堤下","lat":38.748199,"lng":139.757812},{"code":"06203134060","name":"大山字北田","lat":38.74346,"lng":139.757741},{"code":"06203134061","name":"大山字砂押","lat":38.746523,"lng":139.758316},{"code":"06203134063","name":"大山字道下","lat":38.747477,"lng":139.761231},{"code":"06203134064","name":"大山字天保恵","lat":38.739619,"lng":139.766851},{"code":"06203135051","name":"友江字中野","lat":38.745864,"lng":139.786817},{"code":"06203135052","name":"友江字川向","lat":38.748427,"lng":139.77848},{"code":"06203136051","name":"栃屋字千苅","lat":38.7383,"lng":139.757234},{"code":"06203136052","name":"栃屋字谷地道","lat":38.736847,"lng":139.75734},{"code":"06203136053","name":"栃屋字小水川","lat":38.733111,"lng":139.760888},{"code":"06203136054","name":"栃屋字干場","lat":38.737095,"lng":139.76274},{"code":"06203136055","name":"栃屋字天保恵","lat":38.740272,"lng":139.763188},{"code":"062031370","name":"下興屋","lat":38.729843,"lng":139.753153},{"code":"06203138051","name":"下小中字壱の揚","lat":38.719711,"lng":139.753289},{"code":"06203138052","name":"下小中字田中屋敷","lat":38.721818,"lng":139.74978},{"code":"06203138053","name":"下小中字中道","lat":38.724429,"lng":139.753657},{"code":"062031390","name":"中楯","lat":38.724208,"lng":139.741825},{"code":"06203140051","name":"菱津字神明前","lat":38.745143,"lng":139.745689},{"code":"06203140052","name":"菱津字村上沢","lat":38.741491,"lng":139.740162},{"code":"06203140053","name":"菱津字山栃谷","lat":38.747985,"lng":139.756062},{"code":"06203140054","name":"菱津字火打崎","lat":38.734403,"lng":139.741988},{"code":"06203140055","name":"菱津字綿打沢","lat":38.748141,"lng":139.750309},{"code":"06203140056","name":"菱津字川内","lat":38.736812,"lng":139.745948},{"code":"06203140057","name":"菱津字坂下","lat":38.745609,"lng":139.752967},{"code":"06203140065","name":"菱津字新興","lat":38.739456,"lng":139.751161},{"code":"06203141051","name":"馬町字諏訪岸","lat":38.758808,"lng":139.767602},{"code":"06203141052","name":"馬町字駒繋","lat":38.760296,"lng":139.764791},{"code":"06203141053","name":"馬町字枇把川原","lat":38.763073,"lng":139.771093},{"code":"06203141054","name":"馬町字宮ノ腰","lat":38.764356,"lng":139.763637},{"code":"06203141055","name":"馬町字池ノ下","lat":38.767515,"lng":139.765921},{"code":"06203141056","name":"馬町字八幡田","lat":38.767391,"lng":139.7706},{"code":"06203142051","name":"下川字関根","lat":38.773299,"lng":139.766478},{"code":"06203142052","name":"下川字陳田","lat":38.776675,"lng":139.771032},{"code":"06203142053","name":"下川字堰下","lat":38.771117,"lng":139.772336},{"code":"06203142054","name":"下川字龍花崎","lat":38.784864,"lng":139.775659},{"code":"06203142055","name":"下川字西谷地","lat":38.775804,"lng":139.773381},{"code":"06203142056","name":"下川字西田面","lat":38.774935,"lng":139.775536},{"code":"06203142057","name":"下川字前田元","lat":38.770062,"lng":139.778538},{"code":"06203142058","name":"下川字合喜","lat":38.774342,"lng":139.787517},{"code":"06203142059","name":"下川字松葉","lat":38.778042,"lng":139.778647},{"code":"06203142060","name":"下川字大坪","lat":38.775061,"lng":139.780453},{"code":"06203142061","name":"下川字五百刈","lat":38.777688,"lng":139.784635},{"code":"06203142062","name":"下川字樋渡","lat":38.780422,"lng":139.784465},{"code":"06203142063","name":"下川字龍花","lat":38.78174,"lng":139.789624},{"code":"06203142064","name":"下川字東海林場","lat":38.784706,"lng":139.761355},{"code":"06203142065","name":"下川字七窪","lat":38.796067,"lng":139.776863},{"code":"06203142066","name":"下川字窪畑","lat":38.793247,"lng":139.763034},{"code":"06203143051","name":"千安京田字泰田","lat":38.779715,"lng":139.795737},{"code":"06203143052","name":"千安京田字京田","lat":38.783811,"lng":139.798139},{"code":"06203143053","name":"千安京田字龍花山","lat":38.784101,"lng":139.782731},{"code":"06203144000","name":"面野山","lat":38.779978,"lng":139.804032},{"code":"06203144051","name":"面野山字鶴之瀬","lat":38.7815,"lng":139.809458},{"code":"06203144052","name":"面野山字下龍花","lat":38.784541,"lng":139.787162},{"code":"06203145051","name":"辻興屋字腰前","lat":38.784972,"lng":139.80591},{"code":"06203145052","name":"辻興屋字大黒興屋","lat":38.790111,"lng":139.801435},{"code":"06203145053","name":"辻興屋字丸沼","lat":38.790022,"lng":139.807176},{"code":"06203145054","name":"辻興屋字街ノ上","lat":38.789141,"lng":139.786893},{"code":"06203145055","name":"辻興屋字三丁場","lat":38.789256,"lng":139.795383},{"code":"06203146051","name":"西沼字鈴木","lat":38.795281,"lng":139.815104},{"code":"06203146052","name":"西沼字割田","lat":38.799756,"lng":139.813415},{"code":"06203146053","name":"西沼字高屋","lat":38.79869,"lng":139.819608},{"code":"06203146054","name":"西沼字村上","lat":38.800288,"lng":139.820751},{"code":"06203146055","name":"西沼字砂停原","lat":38.792976,"lng":139.789104},{"code":"06203147051","name":"長崎字道田","lat":38.796305,"lng":139.797594},{"code":"06203147052","name":"長崎字井坪","lat":38.798727,"lng":139.799089},{"code":"06203147053","name":"長崎字高道","lat":38.798446,"lng":139.801449},{"code":"06203147054","name":"長崎字村北","lat":38.799549,"lng":139.803768},{"code":"06203147055","name":"長崎字宮前","lat":38.798162,"lng":139.805528},{"code":"06203147056","name":"長崎字花見原","lat":38.797791,"lng":139.790119},{"code":"06203148051","name":"茨新田字村東","lat":38.804917,"lng":139.820069},{"code":"06203148052","name":"茨新田字村下","lat":38.807948,"lng":139.814337},{"code":"06203148053","name":"茨新田字砂山","lat":38.808954,"lng":139.797768},{"code":"06203148054","name":"茨新田字千馬合","lat":38.803552,"lng":139.796918},{"code":"06203148055","name":"茨新田字興野","lat":38.801214,"lng":139.802351},{"code":"06203148056","name":"茨新田字上山根","lat":38.806914,"lng":139.804734},{"code":"062031500","name":"大塚町","lat":38.738361,"lng":139.808342},{"code":"062031510","name":"小真木原町","lat":38.714604,"lng":139.815412},{"code":"062031520","name":"海老島町","lat":38.71544,"lng":139.824513},{"code":"062031530","name":"大部町","lat":38.739762,"lng":139.815021},{"code":"062031540","name":"日和田町","lat":38.742427,"lng":139.827621},{"code":"062031550","name":"伊勢原町","lat":38.718014,"lng":139.850147},{"code":"062031560","name":"茅原町","lat":38.751923,"lng":139.84018},{"code":"062031570","name":"平成町","lat":38.745425,"lng":139.77055},{"code":"062031580","name":"桜新町","lat":38.717952,"lng":139.838938},{"code":"062031590","name":"ほなみ町","lat":38.716769,"lng":139.844276},{"code":"062031600","name":"余慶町","lat":38.746769,"lng":139.83131},{"code":"062031610","name":"美咲町","lat":38.735619,"lng":139.799762},{"code":"062031620","name":"道形","lat":38.757963,"lng":139.845433},{"code":"06203163001","name":"藤島字山ノ前","lat":38.764644,"lng":139.900991},{"code":"06203163002","name":"藤島字川向","lat":38.769677,"lng":139.898277},{"code":"06203163003","name":"藤島字古楯跡","lat":38.766532,"lng":139.906916},{"code":"06203163004","name":"藤島字西川原","lat":38.775181,"lng":139.907063},{"code":"062031640","name":"古郡","lat":38.754606,"lng":139.902936},{"code":"062031650","name":"大川渡","lat":38.74823,"lng":139.910226},{"code":"062031660","name":"谷地興屋","lat":38.749102,"lng":139.917502},{"code":"062031670","name":"下中野目","lat":38.75828,"lng":139.91562},{"code":"062031680","name":"野田目","lat":38.763706,"lng":139.922041},{"code":"062031690","name":"越後京田","lat":38.770443,"lng":139.928217},{"code":"062031700","name":"藤岡","lat":38.769399,"lng":139.916893},{"code":"062031710","name":"須走","lat":38.781164,"lng":139.919407},{"code":"062031720","name":"三和","lat":38.775763,"lng":139.930916},{"code":"06203173014","name":"添川字米山","lat":38.73187,"lng":139.977997},{"code":"06203173015","name":"添川字楯ノ沢","lat":38.740164,"lng":139.965375},{"code":"06203173016","name":"添川字楯ノ沢","lat":38.740633,"lng":139.961533},{"code":"06203173017","name":"添川字池苗代","lat":38.743335,"lng":139.96196},{"code":"06203173018","name":"添川字麹ケ沢","lat":38.748674,"lng":139.965414},{"code":"06203174019","name":"鷺畑字道合","lat":38.746398,"lng":139.950172},{"code":"06203174020","name":"鷺畑字佐渡端","lat":38.749747,"lng":139.940639},{"code":"06203175021","name":"東堀越字桔梗出","lat":38.735553,"lng":139.944218},{"code":"06203175022","name":"東堀越字中田","lat":38.731768,"lng":139.93453},{"code":"06203176023","name":"蛸井興屋字一本木","lat":38.732418,"lng":139.926703},{"code":"06203176025","name":"蛸井興屋字水尻","lat":38.74506,"lng":139.931733},{"code":"062031770","name":"上中野目","lat":38.743109,"lng":139.923723},{"code":"062031780","name":"平足","lat":38.750536,"lng":139.92708},{"code":"06203179027","name":"川尻字上ノ前","lat":38.749851,"lng":139.930066},{"code":"06203179028","name":"川尻字上ノ前","lat":38.750384,"lng":139.934162},{"code":"062031800","name":"工藤","lat":38.755196,"lng":139.926237},{"code":"062031810","name":"無音","lat":38.759328,"lng":139.933656},{"code":"062031820","name":"藤島関根","lat":38.760883,"lng":139.942898},{"code":"062031830","name":"楪","lat":38.768229,"lng":139.939942},{"code":"06203184033","name":"八色木字西野","lat":38.786353,"lng":139.901172},{"code":"06203184034","name":"八色木字平田","lat":38.796901,"lng":139.904793},{"code":"062031850","name":"豊栄","lat":38.79275,"lng":139.892304},{"code":"062031860","name":"小中島","lat":38.786849,"lng":139.912034},{"code":"06203187037","name":"長沼字上新田","lat":38.799294,"lng":139.881131},{"code":"06203187038","name":"長沼字宮前","lat":38.802799,"lng":139.874265},{"code":"06203187039","name":"長沼字宮前","lat":38.805221,"lng":139.872842},{"code":"06203187040","name":"長沼字宮前","lat":38.80614,"lng":139.876048},{"code":"06203187041","name":"長沼字宮前","lat":38.807476,"lng":139.884148},{"code":"06203187042","name":"長沼字宮東","lat":38.81419,"lng":139.878157},{"code":"06203187043","name":"長沼字宮東","lat":38.818739,"lng":139.870043},{"code":"06203187044","name":"長沼字十文字","lat":38.810833,"lng":139.892592},{"code":"06203188045","name":"渡前字中道","lat":38.749328,"lng":139.886609},{"code":"06203188046","name":"渡前字下谷地","lat":38.755366,"lng":139.889298},{"code":"062031890","name":"和名川","lat":38.757518,"lng":139.87665},{"code":"062031900","name":"砂塚","lat":38.755288,"lng":139.872201},{"code":"06203191049","name":"上藤島字三文字","lat":38.762472,"lng":139.881966},{"code":"06203191050","name":"上藤島字鎧田畑","lat":38.765637,"lng":139.89406},{"code":"062031920","name":"新屋敷","lat":38.769951,"lng":139.887155},{"code":"06203193052","name":"平形字前田元","lat":38.776638,"lng":139.897644},{"code":"06203193053","name":"平形字耳取","lat":38.779602,"lng":139.889467},{"code":"06203194054","name":"荒俣字谷地田","lat":38.729871,"lng":139.881495},{"code":"06203194055","name":"荒俣字仲川原","lat":38.735118,"lng":139.887581},{"code":"06203195056","name":"宝徳字西鴨田","lat":38.737753,"lng":139.880535},{"code":"06203195057","name":"宝徳字粕巻","lat":38.745407,"lng":139.877997},{"code":"062031960","name":"幕野内","lat":38.744051,"lng":139.872979},{"code":"062031970","name":"大半田","lat":38.744541,"lng":139.861854},{"code":"06203198056","name":"箕升新田字西新田","lat":38.741827,"lng":139.882003},{"code":"06203198059","name":"箕升新田","lat":38.74355,"lng":139.886525},{"code":"062031990","name":"柳久瀬","lat":38.739269,"lng":139.896817},{"code":"06203200061","name":"藤の花１丁目","lat":38.773184,"lng":139.908514},{"code":"06203200062","name":"藤の花２丁目","lat":38.773229,"lng":139.906413},{"code":"06203201063","name":"藤浪１丁目全域","lat":38.761621,"lng":139.896468},{"code":"06203201064","name":"藤浪２丁目全域","lat":38.762145,"lng":139.901792},{"code":"06203201065","name":"藤浪３丁目全域","lat":38.759426,"lng":139.896739},{"code":"06203201066","name":"藤浪４丁目全域","lat":38.760254,"lng":139.901252},{"code":"06203201067","name":"藤浪５丁目全域","lat":38.761757,"lng":139.90598},{"code":"06203202018","name":"羽黒町荒川字堤下","lat":38.72817,"lng":139.901347},{"code":"06203202019","name":"羽黒町荒川字上ノ山","lat":38.718466,"lng":139.908174},{"code":"06203202020","name":"羽黒町荒川字西田","lat":38.721992,"lng":139.897832},{"code":"06203202021","name":"羽黒町荒川字家ノ下","lat":38.715118,"lng":139.893325},{"code":"06203202023","name":"羽黒町荒川字白山","lat":38.711424,"lng":139.90069},{"code":"06203202025","name":"羽黒町荒川字水沢","lat":38.660922,"lng":139.936703},{"code":"062032030","name":"羽黒町野荒町","lat":38.720018,"lng":139.916222},{"code":"062032040","name":"羽黒町中里","lat":38.725155,"lng":139.917759},{"code":"062032050","name":"羽黒町戸野","lat":38.722374,"lng":139.926922},{"code":"062032060","name":"羽黒町坂ノ下","lat":38.722423,"lng":139.933011},{"code":"062032070","name":"羽黒町十文字","lat":38.71844,"lng":139.924405},{"code":"062032080","name":"羽黒町野田","lat":38.714301,"lng":139.8967},{"code":"062032090","name":"羽黒町仙道","lat":38.704096,"lng":139.908311},{"code":"062032100","name":"羽黒町増川新田","lat":38.710288,"lng":139.918704},{"code":"06203211006","name":"羽黒町市野山字猿田","lat":38.711973,"lng":139.924041},{"code":"06203211032","name":"羽黒町市野山字山王林","lat":38.716243,"lng":139.928809},{"code":"06203212004","name":"羽黒町玉川字玉川","lat":38.709749,"lng":139.937382},{"code":"06203212031","name":"羽黒町玉川字袋樋","lat":38.706344,"lng":139.945739},{"code":"062032130","name":"羽黒町大口","lat":38.708369,"lng":139.930447},{"code":"06203214001","name":"羽黒町川代字上川代","lat":38.666845,"lng":139.962832},{"code":"06203214002","name":"羽黒町川代字中川代","lat":38.672762,"lng":139.948472},{"code":"06203214003","name":"羽黒町川代字下川代","lat":38.692115,"lng":139.941145},{"code":"06203214026","name":"羽黒町川代字向山","lat":38.681593,"lng":139.920627},{"code":"06203214027","name":"羽黒町川代字川代山","lat":38.69484,"lng":139.921755},{"code":"06203214028","name":"羽黒町川代字川代山","lat":38.696432,"lng":139.929465},{"code":"06203214029","name":"羽黒町川代字八森","lat":38.691275,"lng":139.915171},{"code":"06203214030","name":"羽黒町川代字桜ケ丘","lat":38.679306,"lng":139.934404},{"code":"06203214033","name":"羽黒町川代字海谷森","lat":38.650271,"lng":139.961634},{"code":"062032150","name":"羽黒町小増川","lat":38.735383,"lng":139.906195},{"code":"062032160","name":"羽黒町金森目","lat":38.741532,"lng":139.907642},{"code":"062032170","name":"羽黒町町屋","lat":38.735465,"lng":139.920205},{"code":"062032180","name":"羽黒町染興屋","lat":38.731816,"lng":139.915129},{"code":"062032190","name":"羽黒町川行","lat":38.729466,"lng":139.909503},{"code":"06203220147","name":"羽黒町猪俣新田字中台","lat":38.696005,"lng":139.896333},{"code":"06203220148","name":"羽黒町猪俣新田字田屋前","lat":38.710664,"lng":139.886946},{"code":"062032202","name":"羽黒町松ヶ岡","lat":38.696082,"lng":139.88611},{"code":"06203221046","name":"羽黒町上野新田字上台","lat":38.686787,"lng":139.904313},{"code":"06203221061","name":"羽黒町上野新田字東山","lat":38.665718,"lng":139.922943},{"code":"062032220","name":"羽黒町富沢","lat":38.72787,"lng":139.891272},{"code":"062032230","name":"羽黒町昼田","lat":38.725662,"lng":139.883222},{"code":"062032240","name":"羽黒町黒瀬","lat":38.718566,"lng":139.885735},{"code":"06203225041","name":"羽黒町後田字柳原","lat":38.709786,"lng":139.871017},{"code":"06203225042","name":"羽黒町後田字中田","lat":38.708107,"lng":139.878459},{"code":"06203225043","name":"羽黒町後田字谷地田","lat":38.715253,"lng":139.876731},{"code":"06203225044","name":"羽黒町後田","lat":38.719594,"lng":139.870471},{"code":"062032260","name":"羽黒町高寺","lat":38.700189,"lng":139.874688},{"code":"062032270","name":"羽黒町石野新田","lat":38.705488,"lng":139.863503},{"code":"062032280","name":"羽黒町馬渡ノ内下","lat":38.704219,"lng":139.869118},{"code":"062032290","name":"羽黒町押口","lat":38.738997,"lng":139.853954},{"code":"062032300","name":"羽黒町細谷","lat":38.735335,"lng":139.865976},{"code":"062032310","name":"羽黒町狩谷野目","lat":38.726043,"lng":139.875292},{"code":"062032320","name":"羽黒町三ツ橋","lat":38.726329,"lng":139.865313},{"code":"062032330","name":"羽黒町赤川","lat":38.72743,"lng":139.855828},{"code":"062032340","name":"羽黒町松尾","lat":38.715527,"lng":139.862851},{"code":"06203235071","name":"羽黒町手向字手向","lat":38.698824,"lng":139.963994},{"code":"06203235072","name":"羽黒町手向字手向","lat":38.703402,"lng":139.96573},{"code":"06203235073","name":"羽黒町手向字手向","lat":38.703584,"lng":139.960402},{"code":"06203235074","name":"羽黒町手向字手向","lat":38.709875,"lng":139.96041},{"code":"06203235075","name":"羽黒町手向字手向","lat":38.712113,"lng":139.959419},{"code":"06203235076","name":"羽黒町手向字手向","lat":38.713999,"lng":139.958817},{"code":"06203235077","name":"羽黒町手向字手向","lat":38.716846,"lng":139.959073},{"code":"06203235078","name":"羽黒町手向字手向","lat":38.714311,"lng":139.953784},{"code":"06203235079","name":"羽黒町手向字伽藍林","lat":38.723197,"lng":139.953795},{"code":"06203235080","name":"羽黒町手向字薬師沢","lat":38.716534,"lng":139.946158},{"code":"06203235081","name":"羽黒町手向字羽黒山","lat":38.629693,"lng":139.984247},{"code":"06203235082","name":"羽黒町手向字水呑沢","lat":38.67395,"lng":139.969248},{"code":"06203235083","name":"羽黒町手向字薬師沢","lat":38.720148,"lng":139.937713},{"code":"06203235084","name":"羽黒町手向字薬師沢","lat":38.718264,"lng":139.941472},{"code":"062032360","name":"上山添","lat":38.680772,"lng":139.843318},{"code":"062032370","name":"中田","lat":38.669484,"lng":139.839414},{"code":"06203238003","name":"常盤木字臼井","lat":38.661632,"lng":139.840892},{"code":"06203238004","name":"常盤木字木原","lat":38.661068,"lng":139.846896},{"code":"06203239004","name":"西荒屋字蕨野","lat":38.654985,"lng":139.843347},{"code":"06203239005","name":"西荒屋字柳沢","lat":38.648558,"lng":139.837909},{"code":"06203240006","name":"板井川字宮の下","lat":38.64305,"lng":139.841385},{"code":"06203240007","name":"板井川","lat":38.640976,"lng":139.811863},{"code":"062032410","name":"西片屋","lat":38.641714,"lng":139.855197},{"code":"06203242009","name":"東荒屋字上荒屋","lat":38.653713,"lng":139.853174},{"code":"06203242010","name":"東荒屋字押切","lat":38.666233,"lng":139.852977},{"code":"062032430","name":"桂荒俣","lat":38.673233,"lng":139.851469},{"code":"06203244012","name":"下山添字一里塚","lat":38.694052,"lng":139.839915},{"code":"06203244013","name":"下山添字一里塚","lat":38.691974,"lng":139.837104},{"code":"06203245013","name":"丸岡字町の内","lat":38.678154,"lng":139.832164},{"code":"06203245014","name":"丸岡字町ノ内","lat":38.679349,"lng":139.835267},{"code":"062032460","name":"三千刈","lat":38.681499,"lng":139.853014},{"code":"06203247015","name":"黒川字椿出","lat":38.663788,"lng":139.86928},{"code":"06203247016","name":"黒川字上の山","lat":38.662738,"lng":139.874199},{"code":"06203247017","name":"黒川字椿出","lat":38.656456,"lng":139.875952},{"code":"06203247018","name":"黒川字宮の下","lat":38.666133,"lng":139.873003},{"code":"06203247019","name":"黒川字春日山","lat":38.668888,"lng":139.883065},{"code":"06203247020","name":"黒川字大杉川原","lat":38.666241,"lng":139.865227},{"code":"06203247021","name":"黒川字漆原","lat":38.684127,"lng":139.870223},{"code":"06203247022","name":"黒川字大杉","lat":38.679272,"lng":139.868747},{"code":"06203247023","name":"大字黒川字大杉川原","lat":38.679082,"lng":139.862511},{"code":"06203247024","name":"黒川字成沢","lat":38.675465,"lng":139.886123},{"code":"06203248025","name":"松根字下松根","lat":38.649224,"lng":139.868935},{"code":"06203248026","name":"松根字中松根","lat":38.652158,"lng":139.860834},{"code":"06203248027","name":"松根字上松根","lat":38.641214,"lng":139.864738},{"code":"062032490","name":"宝谷","lat":38.647489,"lng":139.892756},{"code":"06203250029","name":"たらのき代字桃平","lat":38.663804,"lng":139.900385},{"code":"06203250030","name":"たらのき代字桃平","lat":38.667746,"lng":139.898543},{"code":"06203250031","name":"たらのき代字西野","lat":38.653853,"lng":139.915669},{"code":"06203250032","name":"たらのき代","lat":38.63047,"lng":139.921839},{"code":"062032510","name":"田代","lat":38.683697,"lng":139.884434},{"code":"062032520","name":"馬渡","lat":38.690987,"lng":139.869564},{"code":"06203253001","name":"大鳥字誉谷","lat":38.489334,"lng":139.767218},{"code":"06203253002","name":"大鳥字繁岡","lat":38.470957,"lng":139.771425},{"code":"06203253003","name":"大鳥字寿岡","lat":38.471119,"lng":139.759983},{"code":"06203253004","name":"大鳥字松ヶ崎","lat":38.465065,"lng":139.758904},{"code":"06203254005","name":"荒沢字狩籠","lat":38.505136,"lng":139.783308},{"code":"06203254006","name":"荒沢字鱒渕","lat":38.501186,"lng":139.801991},{"code":"062032550","name":"倉沢","lat":38.526654,"lng":139.777706},{"code":"062032560","name":"上田沢","lat":38.520693,"lng":139.788635},{"code":"06203257009","name":"下田沢字大平","lat":38.533644,"lng":139.815999},{"code":"06203257010","name":"下田沢字樫岡","lat":38.536274,"lng":139.795268},{"code":"062032580","name":"松沢","lat":38.547652,"lng":139.792217},{"code":"06203259012","name":"大針字間門","lat":38.563811,"lng":139.824019},{"code":"06203259013","name":"大針字小松沢口","lat":38.547755,"lng":139.807626},{"code":"06203259014","name":"大針字沖ノ前","lat":38.552214,"lng":139.812534},{"code":"062032600","name":"砂川","lat":38.577577,"lng":139.827317},{"code":"062032610","name":"行沢","lat":38.585848,"lng":139.830336},{"code":"06203262017","name":"本郷字細越","lat":38.607645,"lng":139.830742},{"code":"06203262018","name":"本郷字田の沢口","lat":38.593732,"lng":139.827559},{"code":"062032630","name":"上名川","lat":38.58736,"lng":139.859074},{"code":"06203264020","name":"下名川字落合","lat":38.610499,"lng":139.836089},{"code":"06203264021","name":"下名川字村東","lat":38.598966,"lng":139.842822},{"code":"06203265022","name":"熊出字下村","lat":38.635585,"lng":139.840048},{"code":"06203265023","name":"熊出字黒沢","lat":38.630334,"lng":139.84032},{"code":"06203265024","name":"熊出字南俣","lat":38.619328,"lng":139.835},{"code":"062032660","name":"田麦俣","lat":38.572584,"lng":139.927646},{"code":"06203267026","name":"大網字七五三掛","lat":38.602147,"lng":139.886618},{"code":"06203267027","name":"大網字古田","lat":38.599383,"lng":139.89583},{"code":"06203267028","name":"大網字大清水","lat":38.591959,"lng":139.903544},{"code":"06203267029","name":"大網字東大石","lat":38.587588,"lng":139.908612},{"code":"06203267030","name":"大網字興屋","lat":38.587829,"lng":139.89402},{"code":"06203268031","name":"越中山字三栗屋","lat":38.592072,"lng":139.850783},{"code":"06203268032","name":"越中山字谷口","lat":38.610429,"lng":139.841525},{"code":"06203268033","name":"越中山字中入","lat":38.611336,"lng":139.845932},{"code":"06203268034","name":"越中山字村田","lat":38.611577,"lng":139.852852},{"code":"06203268035","name":"越中山字谷口","lat":38.620148,"lng":139.851588},{"code":"062032690","name":"中野新田","lat":38.622907,"lng":139.844983},{"code":"06203270037","name":"東岩本字野中","lat":38.628088,"lng":139.849094},{"code":"06203270038","name":"東岩本字漆原","lat":38.625516,"lng":139.855938},{"code":"06203270039","name":"東岩本字沖田","lat":38.633345,"lng":139.855277},{"code":"06203270040","name":"東岩本字田中","lat":38.630606,"lng":139.858786},{"code":"06203272004","name":"温海字釜谷坂","lat":38.617744,"lng":139.58279},{"code":"06203272005","name":"温海字温福","lat":38.623098,"lng":139.589944},{"code":"06203272006","name":"温海字暮坪","lat":38.644009,"lng":139.597075},{"code":"06203273002","name":"湯温海字湯之尻","lat":38.613217,"lng":139.614133},{"code":"06203273003","name":"湯温海字湯之里","lat":38.613027,"lng":139.600112},{"code":"062032740","name":"一霞","lat":38.602365,"lng":139.64378},{"code":"06203275012","name":"大岩川字白岩","lat":38.611265,"lng":139.577241},{"code":"06203275013","name":"大岩川字木揚場","lat":38.604327,"lng":139.578587},{"code":"062032760","name":"槙代","lat":38.597124,"lng":139.595348},{"code":"06203277007","name":"五十川字黒滝","lat":38.659535,"lng":139.606817},{"code":"06203277008","name":"五十川字浜千鳥","lat":38.669992,"lng":139.622666},{"code":"06203277009","name":"五十川字安土","lat":38.666644,"lng":139.635232},{"code":"06203277011","name":"五十川字千鳥越","lat":38.659997,"lng":139.629042},{"code":"062032780","name":"小菅野代","lat":38.646206,"lng":139.623802},{"code":"062032790","name":"山五十川","lat":38.651163,"lng":139.655609},{"code":"062032800","name":"戸沢","lat":38.637438,"lng":139.692088},{"code":"062032810","name":"菅野代","lat":38.623366,"lng":139.718303},{"code":"062032820","name":"温海川","lat":38.593113,"lng":139.684975},{"code":"06203283035","name":"小国字川向","lat":38.572543,"lng":139.643548},{"code":"06203283036","name":"小国字西山","lat":38.586559,"lng":139.618513},{"code":"06203284021","name":"鼠ケ関字横路","lat":38.557999,"lng":139.550706},{"code":"06203284022","name":"鼠ケ関字橋掛","lat":38.548868,"lng":139.575845},{"code":"06203285023","name":"小名部字角間台","lat":38.538166,"lng":139.610778},{"code":"06203285024","name":"小名部字平沢","lat":38.536187,"lng":139.632725},{"code":"062032860","name":"早田","lat":38.575849,"lng":139.55834},{"code":"062032870","name":"小岩川","lat":38.592437,"lng":139.566269},{"code":"062032880","name":"木野俣","lat":38.564585,"lng":139.688144},{"code":"062032890","name":"越沢","lat":38.550844,"lng":139.689768},{"code":"062032900","name":"関川","lat":38.583883,"lng":139.66667},{"code":"062032910","name":"みずほ","lat":38.711712,"lng":139.734897}]}
