{"municipality":"06204","name":"酒田市","prefecture":"山形県","source":{"dataset":"frogcat/japan-small-area","census":"平成27年国勢調査 小地域（e-Stat 統計LOD）","license":"MIT（リポジトリ）／政府統計の総合窓口(e-Stat)の利用規約（元データ・出典表記必要）","fetched":"2026-07-06"},"towns":[{"code":"06204001001","name":"船場町１丁目","lat":38.917047,"lng":139.829593},{"code":"06204001002","name":"船場町２丁目","lat":38.914819,"lng":139.830302},{"code":"06204002001","name":"日吉町１丁目","lat":38.92093,"lng":139.832616},{"code":"06204002002","name":"日吉町２丁目","lat":38.918691,"lng":139.831042},{"code":"06204003001","name":"南新町１丁目","lat":38.92064,"lng":139.828588},{"code":"06204003002","name":"南新町２丁目","lat":38.920973,"lng":139.825525},{"code":"06204004001","name":"北新町１丁目","lat":38.923751,"lng":139.832178},{"code":"06204004002","name":"北新町２丁目","lat":38.923389,"lng":139.828865},{"code":"062040050","name":"北今町","lat":38.923991,"lng":139.834766},{"code":"062040060","name":"北里町","lat":38.925743,"lng":139.835543},{"code":"062040070","name":"住吉町","lat":38.928981,"lng":139.835148},{"code":"06204008001","name":"光ケ丘１丁目","lat":38.928236,"lng":139.831603},{"code":"06204008002","name":"光ケ丘２丁目","lat":38.926629,"lng":139.828167},{"code":"06204008003","name":"光ケ丘３丁目","lat":38.932273,"lng":139.828664},{"code":"06204008004","name":"光ケ丘４丁目","lat":38.937417,"lng":139.82745},{"code":"06204008005","name":"光ケ丘５丁目","lat":38.93499,"lng":139.824298},{"code":"06204009001","name":"大浜１丁目","lat":38.926456,"lng":139.821901},{"code":"06204009002","name":"大浜２丁目","lat":38.931563,"lng":139.814111},{"code":"062040100","name":"西野町","lat":38.936576,"lng":139.838929},{"code":"062040110","name":"泉町","lat":38.932244,"lng":139.844637},{"code":"062040120","name":"北千日町","lat":38.933406,"lng":139.838821},{"code":"062040130","name":"千日町","lat":38.929247,"lng":139.83925},{"code":"062040140","name":"南千日町","lat":38.925999,"lng":139.838665},{"code":"062040150","name":"栄町","lat":38.923438,"lng":139.838054},{"code":"062040160","name":"御成町","lat":38.923989,"lng":139.841284},{"code":"062040170","name":"寿町","lat":38.920331,"lng":139.835671},{"code":"062040180","name":"中央東町","lat":38.919616,"lng":139.83929},{"code":"062040190","name":"中央西町","lat":38.920353,"lng":139.837683},{"code":"06204020001","name":"相生町１丁目","lat":38.918631,"lng":139.84304},{"code":"06204020002","name":"相生町２丁目","lat":38.91922,"lng":139.841099},{"code":"06204021001","name":"幸町１丁目","lat":38.921392,"lng":139.846107},{"code":"06204021002","name":"幸町２丁目","lat":38.92306,"lng":139.843626},{"code":"06204022001","name":"浜田１丁目","lat":38.91762,"lng":139.846496},{"code":"06204022002","name":"浜田２丁目","lat":38.92012,"lng":139.849634},{"code":"062040230","name":"旭新町","lat":38.923555,"lng":139.851243},{"code":"062040240","name":"新井田町","lat":38.914674,"lng":139.844475},{"code":"062040250","name":"一番町","lat":38.915226,"lng":139.842035},{"code":"062040260","name":"二番町","lat":38.915601,"lng":139.840067},{"code":"06204027001","name":"中町１丁目","lat":38.916237,"lng":139.838123},{"code":"06204027002","name":"中町２丁目","lat":38.916913,"lng":139.835945},{"code":"06204027003","name":"中町３丁目","lat":38.917506,"lng":139.833933},{"code":"062040280","name":"上本町","lat":38.911805,"lng":139.840726},{"code":"06204029001","name":"本町１丁目","lat":38.912706,"lng":139.838747},{"code":"06204029002","name":"本町２丁目","lat":38.913758,"lng":139.836867},{"code":"06204029003","name":"本町３丁目","lat":38.914793,"lng":139.833973},{"code":"062040300","name":"東栄町","lat":38.913887,"lng":139.846761},{"code":"062040310","name":"若浜町","lat":38.913625,"lng":139.849542},{"code":"062040320","name":"緑町","lat":38.911947,"lng":139.852392},{"code":"062040330","name":"末広町","lat":38.909343,"lng":139.849558},{"code":"062040340","name":"東中の口町","lat":38.91102,"lng":139.845159},{"code":"06204035001","name":"亀ケ崎１丁目","lat":38.908874,"lng":139.841635},{"code":"06204035002","name":"亀ケ崎２丁目","lat":38.907072,"lng":139.845496},{"code":"06204035003","name":"亀ケ崎３丁目","lat":38.903418,"lng":139.845329},{"code":"06204035004","name":"亀ケ崎４丁目","lat":38.901354,"lng":139.842396},{"code":"06204035005","name":"亀ケ崎５丁目","lat":38.899227,"lng":139.849769},{"code":"06204035006","name":"亀ケ崎６丁目","lat":38.898196,"lng":139.845658},{"code":"06204035007","name":"亀ケ崎７丁目","lat":38.8967,"lng":139.849624},{"code":"06204036001","name":"千石町１丁目","lat":38.907999,"lng":139.838002},{"code":"06204036002","name":"千石町２丁目","lat":38.90488,"lng":139.838828},{"code":"06204037001","name":"山居町１丁目","lat":38.911042,"lng":139.836293},{"code":"06204037002","name":"山居町２丁目","lat":38.910721,"lng":139.833798},{"code":"062040380","name":"入船町","lat":38.908554,"lng":139.831361},{"code":"062040390","name":"堤町","lat":38.902354,"lng":139.833387},{"code":"06204040001","name":"若竹町１丁目","lat":38.905961,"lng":139.835457},{"code":"06204040002","name":"若竹町２丁目","lat":38.902026,"lng":139.837193},{"code":"062040410","name":"若原町","lat":38.898548,"lng":139.839325},{"code":"062040420","name":"両羽町","lat":38.893465,"lng":139.842554},{"code":"06204043001","name":"新橋１丁目","lat":38.920916,"lng":139.855024},{"code":"06204043002","name":"新橋２丁目","lat":38.918308,"lng":139.854863},{"code":"06204043003","name":"新橋３丁目","lat":38.917112,"lng":139.851466},{"code":"06204043004","name":"新橋４丁目","lat":38.91541,"lng":139.853824},{"code":"06204043005","name":"新橋５丁目","lat":38.914392,"lng":139.856817},{"code":"06204044001","name":"東大町１丁目","lat":38.910584,"lng":139.855687},{"code":"06204044002","name":"東大町２丁目","lat":38.908032,"lng":139.854646},{"code":"06204044003","name":"東大町３丁目","lat":38.90481,"lng":139.860757},{"code":"06204045001","name":"駅東１丁目","lat":38.925743,"lng":139.845542},{"code":"06204045002","name":"駅東２丁目","lat":38.924893,"lng":139.848467},{"code":"06204046001","name":"東町１丁目","lat":38.909052,"lng":139.861221},{"code":"06204046002","name":"東町２丁目","lat":38.906699,"lng":139.85986},{"code":"062040470","name":"東両羽町","lat":38.894092,"lng":139.849829},{"code":"06204048001","name":"東泉町１丁目","lat":38.928825,"lng":139.845244},{"code":"06204048002","name":"東泉町２丁目","lat":38.928315,"lng":139.85075},{"code":"06204048003","name":"東泉町３丁目","lat":38.931525,"lng":139.847819},{"code":"06204048004","name":"東泉町４丁目","lat":38.931482,"lng":139.852446},{"code":"06204048005","name":"東泉町５丁目","lat":38.933967,"lng":139.850635},{"code":"06204048006","name":"東泉町６丁目","lat":38.936049,"lng":139.852882},{"code":"062040490","name":"北浜町","lat":38.943931,"lng":139.828829},{"code":"062040500","name":"松美町","lat":38.941243,"lng":139.830081},{"code":"062040511","name":"高砂","lat":38.943873,"lng":139.823426},{"code":"06204051201","name":"高砂１丁目","lat":38.94105,"lng":139.825664},{"code":"06204051202","name":"高砂２丁目","lat":38.941993,"lng":139.822367},{"code":"06204051203","name":"高砂３丁目","lat":38.943115,"lng":139.824489},{"code":"06204051204","name":"高砂４丁目","lat":38.945561,"lng":139.824514},{"code":"062040520","name":"北千日堂前","lat":38.934513,"lng":139.835532},{"code":"062040530","name":"浜松町","lat":38.937355,"lng":139.82117},{"code":"062040540","name":"古湊町","lat":38.948362,"lng":139.826805},{"code":"06204055101","name":"大町字大野","lat":38.895714,"lng":139.887506},{"code":"06204055102","name":"大町字出雲","lat":38.893632,"lng":139.871247},{"code":"062040552","name":"大町","lat":38.906009,"lng":139.853461},{"code":"062040560","name":"四ツ興野","lat":38.905506,"lng":139.866711},{"code":"062040570","name":"遊摺部","lat":38.88389,"lng":139.878925},{"code":"062040581","name":"大宮","lat":38.887421,"lng":139.86093},{"code":"06204059201","name":"宮野浦１丁目","lat":38.906291,"lng":139.817835},{"code":"06204059202","name":"宮野浦２丁目","lat":38.905977,"lng":139.81397},{"code":"06204059203","name":"宮野浦３丁目","lat":38.910767,"lng":139.81241},{"code":"06204059301","name":"飯森山１丁目","lat":38.895421,"lng":139.820975},{"code":"06204059302","name":"飯森山２丁目","lat":38.889544,"lng":139.824479},{"code":"06204059303","name":"飯森山３丁目","lat":38.894401,"lng":139.817793},{"code":"06204059401","name":"宮野浦字下瀬","lat":38.914677,"lng":139.824173},{"code":"06204059402","name":"宮野浦字山下","lat":38.892581,"lng":139.828714},{"code":"06204059404","name":"宮野浦字家岸","lat":38.902704,"lng":139.82577},{"code":"062040595","name":"宮野浦","lat":38.885244,"lng":139.820621},{"code":"06204060001","name":"酒井新田字水口","lat":38.939433,"lng":139.835681},{"code":"06204060002","name":"酒井新田字山ノ下","lat":38.939129,"lng":139.840819},{"code":"06204061001","name":"若宮町１丁目","lat":38.902383,"lng":139.812978},{"code":"06204061002","name":"若宮町２丁目","lat":38.898914,"lng":139.810893},{"code":"06204062001","name":"北新橋１丁目","lat":38.923366,"lng":139.855713},{"code":"06204062002","name":"北新橋２丁目","lat":38.925718,"lng":139.856435},{"code":"06204063001","name":"富士見町１丁目","lat":38.924048,"lng":139.859701},{"code":"06204063002","name":"富士見町２丁目","lat":38.923225,"lng":139.862334},{"code":"06204063003","name":"富士見町３丁目","lat":38.921649,"lng":139.865294},{"code":"06204064001","name":"曙町１丁目","lat":38.920068,"lng":139.860636},{"code":"06204064002","name":"曙町２丁目","lat":38.919417,"lng":139.864442},{"code":"06204065001","name":"錦町１丁目","lat":38.88279,"lng":139.835291},{"code":"06204065002","name":"錦町２丁目","lat":38.881748,"lng":139.833277},{"code":"06204065003","name":"錦町３丁目","lat":38.883366,"lng":139.83167},{"code":"06204065004","name":"錦町４丁目","lat":38.877589,"lng":139.831156},{"code":"06204065005","name":"錦町５丁目","lat":38.877892,"lng":139.832895},{"code":"06204066001","name":"京田１丁目","lat":38.87949,"lng":139.840056},{"code":"06204066002","name":"京田２丁目","lat":38.878163,"lng":139.837187},{"code":"06204066003","name":"京田３丁目","lat":38.876916,"lng":139.834516},{"code":"06204066004","name":"京田４丁目","lat":38.873341,"lng":139.837149},{"code":"06204067001","name":"高見台１丁目","lat":38.902587,"lng":139.821143},{"code":"06204067002","name":"高見台２丁目","lat":38.900715,"lng":139.819063},{"code":"06204068001","name":"緑ケ丘１丁目","lat":38.900068,"lng":139.814965},{"code":"06204068002","name":"緑ケ丘２丁目","lat":38.894696,"lng":139.809208},{"code":"06204069001","name":"大宮町１丁目","lat":38.88924,"lng":139.857594},{"code":"06204069002","name":"大宮町２丁目","lat":38.884503,"lng":139.852709},{"code":"06204069003","name":"大宮町３丁目","lat":38.882182,"lng":139.859929},{"code":"06204069004","name":"大宮町４丁目","lat":38.886879,"lng":139.862221},{"code":"062040700","name":"卸町","lat":38.886502,"lng":139.856495},{"code":"06204071001","name":"上安町１丁目","lat":38.928019,"lng":139.86054},{"code":"06204071002","name":"上安町２丁目","lat":38.927632,"lng":139.863479},{"code":"06204071003","name":"上安町３丁目","lat":38.929349,"lng":139.86617},{"code":"06204072001","name":"広栄町１丁目","lat":38.865931,"lng":139.844969},{"code":"06204072002","name":"広栄町２丁目","lat":38.86224,"lng":139.845569},{"code":"06204072003","name":"広栄町３丁目","lat":38.86588,"lng":139.847733},{"code":"06204073001","name":"こがね町１丁目","lat":38.90218,"lng":139.858465},{"code":"06204073002","name":"こがね町２丁目","lat":38.898018,"lng":139.856567},{"code":"06204074001","name":"みずほ１丁目","lat":38.905239,"lng":139.849037},{"code":"06204074002","name":"みずほ２丁目","lat":38.90313,"lng":139.853523},{"code":"062040750","name":"松原南","lat":38.900323,"lng":139.853215},{"code":"062040760","name":"下安町","lat":38.9288,"lng":139.856585},{"code":"06204077001","name":"日の出町１丁目","lat":38.917707,"lng":139.860011},{"code":"06204077002","name":"日の出町２丁目","lat":38.917406,"lng":139.863707},{"code":"06204078001","name":"飛島字勝浦乙","lat":39.18672,"lng":139.542167},{"code":"06204078002","name":"飛島字中村","lat":39.196249,"lng":139.55109},{"code":"06204078003","name":"飛島字法木","lat":39.203151,"lng":139.553374},{"code":"06204078004","name":"飛島字勝浦甲","lat":39.192044,"lng":139.545295},{"code":"06204079001","name":"穂積","lat":38.956661,"lng":139.857548},{"code":"06204079002","name":"穂積字上市神","lat":38.976529,"lng":139.86267},{"code":"06204079003","name":"穂積字下市神","lat":38.970447,"lng":139.857097},{"code":"06204079004","name":"穂積字尻地","lat":38.978744,"lng":139.869689},{"code":"06204079005","name":"穂積字砂畑","lat":38.966871,"lng":139.856314},{"code":"06204079006","name":"穂積字門田","lat":38.975965,"lng":139.877065},{"code":"06204080001","name":"豊里字芦原","lat":38.94202,"lng":139.835541},{"code":"06204080002","name":"豊里字家脇","lat":38.948231,"lng":139.847432},{"code":"06204080003","name":"豊里字上割","lat":38.945798,"lng":139.840505},{"code":"06204080004","name":"豊里字下西割","lat":38.943436,"lng":139.834893},{"code":"06204080005","name":"豊里字下藤塚","lat":38.948749,"lng":139.844911},{"code":"06204080006","name":"豊里字堂脇","lat":38.945726,"lng":139.836461},{"code":"06204081001","name":"宮海字安政","lat":38.961254,"lng":139.850769},{"code":"06204081002","name":"宮海字砂飛","lat":38.977164,"lng":139.83904},{"code":"06204081003","name":"宮海字日向","lat":38.972843,"lng":139.854711},{"code":"06204081004","name":"宮海字林内","lat":38.965997,"lng":139.852528},{"code":"06204081005","name":"宮海字古川","lat":38.955039,"lng":139.848646},{"code":"06204081006","name":"宮海字南浜","lat":38.962375,"lng":139.836895},{"code":"06204081007","name":"宮海字向砂畑","lat":38.974707,"lng":139.846866},{"code":"06204081008","name":"宮海字村東","lat":38.978522,"lng":139.84491},{"code":"06204081009","name":"宮海字明治","lat":38.948347,"lng":139.841495},{"code":"06204082001","name":"藤塚字北畑","lat":38.963593,"lng":139.855564},{"code":"06204082002","name":"藤塚字元和里","lat":38.956756,"lng":139.852385},{"code":"06204082003","name":"藤塚字下谷地","lat":38.951826,"lng":139.848022},{"code":"06204082004","name":"藤塚字中畑","lat":38.959624,"lng":139.85405},{"code":"06204082005","name":"藤塚字南畑","lat":38.953735,"lng":139.850583},{"code":"06204083000","name":"丸沼","lat":38.872716,"lng":139.892909},{"code":"06204083001","name":"丸沼字二枚田","lat":38.872835,"lng":139.89281},{"code":"06204084001","name":"新堀字呉福","lat":38.871806,"lng":139.877098},{"code":"06204084002","name":"新堀字聖之宮","lat":38.873016,"lng":139.872286},{"code":"06204084003","name":"新堀字船附","lat":38.874779,"lng":139.883132},{"code":"06204084004","name":"新堀字前岡","lat":38.871917,"lng":139.882781},{"code":"06204085000","name":"落野目","lat":38.874047,"lng":139.862531},{"code":"06204085001","name":"落野目字新田","lat":38.879477,"lng":139.846082},{"code":"06204085002","name":"落野目字広野","lat":38.884267,"lng":139.839938},{"code":"06204085003","name":"落野目字十寸穂","lat":38.872282,"lng":139.867072},{"code":"06204086001","name":"木川字東中道","lat":38.867589,"lng":139.879764},{"code":"06204086002","name":"木川字松之里","lat":38.861578,"lng":139.882472},{"code":"06204087000","name":"門田","lat":38.860647,"lng":139.873846},{"code":"06204087001","name":"門田字寿福","lat":38.856525,"lng":139.883519},{"code":"06204088000","name":"局","lat":38.851891,"lng":139.885241},{"code":"06204088002","name":"局字未谷地","lat":38.855663,"lng":139.880682},{"code":"062040890","name":"板戸","lat":38.862394,"lng":139.86417},{"code":"06204090001","name":"広野字井戸錆","lat":38.866299,"lng":139.841824},{"code":"06204090002","name":"広野字林","lat":38.842856,"lng":139.840396},{"code":"06204090003","name":"広野字榎橋","lat":38.854291,"lng":139.849737},{"code":"06204090004","name":"広野字大渕","lat":38.84838,"lng":139.855466},{"code":"06204090005","name":"広野字奥井","lat":38.871978,"lng":139.832155},{"code":"06204090006","name":"広野字上通","lat":38.844754,"lng":139.849605},{"code":"06204090007","name":"広野字下中村","lat":38.858503,"lng":139.83937},{"code":"06204090008","name":"広野字興屋","lat":38.830504,"lng":139.843058},{"code":"06204090009","name":"広野字三本柳","lat":38.831527,"lng":139.837478},{"code":"06204090010","name":"広野字下通","lat":38.850126,"lng":139.850671},{"code":"06204090011","name":"広野字十五軒","lat":38.858144,"lng":139.846866},{"code":"06204090012","name":"広野字末広","lat":38.84974,"lng":139.845867},{"code":"06204090013","name":"広野字大日塚","lat":38.845033,"lng":139.846965},{"code":"06204090014","name":"広野字中通","lat":38.846166,"lng":139.851422},{"code":"06204090015","name":"広野字福岡","lat":38.826329,"lng":139.850088},{"code":"062040910","name":"広野新田","lat":38.828883,"lng":139.83741},{"code":"06204092000","name":"浜中","lat":38.817895,"lng":139.803072},{"code":"06204092001","name":"浜中字新林","lat":38.837567,"lng":139.797495},{"code":"06204092002","name":"浜中甲","lat":38.823956,"lng":139.781035},{"code":"06204092003","name":"浜中乙","lat":38.83016,"lng":139.78256},{"code":"06204092004","name":"浜中字小浜","lat":38.84063,"lng":139.813877},{"code":"06204092005","name":"浜中字小林","lat":38.813938,"lng":139.780641},{"code":"06204092006","name":"浜中字八間山","lat":38.847694,"lng":139.793838},{"code":"06204092007","name":"浜中字分散山","lat":38.822189,"lng":139.776414},{"code":"06204092008","name":"浜中字細縄","lat":38.825251,"lng":139.8077},{"code":"062040930","name":"広岡新田","lat":38.825416,"lng":139.806281},{"code":"06204094000","name":"黒森","lat":38.854748,"lng":139.801345},{"code":"06204094001","name":"黒森字一番割","lat":38.847602,"lng":139.82395},{"code":"06204094002","name":"黒森字草刈谷地","lat":38.846491,"lng":139.818846},{"code":"06204094003","name":"黒森字鏥","lat":38.852073,"lng":139.819685},{"code":"06204094004","name":"黒森丁","lat":38.851992,"lng":139.817265},{"code":"06204094005","name":"黒森字泊山","lat":38.846252,"lng":139.815835},{"code":"06204094006","name":"黒森字谷地中","lat":38.858014,"lng":139.820303},{"code":"06204095002","name":"坂野辺新田甲","lat":38.870981,"lng":139.823507},{"code":"06204095003","name":"坂野辺新田乙","lat":38.874899,"lng":139.826479},{"code":"06204095004","name":"坂野辺新田字地続山","lat":38.867364,"lng":139.816684},{"code":"06204095005","name":"坂野辺新田字葉萱","lat":38.859756,"lng":139.821883},{"code":"06204095006","name":"坂野辺新田字東狢山","lat":38.874402,"lng":139.82522},{"code":"06204095007","name":"坂野辺新田字古川","lat":38.880528,"lng":139.830197},{"code":"06204095008","name":"坂野辺新田丙","lat":38.875067,"lng":139.82022},{"code":"06204095009","name":"坂野辺新田字一番割","lat":38.867964,"lng":139.823133},{"code":"06204095010","name":"坂野辺新田字二番割","lat":38.872731,"lng":139.824053},{"code":"06204096001","name":"十里塚甲","lat":38.879152,"lng":139.800002},{"code":"06204096002","name":"十里塚乙","lat":38.881574,"lng":139.799875},{"code":"06204096003","name":"十里塚丙","lat":38.88145,"lng":139.8061},{"code":"06204096004","name":"十里塚字村東山","lat":38.87733,"lng":139.816349},{"code":"06204096005","name":"十里塚字村東山北","lat":38.886285,"lng":139.806205},{"code":"06204097000","name":"生石","lat":38.928218,"lng":139.946238},{"code":"06204097001","name":"生石字大平","lat":38.925789,"lng":139.956188},{"code":"06204097002","name":"生石字関道","lat":38.927047,"lng":139.938039},{"code":"06204097003","name":"生石字滝野沢","lat":38.912189,"lng":139.940318},{"code":"06204097004","name":"生石字登路田","lat":38.920896,"lng":139.940663},{"code":"06204097005","name":"生石字二ツ山","lat":38.917485,"lng":139.939661},{"code":"06204097006","name":"生石字矢口","lat":38.923909,"lng":139.939244},{"code":"06204098001","name":"北沢字新川作","lat":38.940164,"lng":139.935792},{"code":"06204098002","name":"北沢字鍋倉","lat":38.937233,"lng":139.936246},{"code":"06204098003","name":"北沢字仁枚田","lat":38.931941,"lng":139.937092},{"code":"06204098004","name":"北沢字深谷","lat":38.92753,"lng":139.95647},{"code":"062040990","name":"境興野","lat":38.941121,"lng":139.919135},{"code":"062041000","name":"関","lat":38.934001,"lng":139.920076},{"code":"062041010","name":"横代","lat":38.921173,"lng":139.918814},{"code":"062041020","name":"大槻新田","lat":38.917216,"lng":139.919727},{"code":"06204103001","name":"手蔵田字蔵南","lat":38.91452,"lng":139.901996},{"code":"06204103002","name":"手蔵田字村建","lat":38.915966,"lng":139.910931},{"code":"062041040","name":"熊野田","lat":38.916919,"lng":139.895519},{"code":"062041050","name":"荻島","lat":38.918327,"lng":139.886064},{"code":"062041060","name":"中野新田","lat":38.910235,"lng":139.88664},{"code":"06204107001","name":"勝保関字北波加伊","lat":38.902761,"lng":139.887281},{"code":"06204107002","name":"勝保関字前","lat":38.904125,"lng":139.881379},{"code":"062041080","name":"大野新田","lat":38.899565,"lng":139.882015},{"code":"062041090","name":"小牧","lat":38.897422,"lng":139.891357},{"code":"062041100","name":"茨野新田","lat":38.899282,"lng":139.906019},{"code":"062041110","name":"小牧新田","lat":38.899591,"lng":139.89721},{"code":"06204112101","name":"こあら１丁目","lat":38.915848,"lng":139.862738},{"code":"06204112102","name":"こあら２丁目","lat":38.914331,"lng":139.860999},{"code":"06204112103","name":"こあら３丁目","lat":38.912155,"lng":139.861841},{"code":"062041122","name":"古荒新田","lat":38.913404,"lng":139.867734},{"code":"06204113000","name":"土崎","lat":38.909885,"lng":139.900435},{"code":"06204113001","name":"土崎字屋敷添","lat":38.912366,"lng":139.874546},{"code":"062041140","name":"本川","lat":38.9024,"lng":139.906413},{"code":"062041150","name":"大多新田","lat":38.917809,"lng":139.868617},{"code":"06204116001","name":"熊手島字熊興屋","lat":38.903678,"lng":139.899175},{"code":"06204116002","name":"熊手島字下福島","lat":38.905067,"lng":139.893517},{"code":"06204117001","name":"漆曽根字上田元","lat":38.937385,"lng":139.889153},{"code":"06204117002","name":"漆曽根字腰廻","lat":38.932393,"lng":139.887484},{"code":"06204117003","name":"漆曽根字四合田","lat":38.930117,"lng":139.883814},{"code":"06204117004","name":"漆曽根字西田","lat":38.933578,"lng":139.884166},{"code":"06204117005","name":"漆曽根字余の免","lat":38.92961,"lng":139.886283},{"code":"062041180","name":"新青渡","lat":38.925543,"lng":139.896512},{"code":"062041190","name":"久保田","lat":38.927294,"lng":139.906213},{"code":"062041200","name":"曽根田","lat":38.930612,"lng":139.906528},{"code":"06204121000","name":"古青渡","lat":38.926771,"lng":139.901827},{"code":"06204121001","name":"古青渡字古青渡","lat":38.934449,"lng":139.905788},{"code":"062041220","name":"円能寺","lat":38.937301,"lng":139.9086},{"code":"062041230","name":"布目","lat":38.935584,"lng":139.900755},{"code":"062041240","name":"中野曽根","lat":38.9339,"lng":139.881415},{"code":"06204125000","name":"牧曽根","lat":38.929583,"lng":139.883551},{"code":"06204125001","name":"牧曽根字宮ノ越","lat":38.936671,"lng":139.876186},{"code":"062041260","name":"上興野","lat":38.941909,"lng":139.890232},{"code":"062041270","name":"刈穂","lat":38.96137,"lng":139.912072},{"code":"06204128000","name":"安田","lat":38.950769,"lng":139.902079},{"code":"06204128001","name":"安田字高野","lat":38.946768,"lng":139.893606},{"code":"06204128002","name":"安田字村上","lat":38.948525,"lng":139.898259},{"code":"06204128003","name":"安田字芳岡","lat":38.952601,"lng":139.895902},{"code":"06204129001","name":"上野曽根字上中割","lat":38.942795,"lng":139.886149},{"code":"06204129002","name":"上野曽根字下北割","lat":38.94333,"lng":139.878182},{"code":"062041300","name":"鶴田","lat":38.940616,"lng":139.878398},{"code":"06204131000","name":"吉田新田","lat":38.943686,"lng":139.872141},{"code":"06204131001","name":"吉田新田字堰中瀬","lat":38.940855,"lng":139.866242},{"code":"062041320","name":"吉田","lat":38.947279,"lng":139.875665},{"code":"062041330","name":"上安田","lat":38.953658,"lng":139.906162},{"code":"06204134000","name":"本楯","lat":38.965277,"lng":139.885941},{"code":"06204134001","name":"本楯字新田目","lat":38.967299,"lng":139.887785},{"code":"06204134002","name":"本楯字地正免","lat":38.963983,"lng":139.888767},{"code":"06204134003","name":"本楯字広面","lat":38.967083,"lng":139.892558},{"code":"06204134004","name":"本楯字南広面","lat":38.967974,"lng":139.882955},{"code":"06204134005","name":"本楯字割前","lat":38.970008,"lng":139.88615},{"code":"06204135001","name":"城輪字跡遣","lat":38.963211,"lng":139.905712},{"code":"06204135002","name":"城輪字宮形","lat":38.965862,"lng":139.910737},{"code":"06204136001","name":"刈屋字館ノ内","lat":38.976172,"lng":139.906984},{"code":"06204136002","name":"刈屋字堂ノ前","lat":38.976285,"lng":139.898261},{"code":"062041370","name":"豊原","lat":38.963213,"lng":139.8963},{"code":"062041380","name":"大豊田","lat":38.968212,"lng":139.919897},{"code":"06204139001","name":"保岡字下草田","lat":38.962077,"lng":139.887139},{"code":"06204139002","name":"保岡字道ケ塚","lat":38.960166,"lng":139.871041},{"code":"06204139003","name":"保岡字前田","lat":38.961149,"lng":139.879874},{"code":"06204139004","name":"保岡字村添","lat":38.95866,"lng":139.877728},{"code":"06204139005","name":"保岡字村東","lat":38.953538,"lng":139.876904},{"code":"06204139006","name":"保岡字屋敷添","lat":38.951543,"lng":139.86747},{"code":"06204140001","name":"庭田字中村","lat":38.955409,"lng":139.885388},{"code":"06204140002","name":"庭田字馬場","lat":38.959648,"lng":139.883315},{"code":"06204141001","name":"宮内字一口","lat":38.983486,"lng":139.888263},{"code":"06204141002","name":"宮内字六ツ新田","lat":38.98618,"lng":139.869245},{"code":"06204141003","name":"宮内字本楯","lat":38.988083,"lng":139.891681},{"code":"06204142000","name":"千代田","lat":38.990564,"lng":139.882947},{"code":"06204142001","name":"千代田字諏訪面","lat":38.991234,"lng":139.892005},{"code":"06204142002","name":"千代田字宅田","lat":38.991115,"lng":139.896099},{"code":"06204142003","name":"千代田字外野","lat":38.98967,"lng":139.889619},{"code":"06204142004","name":"千代田字西谷地","lat":38.997706,"lng":139.870572},{"code":"06204143000","name":"米島","lat":38.983861,"lng":139.89869},{"code":"06204143001","name":"米島字中草田","lat":38.988726,"lng":139.897326},{"code":"06204143002","name":"米島字下中道","lat":38.986868,"lng":139.897279},{"code":"06204143003","name":"米島字中広面","lat":38.982258,"lng":139.903819},{"code":"06204143004","name":"米島字樋の口","lat":38.989326,"lng":139.906204},{"code":"06204143005","name":"米島字前門","lat":38.98613,"lng":139.913647},{"code":"06204143006","name":"米島字宮の前","lat":38.979265,"lng":139.896001},{"code":"062041460","name":"あきほ町","lat":38.889947,"lng":139.850742},{"code":"06204147001","name":"ゆたか１丁目","lat":38.934337,"lng":139.843279},{"code":"06204147002","name":"ゆたか２丁目","lat":38.9372,"lng":139.845663},{"code":"06204147003","name":"ゆたか３丁目","lat":38.937732,"lng":139.849768},{"code":"06204148000","name":"市条字横枕","lat":38.955317,"lng":139.9345},{"code":"06204148001","name":"市条字山本","lat":38.964055,"lng":139.941893},{"code":"06204148002","name":"市条字山本","lat":38.963641,"lng":139.93637},{"code":"06204148003","name":"市条字村ノ前","lat":38.964366,"lng":139.933195},{"code":"06204148005","name":"市条字小平","lat":38.949056,"lng":139.94985},{"code":"06204148010","name":"市条字堂田","lat":38.957326,"lng":139.931091},{"code":"062041490","name":"法連寺","lat":38.964491,"lng":139.928201},{"code":"062041500","name":"大島田","lat":38.955301,"lng":139.91615},{"code":"062041510","name":"政所","lat":38.960018,"lng":139.923209},{"code":"062041520","name":"岡島田","lat":38.949715,"lng":139.919067},{"code":"062041530","name":"前川","lat":38.944808,"lng":139.91256},{"code":"062041540","name":"南平沢","lat":38.944658,"lng":139.934622},{"code":"062041550","name":"北平沢","lat":38.948158,"lng":139.938568},{"code":"062041560","name":"寺田","lat":38.953569,"lng":139.936618},{"code":"06204157013","name":"常禅寺字濁沢","lat":38.974846,"lng":139.959428},{"code":"06204157014","name":"常禅寺字前山","lat":38.961334,"lng":139.961005},{"code":"06204158015","name":"麓字楯山","lat":38.978547,"lng":139.946878},{"code":"06204158016","name":"麓字楯ノ腰","lat":38.970911,"lng":139.948341},{"code":"06204158017","name":"麓字荒町","lat":38.968803,"lng":139.944402},{"code":"06204159018","name":"観音寺字町","lat":38.971427,"lng":139.942714},{"code":"06204159019","name":"観音寺字前田","lat":38.972076,"lng":139.940419},{"code":"06204159020","name":"観音寺字町","lat":38.973007,"lng":139.937658},{"code":"06204160021","name":"小泉字上川原","lat":38.967795,"lng":139.937629},{"code":"06204160022","name":"小泉字前田","lat":38.970941,"lng":139.93008},{"code":"06204160023","name":"小泉字前田","lat":38.969338,"lng":139.935079},{"code":"062041610","name":"大久保","lat":38.97869,"lng":139.922146},{"code":"062041620","name":"塚渕","lat":38.979458,"lng":139.91301},{"code":"062041630","name":"芹田","lat":38.981987,"lng":139.930376},{"code":"062041640","name":"北仁田","lat":38.975623,"lng":139.933687},{"code":"06204165032","name":"大蕨字西","lat":38.969236,"lng":139.970844},{"code":"06204165033","name":"大蕨字後口山","lat":38.965384,"lng":139.982047},{"code":"06204165035","name":"大蕨字脇","lat":38.965677,"lng":139.988923},{"code":"06204165037","name":"大蕨字上黒沢","lat":38.966838,"lng":139.995492},{"code":"06204165038","name":"大蕨字二タ子","lat":38.96684,"lng":140.00416},{"code":"06204165039","name":"大蕨字若神子","lat":38.967328,"lng":140.015494},{"code":"06204166030","name":"下青沢字山添","lat":38.964967,"lng":139.966842},{"code":"06204166031","name":"下青沢字日潟","lat":38.960724,"lng":139.97565},{"code":"06204166034","name":"下青沢字大平沢","lat":38.956449,"lng":139.988102},{"code":"06204166036","name":"下青沢字君畑","lat":38.960876,"lng":140.000233},{"code":"06204166039","name":"下青沢字草田","lat":38.962461,"lng":140.012317},{"code":"06204167041","name":"上青沢字三保六","lat":38.965088,"lng":140.023717},{"code":"06204167042","name":"上青沢字向芦沢","lat":38.964339,"lng":140.03594},{"code":"06204167043","name":"上青沢字姥ケ沢","lat":38.955479,"lng":140.04733},{"code":"06204168041","name":"北青沢字李代","lat":38.968408,"lng":140.025408},{"code":"06204168042","name":"北青沢字李代","lat":38.976714,"lng":140.02842},{"code":"06204168044","name":"北青沢字塚沢","lat":38.969415,"lng":140.050134},{"code":"06204168061","name":"北青沢字白玉","lat":38.95224,"lng":139.994267},{"code":"062041690","name":"橋本","lat":38.979988,"lng":139.934329},{"code":"06204170047","name":"福山字村上","lat":38.991072,"lng":139.954705},{"code":"06204170048","name":"福山字内山","lat":38.985138,"lng":139.948613},{"code":"062041710","name":"新出","lat":38.992994,"lng":139.972478},{"code":"062041720","name":"赤剥","lat":38.991362,"lng":139.99472},{"code":"062041730","name":"泥沢","lat":38.989918,"lng":140.017135},{"code":"06204174052","name":"升田字貝沢","lat":39.008409,"lng":140.047825},{"code":"06204174053","name":"升田字東向","lat":38.999914,"lng":140.035605},{"code":"06204174054","name":"升田字沼田","lat":39.000738,"lng":140.054082},{"code":"06204174059","name":"升田字大台野","lat":39.014576,"lng":140.041662},{"code":"06204174061","name":"升田奥山","lat":38.989937,"lng":140.08268},{"code":"06204175055","name":"草津字下タ川原","lat":38.996981,"lng":140.020104},{"code":"06204175056","name":"草津字鉢森","lat":38.992472,"lng":140.009367},{"code":"06204175060","name":"草津字湯ノ台","lat":39.02806,"lng":140.034161},{"code":"062041760","name":"上黒川","lat":38.995251,"lng":139.997101},{"code":"06204177058","name":"下黒川字六角","lat":38.99667,"lng":139.975433},{"code":"06204177061","name":"下黒川","lat":39.050831,"lng":140.060456},{"code":"062041900","name":"上餅山","lat":38.885575,"lng":139.967007},{"code":"062041910","name":"柏谷沢","lat":38.827412,"lng":140.000132},{"code":"062041920","name":"大沼新田","lat":38.826244,"lng":139.972106},{"code":"06204193001","name":"下餅山字村下","lat":38.882996,"lng":139.956019},{"code":"06204193002","name":"茗ヶ沢字前畑","lat":38.879438,"lng":139.953379},{"code":"06204194001","name":"茗ヶ沢字前畑","lat":38.87877,"lng":139.958155},{"code":"06204194002","name":"茗ヶ沢字沢尻","lat":38.87749,"lng":139.965583},{"code":"06204194003","name":"土渕字早房","lat":38.876835,"lng":139.962335},{"code":"06204194004","name":"相沢鶴牧","lat":38.875944,"lng":139.951969},{"code":"06204195001","name":"土渕字新田町","lat":38.872136,"lng":139.963082},{"code":"06204195002","name":"土渕字早房","lat":38.871573,"lng":139.957976},{"code":"06204195003","name":"土渕字湯ノ沢","lat":38.866492,"lng":139.966368},{"code":"06204195004","name":"土渕字赤戸","lat":38.872755,"lng":139.961964},{"code":"06204196001","name":"引地字宅地","lat":38.870289,"lng":139.951184},{"code":"06204196002","name":"引地字高田","lat":38.874863,"lng":139.951633},{"code":"06204197001","name":"竹田字清水下","lat":38.858234,"lng":139.951419},{"code":"06204197002","name":"竹田字猿田","lat":38.861603,"lng":139.953899},{"code":"06204197003","name":"竹田字藤里","lat":38.86497,"lng":139.954863},{"code":"06204197004","name":"竹田字下川原","lat":38.856824,"lng":139.9438},{"code":"06204197005","name":"竹田字竹ノ下","lat":38.864426,"lng":139.948683},{"code":"06204197006","name":"引地字宅地","lat":38.866239,"lng":139.948126},{"code":"06204197007","name":"中牧田字山岸","lat":38.865694,"lng":139.946228},{"code":"06204198001","name":"中北目字村立","lat":38.893194,"lng":139.965547},{"code":"06204198002","name":"中北目字高田","lat":38.893131,"lng":139.964303},{"code":"06204198003","name":"中北目字宮ノ下","lat":38.893219,"lng":139.958504},{"code":"06204198004","name":"中北目字岸田","lat":38.890859,"lng":139.966142},{"code":"06204199001","name":"上北目字谷地田","lat":38.892699,"lng":139.973035},{"code":"06204199002","name":"上北目字中田","lat":38.889518,"lng":139.977132},{"code":"06204200001","name":"小見字欠ノ上","lat":38.891095,"lng":139.958131},{"code":"06204200002","name":"小見字グミノ木田","lat":38.888432,"lng":139.960508},{"code":"06204200003","name":"小見字早房","lat":38.888129,"lng":139.952477},{"code":"06204200004","name":"小見字樋掛","lat":38.886976,"lng":139.956934},{"code":"06204200005","name":"小見字岡畑","lat":38.885218,"lng":139.950958},{"code":"06204201001","name":"石名坂字金坂","lat":38.883405,"lng":139.943989},{"code":"06204201002","name":"石名坂字宮野下","lat":38.884828,"lng":139.938947},{"code":"06204202001","name":"相沢字南森","lat":38.877104,"lng":139.947187},{"code":"06204202002","name":"相沢字鶴牧","lat":38.875537,"lng":139.950723},{"code":"06204202003","name":"相沢字道脇","lat":38.878183,"lng":139.937487},{"code":"06204202004","name":"相沢字宮下","lat":38.881063,"lng":139.94367},{"code":"06204202005","name":"相沢字新田","lat":38.879124,"lng":139.94302},{"code":"06204202006","name":"相沢字沢脇","lat":38.877072,"lng":139.941795},{"code":"06204202007","name":"相沢字北森","lat":38.878408,"lng":139.947561},{"code":"06204203001","name":"中牧田字山岸","lat":38.86679,"lng":139.945745},{"code":"06204203002","name":"中牧田字前田","lat":38.871241,"lng":139.941698},{"code":"06204203003","name":"中牧田字谷地","lat":38.874555,"lng":139.941676},{"code":"06204203004","name":"中牧田字丸福","lat":38.875361,"lng":139.93928},{"code":"06204203005","name":"相沢字南森","lat":38.869588,"lng":139.946004},{"code":"06204204001","name":"地見興屋字村東","lat":38.811265,"lng":139.997957},{"code":"06204204002","name":"地見興屋字前割","lat":38.813004,"lng":139.989627},{"code":"06204204003","name":"地見興屋字名ヶ沢","lat":38.815495,"lng":139.991689},{"code":"06204204004","name":"地見興屋字下谷地","lat":38.812614,"lng":139.99348},{"code":"06204204005","name":"地見興屋字試畑","lat":38.816474,"lng":139.988801},{"code":"06204205001","name":"大川渡字五反割","lat":38.806335,"lng":139.999407},{"code":"06204205002","name":"大川渡字村上","lat":38.799446,"lng":139.997858},{"code":"06204206001","name":"成興野字海道内","lat":38.793707,"lng":140.017152},{"code":"06204206002","name":"成興野字上堰内","lat":38.797467,"lng":140.017711},{"code":"06204206003","name":"成興野字村下","lat":38.806047,"lng":140.006814},{"code":"06204206004","name":"成興野字堰内","lat":38.798332,"lng":140.006176},{"code":"06204207001","name":"山寺字宅地","lat":38.84974,"lng":139.952279},{"code":"06204207002","name":"山寺字笹山","lat":38.851122,"lng":139.964},{"code":"06204207003","name":"山寺字見初沢","lat":38.848369,"lng":139.96518},{"code":"06204207004","name":"山寺字上野原","lat":38.845499,"lng":139.967124},{"code":"06204207005","name":"山寺字弁財","lat":38.841307,"lng":139.951411},{"code":"06204207006","name":"山寺字小出池ノ尻","lat":38.835845,"lng":139.961791},{"code":"06204207007","name":"山寺字欠ノ上","lat":38.839099,"lng":139.967849},{"code":"06204207008","name":"山寺字侍楯","lat":38.830506,"lng":139.973248},{"code":"06204208001","name":"臼ヶ沢字朝割","lat":38.819019,"lng":139.972697},{"code":"06204208002","name":"臼ヶ沢字内畑","lat":38.82643,"lng":139.977148},{"code":"06204208003","name":"臼ヶ沢字池田通","lat":38.820098,"lng":139.983679},{"code":"06204208004","name":"臼ヶ沢字大割","lat":38.818727,"lng":139.979388},{"code":"062042090","name":"小林","lat":38.832177,"lng":140.010304},{"code":"062042100","name":"西坂本","lat":38.850147,"lng":140.002011},{"code":"062042110","name":"山元","lat":38.852445,"lng":140.008412},{"code":"062042120","name":"楯山","lat":38.87266,"lng":140.007838},{"code":"06204213004","name":"田沢字田沢新田","lat":38.861025,"lng":139.991141},{"code":"06204213006","name":"田沢字小女房","lat":38.868765,"lng":139.992826},{"code":"06204213007","name":"田沢字南田沢","lat":38.876735,"lng":139.981999},{"code":"06204213008","name":"田沢字寺ノ下","lat":38.885794,"lng":139.986054},{"code":"06204214009","name":"中野俣字四十八坂","lat":38.904849,"lng":140.03118},{"code":"06204214010","name":"中野俣字村北","lat":38.903502,"lng":140.025224},{"code":"06204214011","name":"中野俣字沢山","lat":38.901777,"lng":140.019724},{"code":"06204214012","name":"中野俣字中里","lat":38.900094,"lng":140.01648},{"code":"06204214013","name":"中野俣字家ノ前，字笹下","lat":38.897466,"lng":140.007869},{"code":"06204214014","name":"中野俣字見渡前","lat":38.898768,"lng":140.000321},{"code":"06204215015","name":"北俣字海ケ沢","lat":38.930465,"lng":140.03049},{"code":"06204215016","name":"北俣字岩代","lat":38.922918,"lng":140.026659},{"code":"06204215017","name":"北俣字丸山村","lat":38.922179,"lng":140.015075},{"code":"06204215018","name":"北俣字西野沢","lat":38.917815,"lng":140.013962},{"code":"06204215019","name":"北俣字吉ケ沢","lat":38.914374,"lng":140.002636},{"code":"06204215020","name":"北俣字中川原","lat":38.909606,"lng":140.006107},{"code":"06204215021","name":"北俣字上中村","lat":38.903495,"lng":139.997026},{"code":"06204215022","name":"北俣字小平沢","lat":38.896594,"lng":139.985601},{"code":"06204216023","name":"山谷字三ケ沢","lat":38.897646,"lng":139.971911},{"code":"06204216040","name":"山谷","lat":38.876026,"lng":140.049191},{"code":"062042170","name":"山谷新田","lat":38.902076,"lng":139.963203},{"code":"06204218025","name":"楢橋字新山","lat":38.893054,"lng":139.954389},{"code":"06204218026","name":"楢橋字荒町","lat":38.891948,"lng":139.941723},{"code":"06204218041","name":"楢橋字大柳","lat":38.892277,"lng":139.949966},{"code":"062042190","name":"山楯","lat":38.904742,"lng":139.946516},{"code":"062042200","name":"中野目","lat":38.905907,"lng":139.931918},{"code":"062042210","name":"郡山","lat":38.907479,"lng":139.926729},{"code":"062042220","name":"桜林","lat":38.904322,"lng":139.918027},{"code":"062042230","name":"桜林興野","lat":38.909198,"lng":139.921606},{"code":"062042240","name":"石橋","lat":38.902557,"lng":139.914179},{"code":"062042250","name":"天神堂","lat":38.898064,"lng":139.91439},{"code":"062042260","name":"泉興野","lat":38.898116,"lng":139.92246},{"code":"062042270","name":"堀野内","lat":38.896391,"lng":139.929117},{"code":"062042280","name":"三之宮","lat":38.897334,"lng":139.933607},{"code":"062042290","name":"飛鳥","lat":38.88568,"lng":139.926654},{"code":"062042300","name":"砂越","lat":38.889048,"lng":139.899887},{"code":"062042310","name":"砂越緑町","lat":38.895161,"lng":139.911604},{"code":"06204232001","name":"字片町","lat":38.863337,"lng":139.959283},{"code":"06204232002","name":"字北町","lat":38.862327,"lng":139.961892},{"code":"06204232003","name":"字新屋敷","lat":38.860479,"lng":139.961101},{"code":"06204232004","name":"字内町","lat":38.858729,"lng":139.960504},{"code":"06204232005","name":"字新町","lat":38.859712,"lng":139.95563},{"code":"06204232006","name":"字金谷","lat":38.860597,"lng":139.955978},{"code":"06204232007","name":"字肴町","lat":38.858613,"lng":139.956572},{"code":"06204232008","name":"字山田","lat":38.858336,"lng":139.953488},{"code":"06204232009","name":"字本町","lat":38.856927,"lng":139.957424},{"code":"06204232010","name":"字蔵小路","lat":38.857215,"lng":139.958003},{"code":"06204232011","name":"字西田","lat":38.854707,"lng":139.954831},{"code":"06204232012","name":"字総光寺沢","lat":38.859205,"lng":139.965899},{"code":"06204232013","name":"字仲町","lat":38.856741,"lng":139.96103},{"code":"06204232014","name":"字稲荷沢","lat":38.857847,"lng":139.962972},{"code":"06204232015","name":"字南町","lat":38.855306,"lng":139.960454},{"code":"06204232016","name":"字元新屋敷","lat":38.855127,"lng":139.962451},{"code":"06204232017","name":"字南新屋敷","lat":38.853117,"lng":139.962374},{"code":"06204232018","name":"字真学寺沢","lat":38.853993,"lng":139.963131},{"code":"06204232019","name":"字荒町","lat":38.854543,"lng":139.959019}]}
