{"municipality":"06302","name":"東村山郡中山町","prefecture":"山形県","source":{"dataset":"frogcat/japan-small-area","census":"平成27年国勢調査 小地域（e-Stat 統計LOD）","license":"MIT（リポジトリ）／政府統計の総合窓口(e-Stat)の利用規約（元データ・出典表記必要）","fetched":"2026-07-06"},"towns":[{"code":"063020010","name":"大字長崎","lat":38.33953,"lng":140.290005},{"code":"063020020","name":"大字達磨寺","lat":38.323328,"lng":140.287985},{"code":"063020030","name":"大字向新田","lat":38.316172,"lng":140.289379},{"code":"063020040","name":"いずみ","lat":38.339995,"lng":140.276268},{"code":"063020050","name":"大字小塩","lat":38.349859,"lng":140.265148},{"code":"063020060","name":"大字岡","lat":38.343558,"lng":140.251473},{"code":"063020070","name":"大字土橋","lat":38.333346,"lng":140.258177},{"code":"063020080","name":"大字柳沢","lat":38.325935,"lng":140.256303},{"code":"063020090","name":"大字金沢","lat":38.324615,"lng":140.233947},{"code":"063020100","name":"あおば","lat":38.337732,"lng":140.283611}]}
