{"municipality":"06323","name":"西村山郡朝日町","prefecture":"山形県","source":{"dataset":"frogcat/japan-small-area","census":"平成27年国勢調査 小地域（e-Stat 統計LOD）","license":"MIT（リポジトリ）／政府統計の総合窓口(e-Stat)の利用規約（元データ・出典表記必要）","fetched":"2026-07-06"},"towns":[{"code":"06323001001","name":"大字宮宿本町","lat":38.305686,"lng":140.14438},{"code":"06323001002","name":"大字宮宿西町","lat":38.305089,"lng":140.141358},{"code":"06323001003","name":"大字宮宿栄町","lat":38.293672,"lng":140.143765},{"code":"06323001004","name":"大字宮宿助ノ巻","lat":38.297801,"lng":140.137563},{"code":"06323001005","name":"大字宮宿大町","lat":38.300555,"lng":140.149692},{"code":"06323001006","name":"大字宮宿元町","lat":38.303714,"lng":140.149351},{"code":"06323001007","name":"大字宮宿西原","lat":38.307431,"lng":140.149426},{"code":"06323001008","name":"大字宮宿前田沢","lat":38.300557,"lng":140.160916},{"code":"06323001009","name":"大字宮宿新宿","lat":38.300222,"lng":140.152441},{"code":"06323002030","name":"大字常盤常盤","lat":38.286871,"lng":140.126456},{"code":"06323002031","name":"大字常盤夏草","lat":38.297241,"lng":140.124017},{"code":"06323003050","name":"大字大谷大谷一","lat":38.346614,"lng":140.164949},{"code":"06323003051","name":"大字大谷大谷二","lat":38.351029,"lng":140.148049},{"code":"06323003052","name":"大字大谷大谷三","lat":38.338545,"lng":140.151724},{"code":"06323003053","name":"大字大谷大谷四","lat":38.342511,"lng":140.165577},{"code":"06323003054","name":"大字大谷大谷五","lat":38.343827,"lng":140.169452},{"code":"06323003055","name":"大字大谷大谷六","lat":38.351567,"lng":140.170443},{"code":"06323003056","name":"大字大谷大谷七","lat":38.34867,"lng":140.179435},{"code":"06323003060","name":"大字大谷栗木沢","lat":38.339103,"lng":140.174052},{"code":"06323004009","name":"大字新宿新宿","lat":38.292377,"lng":140.154487},{"code":"06323004010","name":"大字新宿緑町","lat":38.298926,"lng":140.151807},{"code":"063230050","name":"大字四ノ沢","lat":38.308717,"lng":140.161893},{"code":"06323006011","name":"大字和合小原","lat":38.319286,"lng":140.162348},{"code":"06323006012","name":"大字和合宿","lat":38.321432,"lng":140.167048},{"code":"06323006013","name":"大字和合沼向","lat":38.325669,"lng":140.170168},{"code":"06323006014","name":"大字和合平","lat":38.319057,"lng":140.184859},{"code":"06323006015","name":"大字和合大隅","lat":38.32992,"lng":140.172506},{"code":"063230070","name":"大字古槇","lat":38.308787,"lng":140.178239},{"code":"063230080","name":"大字送橋","lat":38.298547,"lng":140.181891},{"code":"063230090","name":"大字下芦沢","lat":38.286717,"lng":140.167103},{"code":"063230100","name":"大字水本","lat":38.263165,"lng":140.151904},{"code":"06323011020","name":"大字杉山杉山","lat":38.256942,"lng":140.11804},{"code":"06323011021","name":"大字杉山松原","lat":38.265099,"lng":140.124796},{"code":"063230120","name":"大字上郷","lat":38.269795,"lng":140.138993},{"code":"063230130","name":"大字大滝","lat":38.281983,"lng":140.143785},{"code":"063230140","name":"大字雪谷","lat":38.293817,"lng":140.130276},{"code":"06323015031","name":"大字三中夏草","lat":38.300215,"lng":140.128514},{"code":"06323015033","name":"大字三中西船渡","lat":38.303614,"lng":140.134466},{"code":"06323015034","name":"大字三中八ツ沼","lat":38.312044,"lng":140.127038},{"code":"06323015035","name":"大字三中能中","lat":38.316856,"lng":140.144514},{"code":"06323015036","name":"大字三中高田","lat":38.312257,"lng":140.110079},{"code":"063230160","name":"大字長沼","lat":38.301918,"lng":140.114923},{"code":"06323017037","name":"大字太郎太郎一","lat":38.284987,"lng":140.111383},{"code":"06323017038","name":"大字太郎太郎二","lat":38.289162,"lng":140.10434},{"code":"06323017039","name":"大字太郎太郎三","lat":38.291133,"lng":140.095218},{"code":"063230180","name":"大字石須部","lat":38.304592,"lng":140.100494},{"code":"063230190","name":"大字立木","lat":38.260226,"lng":140.004122},{"code":"063230200","name":"大字白倉","lat":38.305432,"lng":140.065488},{"code":"063230210","name":"大字松程","lat":38.276811,"lng":140.119689},{"code":"063230220","name":"大字大船木","lat":38.268591,"lng":140.097886},{"code":"063230230","name":"大字今平","lat":38.254127,"lng":140.088428},{"code":"063230240","name":"大字馬神","lat":38.340293,"lng":140.167295},{"code":"063230250","name":"大字中沢","lat":38.350374,"lng":140.19044},{"code":"06323026058","name":"大字玉ノ井真中","lat":38.340943,"lng":140.183807},{"code":"06323026059","name":"大字玉ノ井舟渡","lat":38.333439,"lng":140.181803},{"code":"06323026060","name":"大字玉ノ井栗木沢","lat":38.335183,"lng":140.167901},{"code":"06323026061","name":"大字玉ノ井川通","lat":38.327364,"lng":140.149288},{"code":"063230270","name":"大字大暮山","lat":38.338395,"lng":140.124565},{"code":"063230280","name":"大字大沼","lat":38.327383,"lng":140.10563}]}
