{"municipality":"06381","name":"東置賜郡高畠町","prefecture":"山形県","source":{"dataset":"frogcat/japan-small-area","census":"平成27年国勢調査 小地域（e-Stat 統計LOD）","license":"MIT（リポジトリ）／政府統計の総合窓口(e-Stat)の利用規約（元データ・出典表記必要）","fetched":"2026-07-06"},"towns":[{"code":"06381001001","name":"大字高畠大町一","lat":37.999402,"lng":140.201052},{"code":"06381001002","name":"大字高畠大町二","lat":38.001389,"lng":140.19405},{"code":"06381001003","name":"大字高畠大町三","lat":38.000338,"lng":140.189528},{"code":"06381001004","name":"大字高畠横町","lat":38.0022,"lng":140.19727},{"code":"06381001005","name":"大字高畠桜木町","lat":38.004377,"lng":140.194629},{"code":"06381001006","name":"大字高畠幸町一","lat":38.003703,"lng":140.197221},{"code":"06381001007","name":"大字高畠幸町二","lat":38.004882,"lng":140.196446},{"code":"06381001008","name":"大字高畠幸町三","lat":38.0073,"lng":140.189899},{"code":"06381001009","name":"大字高畠北目","lat":37.992181,"lng":140.238425},{"code":"06381001010","name":"大字高畠荒町一","lat":38.002388,"lng":140.200035},{"code":"06381001011","name":"大字高畠荒町二","lat":38.004081,"lng":140.199238},{"code":"06381001012","name":"大字高畠元町一","lat":38.002781,"lng":140.203262},{"code":"06381001013","name":"大字高畠元町二","lat":38.003292,"lng":140.201579},{"code":"06381001014","name":"大字高畠旭町","lat":38.005826,"lng":140.205466},{"code":"06381001022","name":"大字高畠弥生町","lat":38.003498,"lng":140.189255},{"code":"06381001033","name":"大字高畠元町三","lat":38.005514,"lng":140.201996},{"code":"06381002014","name":"大字安久津旭町","lat":38.006502,"lng":140.210222},{"code":"06381002015","name":"大字安久津御入水","lat":38.003168,"lng":140.206107},{"code":"06381002016","name":"大字安久津青葉町","lat":38.004709,"lng":140.209521},{"code":"06381002017","name":"大字安久津安久津一","lat":38.00362,"lng":140.211635},{"code":"06381002018","name":"大字安久津安久津二","lat":38.004508,"lng":140.215338},{"code":"06381002019","name":"大字安久津緑町","lat":38.00802,"lng":140.214146},{"code":"06381002020","name":"大字安久津鳥居町","lat":38.003679,"lng":140.220172},{"code":"06381002021","name":"大字安久津駄子町","lat":38.006913,"lng":140.227856},{"code":"06381002023","name":"大字安久津蛭沢","lat":38.023226,"lng":140.229905},{"code":"06381002024","name":"大字安久津入蛭沢","lat":38.03488,"lng":140.232629},{"code":"06381003030","name":"大字金原湯在家","lat":37.991579,"lng":140.230679},{"code":"06381003031","name":"大字金原熊の前","lat":37.992666,"lng":140.237431},{"code":"06381003032","name":"大字金原新田","lat":38.001128,"lng":140.246727},{"code":"063810040","name":"大字高安","lat":37.992592,"lng":140.203645},{"code":"063810050","name":"大字小郡山","lat":37.999786,"lng":140.211608},{"code":"063810060","name":"大字泉岡","lat":37.996351,"lng":140.187083},{"code":"06381007028","name":"大字塩森塩森","lat":37.990216,"lng":140.191576},{"code":"06381007029","name":"大字塩森飯森","lat":37.991947,"lng":140.1789},{"code":"06381008001","name":"大字二井宿上駄子町","lat":38.011966,"lng":140.241794},{"code":"06381008002","name":"大字二井宿弁天前","lat":38.014496,"lng":140.251852},{"code":"06381008003","name":"大字二井宿下宿","lat":38.017952,"lng":140.255129},{"code":"06381008004","name":"大字二井宿上宿","lat":38.018206,"lng":140.262311},{"code":"06381008005","name":"大字二井宿田沢","lat":38.023978,"lng":140.257206},{"code":"06381008006","name":"大字二井宿筋","lat":38.026321,"lng":140.250333},{"code":"06381008007","name":"大字二井宿中","lat":38.03603,"lng":140.252495},{"code":"06381008008","name":"大字二井宿入","lat":38.044513,"lng":140.255096},{"code":"06381009002","name":"大字竹森野手倉","lat":38.037419,"lng":140.208253},{"code":"06381009003","name":"大字竹森日向","lat":38.031859,"lng":140.187032},{"code":"06381009004","name":"大字竹森大笹生","lat":38.024318,"lng":140.198157},{"code":"06381009005","name":"大字竹森細越","lat":38.020524,"lng":140.192445},{"code":"06381009006","name":"大字竹森山越","lat":38.019865,"lng":140.18757},{"code":"06381009008","name":"大字竹森竹上","lat":38.013914,"lng":140.184908},{"code":"06381009009","name":"大字竹森竹中","lat":38.015121,"lng":140.182765},{"code":"06381009010","name":"大字竹森竹下","lat":38.019643,"lng":140.181186},{"code":"06381009011","name":"大字竹森竹向","lat":38.013351,"lng":140.180148},{"code":"06381009017","name":"大字竹森中才","lat":38.020632,"lng":140.175697},{"code":"06381010012","name":"大字深沼深上","lat":38.015124,"lng":140.171702},{"code":"06381010013","name":"大字深沼西館","lat":38.014822,"lng":140.174641},{"code":"06381010014","name":"大字深沼中組","lat":38.017025,"lng":140.169384},{"code":"06381010015","name":"大字深沼砂押","lat":38.019024,"lng":140.162666},{"code":"06381010016","name":"大字深沼大新","lat":38.025839,"lng":140.169363},{"code":"06381011018","name":"大字一本柳東本町","lat":38.007353,"lng":140.172275},{"code":"06381011019","name":"大字一本柳西本町","lat":38.010587,"lng":140.16481},{"code":"06381011020","name":"大字一本柳館の内","lat":38.004705,"lng":140.161064},{"code":"06381011021","name":"大字一本柳粡町","lat":38.002817,"lng":140.172479},{"code":"06381011022","name":"大字一本柳屋代山崎","lat":37.994016,"lng":140.16161},{"code":"06381011024","name":"大字一本柳三条目","lat":38.011826,"lng":140.179708},{"code":"06381012006","name":"大字根岸山越","lat":38.014059,"lng":140.187091},{"code":"06381012007","name":"大字根岸根岸","lat":38.012447,"lng":140.189964},{"code":"063810130","name":"大字柏木目","lat":37.997957,"lng":140.170717},{"code":"06381014022","name":"大字相森弥生町","lat":38.003366,"lng":140.183542},{"code":"06381014025","name":"大字相森相森","lat":38.000412,"lng":140.179455},{"code":"063810150","name":"大字川沼","lat":38.011348,"lng":140.157632},{"code":"063810160","name":"大字三条目","lat":38.008987,"lng":140.180361},{"code":"063810170","name":"大字時沢","lat":38.044235,"lng":140.216298},{"code":"06381018001","name":"大字亀岡亀岡一","lat":37.976485,"lng":140.180417},{"code":"06381018002","name":"大字亀岡亀岡二","lat":37.979569,"lng":140.18336},{"code":"06381018003","name":"大字亀岡亀岡三","lat":37.984601,"lng":140.182291},{"code":"06381018004","name":"大字亀岡亀岡四","lat":37.978483,"lng":140.171858},{"code":"06381018014","name":"大字亀岡文殊ヶ丘","lat":37.986721,"lng":140.184725},{"code":"06381019005","name":"大字入生田入生田南","lat":37.97561,"lng":140.161717},{"code":"06381019006","name":"大字入生田入生田西","lat":37.984284,"lng":140.154745},{"code":"06381019007","name":"大字入生田入生田北","lat":37.98271,"lng":140.165067},{"code":"06381020008","name":"大字露藤露藤上","lat":37.96476,"lng":140.162465},{"code":"06381020009","name":"大字露藤露藤中","lat":37.969822,"lng":140.153785},{"code":"06381020010","name":"大字露藤露藤下","lat":37.975686,"lng":140.154199},{"code":"063810210","name":"大字船橋","lat":37.989837,"lng":140.169123},{"code":"06381022011","name":"大字中島中島南","lat":37.956151,"lng":140.166604},{"code":"06381022012","name":"大字中島中島北","lat":37.961092,"lng":140.169266},{"code":"06381023001","name":"大字上和田上和田第一","lat":37.941564,"lng":140.223884},{"code":"06381023002","name":"大字上和田上和田第二","lat":37.947476,"lng":140.217738},{"code":"06381023003","name":"大字上和田上和田第三","lat":37.944123,"lng":140.21109},{"code":"06381023004","name":"大字上和田両組","lat":37.945078,"lng":140.198676},{"code":"06381023005","name":"大字上和田川北上","lat":37.956177,"lng":140.220922},{"code":"06381023006","name":"大字上和田海上小倉","lat":37.92967,"lng":140.197622},{"code":"06381023020","name":"大字上和田立石","lat":37.935472,"lng":140.212411},{"code":"06381024007","name":"大字元和田中和田東部","lat":37.953852,"lng":140.195934},{"code":"06381024008","name":"大字元和田中和田西部","lat":37.956266,"lng":140.189633},{"code":"06381024009","name":"大字元和田川北下","lat":37.955452,"lng":140.209867},{"code":"06381024010","name":"大字元和田元和田北","lat":37.961323,"lng":140.19572},{"code":"06381024012","name":"大字元和田下和田１２","lat":37.964453,"lng":140.184304},{"code":"06381025011","name":"大字下和田元和田西","lat":37.970192,"lng":140.183221},{"code":"06381025012","name":"大字下和田下和田１２","lat":37.960348,"lng":140.183198},{"code":"06381025013","name":"大字下和田下和田北","lat":37.96839,"lng":140.172493},{"code":"06381025014","name":"大字下和田下和田南","lat":37.961137,"lng":140.17547},{"code":"06381026015","name":"大字馬頭馬頭東","lat":37.952021,"lng":140.181321},{"code":"06381026016","name":"大字馬頭馬頭西","lat":37.954402,"lng":140.174536},{"code":"06381027017","name":"大字佐沢佐沢上","lat":37.946841,"lng":140.184972},{"code":"06381027018","name":"大字佐沢佐沢下","lat":37.947133,"lng":140.171185},{"code":"06381027019","name":"大字佐沢南佐沢","lat":37.93956,"lng":140.177096},{"code":"06381028001","name":"大字糠野目三軒屋","lat":37.971711,"lng":140.129654},{"code":"06381028002","name":"大字糠野目上町","lat":37.978845,"lng":140.136298},{"code":"06381028003","name":"大字糠野目仲町","lat":37.9823,"lng":140.140415},{"code":"06381028004","name":"大字糠野目宮町","lat":37.984976,"lng":140.141167},{"code":"06381028005","name":"大字糠野目下町","lat":37.986599,"lng":140.144794},{"code":"06381028007","name":"大字糠野目家中","lat":37.984262,"lng":140.133568},{"code":"063810290","name":"大字小其塚","lat":37.983253,"lng":140.118383},{"code":"06381030006","name":"大字上平柳共栄","lat":37.989436,"lng":140.134645},{"code":"06381030010","name":"大字上平柳上平柳","lat":37.997371,"lng":140.13255},{"code":"06381030011","name":"大字上平柳沢口","lat":37.992427,"lng":140.141061},{"code":"06381030015","name":"大字上平柳西町","lat":37.994019,"lng":140.142572},{"code":"063810310","name":"大字蛇口","lat":37.993697,"lng":140.124641},{"code":"06381032013","name":"大字山崎元山崎","lat":37.99964,"lng":140.160418},{"code":"06381032020","name":"大字山崎上山崎","lat":37.99015,"lng":140.154684},{"code":"06381033005","name":"大字福沢下町","lat":37.989349,"lng":140.147421},{"code":"06381033011","name":"大字福沢沢口","lat":37.992939,"lng":140.146633},{"code":"06381033012","name":"大字福沢駅前","lat":37.991495,"lng":140.151805},{"code":"06381033014","name":"大字福沢本町","lat":37.999458,"lng":140.151347},{"code":"06381033015","name":"大字福沢西町","lat":38.001712,"lng":140.142318},{"code":"06381034000","name":"大字夏茂","lat":38.027711,"lng":140.134592},{"code":"06381034016","name":"大字夏茂津久茂","lat":38.009839,"lng":140.147763},{"code":"06381034017","name":"大字夏茂夏刈","lat":38.010515,"lng":140.136961},{"code":"06381034018","name":"大字夏茂中瀬","lat":38.014579,"lng":140.153208},{"code":"06381035018","name":"大字石岡中瀬","lat":38.014694,"lng":140.149871},{"code":"06381035019","name":"大字石岡石岡","lat":38.019046,"lng":140.139273},{"code":"06381036005","name":"福沢南下町","lat":37.990062,"lng":140.147405},{"code":"06381036011","name":"福沢南沢口","lat":37.991125,"lng":140.147057},{"code":"06381036012","name":"福沢南駅前","lat":37.991341,"lng":140.149904}]}
