{"municipality":"06461","name":"飽海郡遊佐町","prefecture":"山形県","source":{"dataset":"frogcat/japan-small-area","census":"平成27年国勢調査 小地域（e-Stat 統計LOD）","license":"MIT（リポジトリ）／政府統計の総合窓口(e-Stat)の利用規約（元データ・出典表記必要）","fetched":"2026-07-06"},"towns":[{"code":"06461001001","name":"杉沢褄坂","lat":39.018131,"lng":139.984337},{"code":"06461001002","name":"杉沢杉沢南","lat":39.005672,"lng":139.966885},{"code":"06461001003","name":"杉沢杉沢北","lat":39.01562,"lng":139.96392},{"code":"06461001004","name":"杉沢開畑","lat":39.007176,"lng":139.954277},{"code":"06461002105","name":"上蕨岡上蕨岡","lat":38.997696,"lng":139.948801},{"code":"06461002106","name":"上蕨岡坂下","lat":38.998846,"lng":139.933436},{"code":"064610030","name":"大蕨岡","lat":38.993832,"lng":139.938922},{"code":"064610040","name":"鹿野沢","lat":39.003789,"lng":139.937711},{"code":"06461005009","name":"小原田平津","lat":39.011803,"lng":139.937417},{"code":"06461005010","name":"小原田上長橋","lat":39.006828,"lng":139.918112},{"code":"06461005011","name":"小原田下長橋","lat":39.007134,"lng":139.906709},{"code":"06461005030","name":"小原田大楯","lat":39.011451,"lng":139.924759},{"code":"06461005031","name":"小原田平津新田","lat":39.007224,"lng":139.929104},{"code":"06461006012","name":"小松上小松","lat":39.001304,"lng":139.918898},{"code":"06461006013","name":"小松下小松","lat":39.001418,"lng":139.908766},{"code":"06461007014","name":"豊岡石辻","lat":38.988636,"lng":139.9298},{"code":"06461007015","name":"豊岡三川","lat":38.992437,"lng":139.928444},{"code":"06461007016","name":"豊岡上大内","lat":38.995114,"lng":139.922398},{"code":"06461007017","name":"豊岡下大内","lat":38.99053,"lng":139.912624},{"code":"06461007018","name":"豊岡水上","lat":38.994743,"lng":139.908021},{"code":"06461008001","name":"白井新田広野","lat":39.048269,"lng":139.941605},{"code":"06461008002","name":"白井新田藤井","lat":39.04329,"lng":139.952086},{"code":"06461008003","name":"白井新田臂曲","lat":39.045227,"lng":139.962201},{"code":"06461008005","name":"白井新田岩野","lat":39.031368,"lng":139.958198},{"code":"06461009004","name":"吉出岩野","lat":39.036253,"lng":139.971746},{"code":"06461009005","name":"吉出金俣","lat":39.030634,"lng":139.968059},{"code":"06461009006","name":"吉出三ノ俣","lat":39.037604,"lng":139.990045},{"code":"06461009007","name":"吉出蚕桑","lat":39.020964,"lng":139.955528},{"code":"06461009008","name":"吉出袋地","lat":39.023836,"lng":139.944669},{"code":"06461009014","name":"吉出京田","lat":39.027605,"lng":139.90804},{"code":"06461009016","name":"吉出旭ヶ丘","lat":39.018828,"lng":139.936668},{"code":"06461009017","name":"吉出上吉出","lat":39.019257,"lng":139.928875},{"code":"06461009018","name":"吉出中吉出","lat":39.019564,"lng":139.920407},{"code":"06461009019","name":"吉出下吉出","lat":39.021208,"lng":139.913742},{"code":"06461009020","name":"吉出和田","lat":39.022108,"lng":139.909509},{"code":"06461009021","name":"吉出境田","lat":39.023388,"lng":139.910668},{"code":"06461010009","name":"野沢舞台","lat":39.025823,"lng":139.934412},{"code":"06461010010","name":"野沢野沢上","lat":39.031336,"lng":139.933679},{"code":"06461010011","name":"野沢野沢中","lat":39.02673,"lng":139.921212},{"code":"06461010012","name":"野沢野沢下","lat":39.034209,"lng":139.927681},{"code":"06461010013","name":"野沢下野沢","lat":39.031191,"lng":139.91442},{"code":"06461010014","name":"野沢京田","lat":39.028139,"lng":139.910798},{"code":"06461010015","name":"野沢京田新田","lat":39.026567,"lng":139.914592},{"code":"06461011020","name":"遊佐和田","lat":39.023345,"lng":139.907615},{"code":"06461011021","name":"遊佐漆曽根","lat":39.024389,"lng":139.901981},{"code":"06461011022","name":"遊佐尻引岡田","lat":39.017069,"lng":139.899823},{"code":"06461011023","name":"遊佐七日町","lat":39.020564,"lng":139.907447},{"code":"06461011024","name":"遊佐六日町","lat":39.017996,"lng":139.910643},{"code":"06461011025","name":"遊佐五日町","lat":39.018303,"lng":139.905934},{"code":"06461011026","name":"遊佐駅前１区","lat":39.012095,"lng":139.907041},{"code":"06461011027","name":"遊佐駅前２区","lat":39.016624,"lng":139.907332},{"code":"06461011028","name":"遊佐十日町","lat":39.015595,"lng":139.913192},{"code":"06461011029","name":"遊佐八日町","lat":39.012687,"lng":139.917515},{"code":"06461011095","name":"遊佐木ノ下","lat":39.011329,"lng":139.918605},{"code":"06461012001","name":"岩川千本柳","lat":39.001612,"lng":139.894936},{"code":"06461012002","name":"岩川田中","lat":39.005574,"lng":139.89638},{"code":"06461013003","name":"庄泉大井","lat":39.010389,"lng":139.892331},{"code":"06461013004","name":"庄泉服部","lat":39.011647,"lng":139.882416},{"code":"06461013005","name":"庄泉西谷地","lat":39.012536,"lng":139.876054},{"code":"06461013006","name":"庄泉大谷地","lat":39.004541,"lng":139.878809},{"code":"064610140","name":"増穂","lat":39.018157,"lng":139.886238},{"code":"06461015008","name":"江地江地","lat":39.025714,"lng":139.887259},{"code":"06461015009","name":"江地出戸","lat":39.023962,"lng":139.879477},{"code":"06461015010","name":"江地田地下","lat":39.03103,"lng":139.880521},{"code":"06461016011","name":"宮田楸島","lat":39.025108,"lng":139.893498},{"code":"06461016012","name":"宮田西宮田","lat":39.03364,"lng":139.885051},{"code":"06461016013","name":"宮田東宮田","lat":39.031161,"lng":139.895696},{"code":"06461016014","name":"宮田北宮田","lat":39.038996,"lng":139.888931},{"code":"06461017001","name":"藤崎茂り松","lat":38.988873,"lng":139.864108},{"code":"06461017002","name":"藤崎上藤崎一","lat":38.994052,"lng":139.865533},{"code":"06461017003","name":"藤崎上藤崎二","lat":39.000874,"lng":139.865292},{"code":"06461017004","name":"藤崎中藤崎","lat":39.010518,"lng":139.866516},{"code":"06461017005","name":"藤崎下藤崎一","lat":39.021059,"lng":139.8698},{"code":"06461017006","name":"藤崎下藤崎二","lat":39.03214,"lng":139.873029},{"code":"06461017092","name":"藤崎茂り森","lat":38.998048,"lng":139.860326},{"code":"06461018007","name":"比子白木","lat":38.985691,"lng":139.853102},{"code":"06461018008","name":"比子青塚","lat":38.997101,"lng":139.851684},{"code":"06461018009","name":"比子服部興野","lat":39.005451,"lng":139.854777},{"code":"06461018010","name":"比子比子下モ山","lat":39.01598,"lng":139.857099},{"code":"064610190","name":"富岡","lat":39.035636,"lng":139.90191},{"code":"06461020002","name":"北目畑","lat":39.037598,"lng":139.921784},{"code":"06461020003","name":"北目北目","lat":39.039454,"lng":139.906419},{"code":"06461020004","name":"北目丸子","lat":39.047598,"lng":139.890622},{"code":"06461020014","name":"北目菅野","lat":39.063491,"lng":139.886309},{"code":"06461020015","name":"北目谷地上","lat":39.057713,"lng":139.889616},{"code":"06461020016","name":"北目谷地下","lat":39.064487,"lng":139.887103},{"code":"06461020017","name":"北目石淵","lat":39.065089,"lng":139.887867},{"code":"06461021005","name":"当山上戸","lat":39.043146,"lng":139.917417},{"code":"06461021006","name":"当山下当上","lat":39.044213,"lng":139.908069},{"code":"06461021007","name":"当山下当下","lat":39.050718,"lng":139.913541},{"code":"06461021009","name":"当山山崎","lat":39.050394,"lng":139.899607},{"code":"06461021094","name":"当山畑","lat":39.040218,"lng":139.917955},{"code":"06461022008","name":"直世東山","lat":39.061426,"lng":139.928862},{"code":"06461022010","name":"直世中山","lat":39.056593,"lng":139.910065},{"code":"06461022011","name":"直世樽川","lat":39.055688,"lng":139.903931},{"code":"06461022012","name":"直世升川","lat":39.066255,"lng":139.91197},{"code":"06461022015","name":"直世箕輪","lat":39.069216,"lng":139.895002},{"code":"06461022016","name":"直世落伏","lat":39.074233,"lng":139.910135},{"code":"06461023011","name":"菅里十里塚","lat":39.035644,"lng":139.864128},{"code":"06461023013","name":"菅里南山","lat":39.043499,"lng":139.879353},{"code":"06461023014","name":"菅里菅野","lat":39.057782,"lng":139.883398},{"code":"06461023015","name":"菅里谷地上","lat":39.060434,"lng":139.886772},{"code":"06461023016","name":"菅里谷地下","lat":39.066667,"lng":139.882227},{"code":"06461023017","name":"菅里石淵","lat":39.067162,"lng":139.883814},{"code":"06461023018","name":"菅里松山","lat":39.046913,"lng":139.874287},{"code":"06461023064","name":"菅里西浜","lat":39.058368,"lng":139.872709},{"code":"06461023091","name":"菅里菅野南山","lat":39.047713,"lng":139.878922},{"code":"06461024000","name":"吹浦鳥海山","lat":39.081217,"lng":139.988247},{"code":"06461024001","name":"吹浦女鹿","lat":39.1119,"lng":139.878088},{"code":"06461024002","name":"吹浦滝ノ浦","lat":39.096374,"lng":139.881942},{"code":"06461024003","name":"吹浦鳥崎","lat":39.091031,"lng":139.879803},{"code":"06461024004","name":"吹浦湯ノ田","lat":39.084672,"lng":139.879643},{"code":"06461024005","name":"吹浦横町一","lat":39.072388,"lng":139.872635},{"code":"06461024006","name":"吹浦横町二","lat":39.073549,"lng":139.873718},{"code":"06461024007","name":"吹浦横町三","lat":39.076386,"lng":139.873126},{"code":"06461024008","name":"吹浦布倉","lat":39.075419,"lng":139.880778},{"code":"06461024009","name":"吹浦宿町一","lat":39.069904,"lng":139.877752},{"code":"06461024010","name":"吹浦宿町二","lat":39.071496,"lng":139.879651},{"code":"06461024011","name":"吹浦宿町三","lat":39.068644,"lng":139.882187},{"code":"06461024012","name":"吹浦宿町四","lat":39.0699,"lng":139.88177},{"code":"06461024013","name":"吹浦宿町五","lat":39.070889,"lng":139.886125},{"code":"06461024017","name":"吹浦小野曽","lat":39.083557,"lng":139.898111},{"code":"06461024064","name":"吹浦西浜","lat":39.06078,"lng":139.875911}]}
