{"municipality":"07204","name":"いわき市","prefecture":"福島県","source":{"dataset":"frogcat/japan-small-area","census":"平成27年国勢調査 小地域（e-Stat 統計LOD）","license":"MIT（リポジトリ）／政府統計の総合窓口(e-Stat)の利用規約（元データ・出典表記必要）","fetched":"2026-07-06"},"towns":[{"code":"07204001002","name":"平字堂根町","lat":37.051263,"lng":140.890882},{"code":"07204001003","name":"平字梅本","lat":37.050778,"lng":140.884819},{"code":"07204001004","name":"平字堂ノ前","lat":37.052151,"lng":140.885778},{"code":"07204001007","name":"平字小太郎町","lat":37.052517,"lng":140.89183},{"code":"07204001008","name":"平字小太郎町","lat":37.051177,"lng":140.892315},{"code":"07204001009","name":"平字佃町","lat":37.052062,"lng":140.894162},{"code":"07204001010","name":"平字下の町","lat":37.049714,"lng":140.894867},{"code":"07204001012","name":"平字新町","lat":37.055521,"lng":140.879381},{"code":"07204001014","name":"平字長橋町","lat":37.053798,"lng":140.883232},{"code":"07204001015","name":"平字研町","lat":37.055545,"lng":140.883043},{"code":"07204001018","name":"平字八幡小路","lat":37.056833,"lng":140.8811},{"code":"07204001019","name":"平字紺屋町","lat":37.055543,"lng":140.886337},{"code":"07204001020","name":"平字材木町","lat":37.054504,"lng":140.886966},{"code":"07204001021","name":"平字材木町","lat":37.053768,"lng":140.886174},{"code":"07204001022","name":"平字鍛冶町","lat":37.054287,"lng":140.888935},{"code":"07204001023","name":"平字中町","lat":37.05169,"lng":140.889246},{"code":"07204001024","name":"平字南町","lat":37.054955,"lng":140.894026},{"code":"07204001025","name":"平字南町","lat":37.053994,"lng":140.891936},{"code":"07204001026","name":"平字大町","lat":37.05367,"lng":140.894397},{"code":"07204001027","name":"平字一町目","lat":37.055399,"lng":140.88868},{"code":"07204001028","name":"平字二町目","lat":37.055591,"lng":140.890602},{"code":"07204001029","name":"平字田町","lat":37.05602,"lng":140.892009},{"code":"07204001030","name":"平字四町目","lat":37.055777,"lng":140.894499},{"code":"07204001031","name":"平字五町目","lat":37.056864,"lng":140.897656},{"code":"07204001032","name":"平字五町目","lat":37.054667,"lng":140.896919},{"code":"07204001033","name":"平字月見町","lat":37.052271,"lng":140.897613},{"code":"07204001034","name":"平字三倉","lat":37.05103,"lng":140.899369},{"code":"07204001035","name":"平字倉前","lat":37.04863,"lng":140.899429},{"code":"07204001036","name":"平字新田前","lat":37.050716,"lng":140.896423},{"code":"07204001038","name":"平字正月町","lat":37.054072,"lng":140.899201},{"code":"07204001039","name":"平六町目","lat":37.056412,"lng":140.89892},{"code":"07204001040","name":"平字禰宜町","lat":37.05766,"lng":140.899946},{"code":"07204001041","name":"平正月町","lat":37.056031,"lng":140.901174},{"code":"07204001042","name":"平字五色町","lat":37.054094,"lng":140.902738},{"code":"07204001043","name":"平字鎌田町","lat":37.056098,"lng":140.904531},{"code":"07204001044","name":"平字鎌田町","lat":37.054303,"lng":140.905426},{"code":"07204001045","name":"平字上川原","lat":37.057425,"lng":140.90362},{"code":"07204001046","name":"平字大工町","lat":37.057508,"lng":140.895961},{"code":"07204001047","name":"平字田町","lat":37.057831,"lng":140.893735},{"code":"07204001048","name":"平字掻槌小路","lat":37.057057,"lng":140.889804},{"code":"07204001049","name":"平字掻槌小路","lat":37.057391,"lng":140.889215},{"code":"07204001050","name":"平字久保町","lat":37.061139,"lng":140.876942},{"code":"07204001051","name":"平字七軒町","lat":37.062941,"lng":140.877772},{"code":"07204001053","name":"平字久保町","lat":37.063134,"lng":140.880259},{"code":"07204001054","name":"平字胡摩沢","lat":37.063285,"lng":140.883459},{"code":"07204001055","name":"平字桜町","lat":37.06084,"lng":140.885856},{"code":"07204001056","name":"平字六人町","lat":37.061473,"lng":140.882431},{"code":"07204001057","name":"平字北目町","lat":37.06545,"lng":140.885048},{"code":"07204001058","name":"平字四軒町","lat":37.063154,"lng":140.887132},{"code":"07204001059","name":"平字四軒町","lat":37.062921,"lng":140.891945},{"code":"07204001060","name":"平字梅香町","lat":37.063527,"lng":140.892283},{"code":"07204001061","name":"平字紅葉町","lat":37.065537,"lng":140.89109},{"code":"07204001062","name":"平字紅葉町","lat":37.064758,"lng":140.894413},{"code":"07204001063","name":"平字田町","lat":37.060746,"lng":140.893273},{"code":"07204001064","name":"平字六間門","lat":37.060182,"lng":140.885883},{"code":"07204001065","name":"平字旧城跡","lat":37.059959,"lng":140.89057},{"code":"07204001066","name":"平字仲間町","lat":37.060052,"lng":140.895947},{"code":"07204001068","name":"平字鷹匠町","lat":37.061436,"lng":140.894725},{"code":"07204001071","name":"平字胡摩沢","lat":37.058695,"lng":140.882838},{"code":"07204001072","name":"平字久保町","lat":37.060165,"lng":140.879392},{"code":"07204001073","name":"平字東町","lat":37.053498,"lng":140.90739},{"code":"07204001074","name":"平字城東１丁目","lat":37.060392,"lng":140.900524},{"code":"07204001075","name":"平字城東２丁目","lat":37.059647,"lng":140.89832},{"code":"07204001076","name":"平字九品寺町","lat":37.062425,"lng":140.89707},{"code":"07204001077","name":"平字作町１丁目","lat":37.051398,"lng":140.902651},{"code":"07204001078","name":"平字作町２丁目","lat":37.049813,"lng":140.902978},{"code":"07204001079","name":"平字作町３丁目","lat":37.047978,"lng":140.903301},{"code":"07204001080","name":"平字愛谷町１丁目","lat":37.050631,"lng":140.906066},{"code":"07204001081","name":"平字愛谷町２丁目","lat":37.04809,"lng":140.906434},{"code":"07204001082","name":"平字愛谷町３丁目","lat":37.048377,"lng":140.909018},{"code":"07204001083","name":"平字愛谷町４丁目","lat":37.050802,"lng":140.908767},{"code":"072040020","name":"平上平窪","lat":37.101365,"lng":140.885297},{"code":"07204003000","name":"平中平窪字桂進","lat":37.091481,"lng":140.876284},{"code":"07204003001","name":"平中平窪１丁目","lat":37.086543,"lng":140.876655},{"code":"07204003002","name":"平中平窪２丁目","lat":37.087156,"lng":140.878829},{"code":"07204003003","name":"平中平窪３丁目","lat":37.08554,"lng":140.879324},{"code":"07204003004","name":"平中平窪字大町","lat":37.085541,"lng":140.878368},{"code":"07204003005","name":"平中平窪字横枕","lat":37.084881,"lng":140.87814},{"code":"07204003006","name":"平中平窪字杉内","lat":37.083872,"lng":140.879443},{"code":"07204003007","name":"平中平窪細田町","lat":37.08475,"lng":140.877085},{"code":"07204003008","name":"平中平窪新町","lat":37.084046,"lng":140.875195},{"code":"07204003009","name":"平中平窪東高砂","lat":37.08476,"lng":140.873122},{"code":"07204003010","name":"平中平窪字岩間","lat":37.086199,"lng":140.872129},{"code":"07204003011","name":"平中平窪字勝見沢","lat":37.086687,"lng":140.874202},{"code":"07204003012","name":"平中平窪字細田","lat":37.087459,"lng":140.875856},{"code":"07204003013","name":"平中平窪字高橋","lat":37.088901,"lng":140.872359},{"code":"07204004000","name":"平下平窪字辰ノ口","lat":37.087751,"lng":140.889612},{"code":"07204004001","name":"平下平窪山土内町","lat":37.082573,"lng":140.876722},{"code":"07204004002","name":"平下平窪中島町","lat":37.080271,"lng":140.876514},{"code":"07204004003","name":"平下平窪字屋越","lat":37.081342,"lng":140.878677},{"code":"07204004004","name":"平下平窪古川町","lat":37.079583,"lng":140.878446},{"code":"07204004005","name":"平下平窪字六角","lat":37.079888,"lng":140.879901},{"code":"07204004006","name":"平下平窪字八木内","lat":37.078092,"lng":140.879429},{"code":"07204004007","name":"平下平窪字寺内","lat":37.07739,"lng":140.874556},{"code":"07204004008","name":"平下平窪字大念仏","lat":37.076532,"lng":140.877283},{"code":"07204004009","name":"平下平窪字味噌農","lat":37.076164,"lng":140.879777},{"code":"07204004010","name":"平下平窪字四左エ門内","lat":37.073846,"lng":140.880743},{"code":"07204004011","name":"平下平窪字笹ノ田","lat":37.072201,"lng":140.883792},{"code":"07204004012","name":"平下平窪字粥餅川原","lat":37.070664,"lng":140.886844},{"code":"07204004014","name":"平下平窪１丁目","lat":37.074578,"lng":140.882848},{"code":"07204004015","name":"平下平窪２丁目","lat":37.076077,"lng":140.882848},{"code":"07204004016","name":"平下平窪３丁目","lat":37.07756,"lng":140.883297},{"code":"07204004017","name":"平下平窪字鍛冶内","lat":37.078191,"lng":140.881756},{"code":"07204004018","name":"平下平窪字竹ノ内","lat":37.07971,"lng":140.88201},{"code":"07204004019","name":"平下平窪字諸荷前","lat":37.081006,"lng":140.88048},{"code":"07204004020","name":"平下平窪字諸荷","lat":37.0824,"lng":140.880943},{"code":"07204004021","name":"平下平窪字山王田","lat":37.084271,"lng":140.890026},{"code":"07204004022","name":"平下平窪字山根","lat":37.077398,"lng":140.887638},{"code":"07204004023","name":"平下平窪字鴬内","lat":37.070868,"lng":140.881346},{"code":"072040050","name":"平中塩","lat":37.074395,"lng":140.894842},{"code":"07204006101","name":"平石森１丁目","lat":37.075884,"lng":140.899934},{"code":"07204006102","name":"平石森２丁目","lat":37.079666,"lng":140.899522},{"code":"072040062","name":"平四ツ波","lat":37.084797,"lng":140.901966},{"code":"072040070","name":"平幕ノ内","lat":37.067665,"lng":140.901004},{"code":"072040080","name":"平鯨岡","lat":37.063834,"lng":140.903303},{"code":"072040090","name":"平大室","lat":37.072684,"lng":140.909707},{"code":"072040100","name":"平北白土","lat":37.052968,"lng":140.915165},{"code":"07204011000","name":"平南白土字筒ノ下","lat":37.045813,"lng":140.916935},{"code":"07204011001","name":"平南白土１丁目","lat":37.045589,"lng":140.903838},{"code":"07204011002","name":"平南白土２丁目","lat":37.045742,"lng":140.907798},{"code":"072040120","name":"平谷川瀬","lat":37.044846,"lng":140.895021},{"code":"072040130","name":"平上荒川","lat":37.02892,"lng":140.878304},{"code":"072040140","name":"平下荒川","lat":37.035301,"lng":140.902384},{"code":"072040150","name":"平中山","lat":37.035759,"lng":140.915216},{"code":"072040160","name":"平小泉","lat":37.028687,"lng":140.922679},{"code":"072040170","name":"平吉野谷","lat":37.020869,"lng":140.917176},{"code":"072040180","name":"平上高久","lat":37.026065,"lng":140.929667},{"code":"072040190","name":"平中神谷","lat":37.065811,"lng":140.929676},{"code":"072040200","name":"平塩","lat":37.059977,"lng":140.919178},{"code":"072040210","name":"平鎌田","lat":37.06139,"lng":140.909649},{"code":"072040220","name":"平上神谷","lat":37.069771,"lng":140.917331},{"code":"072040230","name":"平上片寄","lat":37.083858,"lng":140.917405},{"code":"072040240","name":"平下片寄","lat":37.077993,"lng":140.93362},{"code":"072040250","name":"平豊間","lat":36.989411,"lng":140.958364},{"code":"072040260","name":"平薄磯","lat":37.001947,"lng":140.975572},{"code":"072040271","name":"平沼ノ内","lat":37.007019,"lng":140.964521},{"code":"07204027201","name":"平沼ノ内諏訪原１丁目","lat":37.019683,"lng":140.968395},{"code":"07204027202","name":"平沼ノ内諏訪原２丁目","lat":37.016478,"lng":140.969263},{"code":"072040280","name":"平下高久","lat":37.02915,"lng":140.955885},{"code":"072040290","name":"平神谷作","lat":37.012519,"lng":140.959599},{"code":"072040300","name":"平上山口","lat":37.008539,"lng":140.940941},{"code":"072040310","name":"平下山口","lat":37.020933,"lng":140.937295},{"code":"072040320","name":"平山崎","lat":37.056798,"lng":140.93502},{"code":"072040330","name":"平菅波","lat":37.045988,"lng":140.935099},{"code":"072040340","name":"平荒田目","lat":37.055094,"lng":140.946896},{"code":"072040350","name":"平上大越","lat":37.050159,"lng":140.952899},{"code":"072040360","name":"平下大越","lat":37.049143,"lng":140.96268},{"code":"072040370","name":"平藤間","lat":37.040572,"lng":140.966257},{"code":"072040380","name":"平泉崎","lat":37.076697,"lng":140.945612},{"code":"072040390","name":"平下神谷","lat":37.065768,"lng":140.958233},{"code":"072040400","name":"平原高野","lat":37.074323,"lng":140.961479},{"code":"072040410","name":"平馬目","lat":37.084884,"lng":140.946214},{"code":"072040420","name":"平絹谷","lat":37.094966,"lng":140.922264},{"code":"072040430","name":"平北神谷","lat":37.096932,"lng":140.941108},{"code":"072040440","name":"平水品","lat":37.103956,"lng":140.930082},{"code":"072040450","name":"平赤井","lat":37.092682,"lng":140.839099},{"code":"072040460","name":"自由ケ丘","lat":37.027252,"lng":140.892788},{"code":"07204047001","name":"郷ケ丘１丁目","lat":37.025716,"lng":140.900567},{"code":"07204047002","name":"郷ケ丘２丁目","lat":37.026338,"lng":140.905804},{"code":"07204047003","name":"郷ケ丘３丁目","lat":37.027467,"lng":140.911137},{"code":"07204047004","name":"郷ケ丘４丁目","lat":37.028801,"lng":140.915796},{"code":"07204047012","name":"郷ケ丘２丁目","lat":37.023615,"lng":140.908815},{"code":"072040480","name":"明治団地","lat":37.041389,"lng":140.888114},{"code":"072040490","name":"平鶴ケ井","lat":37.017107,"lng":140.949666},{"code":"072040510","name":"江名","lat":36.971829,"lng":140.954984},{"code":"072040520","name":"折戸","lat":36.962969,"lng":140.952953},{"code":"072040530","name":"中之作","lat":36.960598,"lng":140.947975},{"code":"072040540","name":"永崎","lat":36.960206,"lng":140.935154},{"code":"072040550","name":"小名浜上神白","lat":36.974598,"lng":140.928486},{"code":"072040560","name":"小名浜下神白","lat":36.95016,"lng":140.921185},{"code":"07204057001","name":"小名浜字古湊","lat":36.947042,"lng":140.911782},{"code":"07204057002","name":"小名浜字栄町","lat":36.945243,"lng":140.91127},{"code":"07204057003","name":"小名浜字小屋ノ内","lat":36.943923,"lng":140.914083},{"code":"07204057004","name":"小名浜字田ノ入","lat":36.950592,"lng":140.914844},{"code":"07204057008","name":"小名浜字御殿後","lat":36.94956,"lng":140.91188},{"code":"07204057011","name":"小名浜諏訪町","lat":36.953657,"lng":140.910905},{"code":"07204057014","name":"小名浜字古湊","lat":36.946574,"lng":140.915831},{"code":"07204057016","name":"小名浜花畑町","lat":36.954403,"lng":140.905617},{"code":"07204057018","name":"小名浜字蛭川南","lat":36.951569,"lng":140.902958},{"code":"07204057019","name":"小名浜字橋本","lat":36.94975,"lng":140.909254},{"code":"07204057021","name":"小名浜花畑町","lat":36.951739,"lng":140.90647},{"code":"07204057022","name":"小名浜字中明神町","lat":36.950618,"lng":140.907464},{"code":"07204057023","name":"小名浜字下明神町","lat":36.950372,"lng":140.908799},{"code":"07204057024","name":"小名浜字上町","lat":36.948123,"lng":140.906726},{"code":"07204057026","name":"小名浜字下町","lat":36.948817,"lng":140.908554},{"code":"07204057027","name":"小名浜字船引場","lat":36.947915,"lng":140.905682},{"code":"07204057028","name":"小名浜字元分","lat":36.947991,"lng":140.907516},{"code":"07204057029","name":"小名浜字元分","lat":36.946652,"lng":140.908062},{"code":"07204057030","name":"小名浜字横町","lat":36.950273,"lng":140.905843},{"code":"07204057031","name":"小名浜字本町","lat":36.950019,"lng":140.904501},{"code":"07204057032","name":"小名浜字竹町","lat":36.949087,"lng":140.903308},{"code":"07204057033","name":"小名浜字船引場","lat":36.947864,"lng":140.903411},{"code":"07204057034","name":"小名浜字定西","lat":36.945824,"lng":140.901848},{"code":"07204057036","name":"小名浜字隼人","lat":36.949496,"lng":140.894413},{"code":"07204057037","name":"小名浜字丹波沼","lat":36.95109,"lng":140.889665},{"code":"07204057038","name":"小名浜字鳥居北","lat":36.949903,"lng":140.891273},{"code":"07204057039","name":"小名浜字道珍","lat":36.952162,"lng":140.890462},{"code":"07204057040","name":"小名浜字大原境西","lat":36.953847,"lng":140.891713},{"code":"07204057041","name":"小名浜字大原境西","lat":36.953753,"lng":140.888627},{"code":"07204057043","name":"小名浜字燈篭原","lat":36.953308,"lng":140.88118},{"code":"07204057044","name":"小名浜字富岡向","lat":36.952888,"lng":140.88479},{"code":"07204057045","name":"小名浜字鳥居北","lat":36.95138,"lng":140.886993},{"code":"07204057046","name":"小名浜字林ノ上","lat":36.94828,"lng":140.888606},{"code":"07204057047","name":"小名浜字神成塚","lat":36.950811,"lng":140.884113},{"code":"07204057048","name":"小名浜字鳥居北","lat":36.95,"lng":140.886773},{"code":"07204057049","name":"小名浜字大道北","lat":36.951045,"lng":140.880664},{"code":"07204057052","name":"小名浜字林ノ上","lat":36.948605,"lng":140.88483},{"code":"07204057056","name":"小名浜字芳浜","lat":36.944557,"lng":140.873264},{"code":"07204057061","name":"小名浜字吹松","lat":36.942979,"lng":140.877119},{"code":"07204057064","name":"小名浜字隼人","lat":36.948112,"lng":140.8963},{"code":"07204057065","name":"小名浜字高山","lat":36.940001,"lng":140.884402},{"code":"07204057067","name":"小名浜字芳浜","lat":36.948308,"lng":140.87467},{"code":"07204057068","name":"小名浜君ケ塚町","lat":36.959081,"lng":140.899816},{"code":"07204057069","name":"小名浜南君ケ塚町","lat":36.956713,"lng":140.900062},{"code":"07204057070","name":"小名浜花畑町","lat":36.954406,"lng":140.899968},{"code":"07204057071","name":"小名浜西君ケ塚町","lat":36.957105,"lng":140.894793},{"code":"07204057072","name":"小名浜愛宕上","lat":36.954409,"lng":140.89483},{"code":"07204057073","name":"小名浜愛宕町","lat":36.951992,"lng":140.894895},{"code":"07204057074","name":"小名浜寺廻町","lat":36.952137,"lng":140.899568},{"code":"07204057075","name":"小名浜字定西","lat":36.950467,"lng":140.898958},{"code":"072040580","name":"小名浜岡小名","lat":36.966824,"lng":140.906182},{"code":"072040590","name":"小名浜南富岡","lat":36.960484,"lng":140.878401},{"code":"072040600","name":"小名浜大原","lat":36.961969,"lng":140.890539},{"code":"072040610","name":"小名浜相子島","lat":36.973761,"lng":140.89467},{"code":"072040620","name":"小名浜住吉","lat":36.972575,"lng":140.885205},{"code":"072040630","name":"小名浜島","lat":36.976536,"lng":140.872566},{"code":"072040640","name":"小名浜野田","lat":36.981885,"lng":140.878838},{"code":"072040650","name":"小名浜岩出","lat":36.989461,"lng":140.88712},{"code":"072040660","name":"小名浜林城","lat":36.985403,"lng":140.893004},{"code":"072040670","name":"小名浜金成","lat":36.993897,"lng":140.893512},{"code":"072040680","name":"小名浜玉川町","lat":36.984953,"lng":140.88455},{"code":"072040690","name":"鹿島町船戸","lat":36.978945,"lng":140.899886},{"code":"072040700","name":"鹿島町船戸","lat":36.982268,"lng":140.906137},{"code":"07204071000","name":"鹿島町久保字袖穢","lat":36.986622,"lng":140.910547},{"code":"07204071001","name":"鹿島町久保１丁目","lat":36.99141,"lng":140.905002},{"code":"07204071002","name":"鹿島町久保２丁目","lat":36.989187,"lng":140.903477},{"code":"07204071003","name":"鹿島町久保３丁目","lat":36.987539,"lng":140.901738},{"code":"072040720","name":"鹿島町下蔵持","lat":36.990392,"lng":140.919757},{"code":"072040740","name":"鹿島町走熊","lat":36.997346,"lng":140.913384},{"code":"072040750","name":"鹿島町下矢田","lat":37.005378,"lng":140.90553},{"code":"072040760","name":"鹿島町米田","lat":36.996815,"lng":140.902877},{"code":"072040770","name":"鹿島町飯田","lat":36.989458,"lng":140.900229},{"code":"07204078101","name":"葉山１丁目","lat":36.964378,"lng":140.865807},{"code":"07204078102","name":"葉山２丁目","lat":36.964877,"lng":140.86875},{"code":"07204078103","name":"葉山３丁目","lat":36.961541,"lng":140.867894},{"code":"072040782","name":"泉町本谷","lat":36.966915,"lng":140.871398},{"code":"072040790","name":"泉町滝尻","lat":36.951719,"lng":140.865775},{"code":"072040800","name":"泉町下川","lat":36.931909,"lng":140.854435},{"code":"072040810","name":"泉町黒須野","lat":36.935373,"lng":140.832335},{"code":"072040820","name":"泉町","lat":36.948776,"lng":140.842151},{"code":"072040830","name":"泉町玉露","lat":36.962093,"lng":140.850397},{"code":"072040840","name":"渡辺町洞","lat":36.960783,"lng":140.841148},{"code":"072040850","name":"渡辺町泉田","lat":36.973575,"lng":140.838352},{"code":"072040860","name":"渡辺町昼野","lat":36.967463,"lng":140.837183},{"code":"072040870","name":"渡辺町田部","lat":36.957675,"lng":140.829416},{"code":"072040880","name":"渡辺町松小屋","lat":36.956412,"lng":140.81206},{"code":"072040890","name":"渡辺町中釜戸","lat":36.967117,"lng":140.806811},{"code":"072040900","name":"渡辺町上釜戸","lat":36.985012,"lng":140.79027},{"code":"07204091001","name":"洋向台１丁目","lat":36.968493,"lng":140.937275},{"code":"07204091002","name":"洋向台２丁目","lat":36.967473,"lng":140.934112},{"code":"07204091003","name":"洋向台３丁目","lat":36.966827,"lng":140.938371},{"code":"07204091004","name":"洋向台４丁目","lat":36.964258,"lng":140.932154},{"code":"07204091005","name":"洋向台５丁目","lat":36.964292,"lng":140.935979},{"code":"07204092000","name":"植田町西荒田","lat":36.920223,"lng":140.792717},{"code":"07204092001","name":"植田町本町１丁目","lat":36.915616,"lng":140.796392},{"code":"07204092002","name":"植田町本町２丁目","lat":36.91691,"lng":140.798831},{"code":"07204092003","name":"植田町本町３丁目","lat":36.917208,"lng":140.801234},{"code":"07204092004","name":"植田町南町１丁目","lat":36.915403,"lng":140.799607},{"code":"07204092005","name":"植田町南町２丁目","lat":36.914479,"lng":140.801707},{"code":"07204092006","name":"植田町中央１丁目","lat":36.918677,"lng":140.797584},{"code":"07204092007","name":"植田町中央２丁目","lat":36.920055,"lng":140.799723},{"code":"07204092008","name":"植田町中央３丁目","lat":36.922721,"lng":140.79758},{"code":"072040930","name":"後田町","lat":36.928361,"lng":140.786387},{"code":"072040940","name":"仁井田町","lat":36.925293,"lng":140.77785},{"code":"072040950","name":"高倉町","lat":36.942015,"lng":140.783229},{"code":"072040960","name":"江畑町","lat":36.953443,"lng":140.791117},{"code":"072040970","name":"添野町","lat":36.941285,"lng":140.812478},{"code":"072040980","name":"石塚町","lat":36.931266,"lng":140.80624},{"code":"07204099000","name":"東田町金子平","lat":36.925033,"lng":140.809944},{"code":"07204099001","name":"東田町１丁目","lat":36.924439,"lng":140.801085},{"code":"07204099002","name":"東田町２丁目","lat":36.921531,"lng":140.803101},{"code":"07204100000","name":"佐糠町八反田","lat":36.910849,"lng":140.810244},{"code":"07204100001","name":"佐糠町１丁目","lat":36.914508,"lng":140.806393},{"code":"07204100002","name":"佐糠町２丁目","lat":36.911687,"lng":140.807404},{"code":"07204100003","name":"佐糠町３丁目","lat":36.909913,"lng":140.810086},{"code":"07204100004","name":"佐糠町東１丁目","lat":36.919309,"lng":140.806043},{"code":"07204100005","name":"佐糠町東２丁目","lat":36.916791,"lng":140.8082},{"code":"072041010","name":"岩間町","lat":36.917913,"lng":140.819509},{"code":"072041020","name":"小浜町","lat":36.919281,"lng":140.835343},{"code":"07204103000","name":"錦町川窪","lat":36.9048,"lng":140.783675},{"code":"07204103001","name":"錦町中迎１丁目","lat":36.907583,"lng":140.792736},{"code":"07204103002","name":"錦町中迎２丁目","lat":36.907094,"lng":140.795074},{"code":"07204103003","name":"錦町中迎３丁目","lat":36.909221,"lng":140.795968},{"code":"07204103004","name":"錦町中迎４丁目","lat":36.909795,"lng":140.793702},{"code":"07204103005","name":"錦町中央１丁目","lat":36.908165,"lng":140.789022},{"code":"07204103006","name":"錦町中央２丁目","lat":36.906272,"lng":140.787995},{"code":"07204103007","name":"錦町中央３丁目","lat":36.904102,"lng":140.786587},{"code":"07204104000","name":"勿来町大高宮前","lat":36.883182,"lng":140.763103},{"code":"07204104001","name":"勿来町関田西１丁目","lat":36.88294,"lng":140.785703},{"code":"07204104002","name":"勿来町関田西２丁目","lat":36.880895,"lng":140.785547},{"code":"072041050","name":"川部町","lat":36.921256,"lng":140.725622},{"code":"072041060","name":"沼部町","lat":36.917666,"lng":140.751267},{"code":"072041070","name":"三沢町","lat":36.904726,"lng":140.744065},{"code":"072041080","name":"川部町","lat":36.901361,"lng":140.694084},{"code":"072041090","name":"瀬戸町","lat":36.884354,"lng":140.716755},{"code":"072041100","name":"富津町","lat":36.918855,"lng":140.768745},{"code":"072041110","name":"山田町","lat":36.948407,"lng":140.758478},{"code":"072041120","name":"金山町","lat":36.926634,"lng":140.823615},{"code":"07204113001","name":"中岡町１丁目","lat":36.925757,"lng":140.781696},{"code":"07204113002","name":"中岡町２丁目","lat":36.924079,"lng":140.779999},{"code":"07204113003","name":"中岡町３丁目","lat":36.923178,"lng":140.782715},{"code":"07204113004","name":"中岡町４丁目","lat":36.921706,"lng":140.780496},{"code":"07204113005","name":"中岡町５丁目","lat":36.919109,"lng":140.782011},{"code":"07204113006","name":"中岡町６丁目","lat":36.920686,"lng":140.784531},{"code":"07204114001","name":"常磐湯本町高倉","lat":37.012849,"lng":140.829031},{"code":"07204114002","name":"常磐湯本町山ノ神","lat":37.011823,"lng":140.837572},{"code":"07204114003","name":"常磐湯本町天神","lat":37.019182,"lng":140.830998},{"code":"07204114004","name":"常磐湯本町山ノ神","lat":37.019907,"lng":140.840207},{"code":"07204114005","name":"常磐湯本町日渡","lat":37.018433,"lng":140.843008},{"code":"07204114006","name":"常磐湯本町傾城","lat":37.020796,"lng":140.847441},{"code":"07204114007","name":"常磐湯本町辰ノ口","lat":37.0156,"lng":140.851243},{"code":"07204114008","name":"常磐湯本町宝海","lat":37.015817,"lng":140.844428},{"code":"07204114009","name":"常磐湯本町笠井","lat":37.01171,"lng":140.844559},{"code":"07204114010","name":"常磐湯本町向田","lat":37.010662,"lng":140.8476},{"code":"07204114011","name":"常磐湯本町上浅貝","lat":37.015247,"lng":140.858595},{"code":"07204114012","name":"常磐湯本町上浅貝","lat":37.00717,"lng":140.854108},{"code":"07204114014","name":"常磐湯本町八仙","lat":37.010122,"lng":140.850651},{"code":"07204114015","name":"常磐湯本町彦惣白坂","lat":37.005876,"lng":140.851634},{"code":"07204114016","name":"常磐湯本町笠井","lat":37.007854,"lng":140.841683},{"code":"07204114017","name":"常磐湯本町天王崎","lat":37.00609,"lng":140.845299},{"code":"07204114018","name":"常磐湯本町天王崎","lat":37.006042,"lng":140.848568},{"code":"07204114019","name":"常磐湯本町栄田","lat":37.003029,"lng":140.847903},{"code":"072041150","name":"常磐関船町","lat":36.998812,"lng":140.854897},{"code":"072041160","name":"常磐水野谷町","lat":37.006192,"lng":140.867393},{"code":"072041170","name":"常磐藤原町","lat":37.008047,"lng":140.802703},{"code":"072041180","name":"常磐白鳥町","lat":36.987397,"lng":140.840898},{"code":"072041190","name":"常磐西郷町","lat":36.984776,"lng":140.857117},{"code":"072041200","name":"常磐長孫町","lat":36.976264,"lng":140.8554},{"code":"072041210","name":"常磐岩ケ岡町","lat":36.979313,"lng":140.864664},{"code":"072041220","name":"常磐馬玉町","lat":36.972236,"lng":140.863977},{"code":"072041230","name":"常磐下船尾町","lat":36.993681,"lng":140.874394},{"code":"072041240","name":"常磐下湯長谷町","lat":36.991203,"lng":140.851424},{"code":"072041251","name":"常磐松が台","lat":37.003669,"lng":140.842163},{"code":"07204125201","name":"常磐上湯長谷町嶽道","lat":37.018904,"lng":140.806361},{"code":"07204125203","name":"常磐上湯長谷町力石","lat":37.016866,"lng":140.818055},{"code":"07204125205","name":"常磐上湯長谷町力石","lat":37.015495,"lng":140.823295},{"code":"07204125206","name":"常磐上湯長谷町梅ケ平","lat":37.009239,"lng":140.824186},{"code":"07204125207","name":"常磐上湯長谷町梅ケ平","lat":37.006077,"lng":140.829642},{"code":"07204125208","name":"常磐上湯長谷町湯台堂","lat":37.006244,"lng":140.836786},{"code":"07204125209","name":"常磐上湯長谷町堀ノ内","lat":37.000998,"lng":140.832786},{"code":"07204125210","name":"常磐上湯長谷町釜ノ前","lat":36.996473,"lng":140.832475},{"code":"07204125211","name":"常磐上湯長谷町釜ノ前","lat":36.997998,"lng":140.837},{"code":"07204125212","name":"常磐上湯長谷町湯台堂","lat":36.999518,"lng":140.845084},{"code":"07204125213","name":"常磐上湯長谷町五反田","lat":36.9978,"lng":140.841261},{"code":"07204125214","name":"常磐上湯長谷町","lat":36.994314,"lng":140.838},{"code":"07204125215","name":"常磐上湯長谷町扇田","lat":36.994506,"lng":140.844483},{"code":"072041260","name":"常磐三沢町","lat":37.003661,"lng":140.888525},{"code":"072041270","name":"常磐松久須根町","lat":37.013072,"lng":140.887498},{"code":"072041280","name":"常磐上矢田町","lat":37.018337,"lng":140.898507},{"code":"07204129001","name":"若葉台１丁目","lat":37.019081,"lng":140.898875},{"code":"07204129002","name":"若葉台２丁目","lat":37.017734,"lng":140.896629},{"code":"072041300","name":"桜ケ丘","lat":36.993037,"lng":140.840403},{"code":"072041310","name":"内郷白水町","lat":37.029524,"lng":140.820906},{"code":"072041320","name":"内郷宮町","lat":37.044108,"lng":140.830003},{"code":"072041330","name":"内郷内町","lat":37.036802,"lng":140.848565},{"code":"072041340","name":"内郷綴町","lat":37.030933,"lng":140.857581},{"code":"072041350","name":"内郷高坂町","lat":37.045786,"lng":140.855635},{"code":"072041360","name":"内郷御厩町","lat":37.044294,"lng":140.873482},{"code":"072041370","name":"内郷御台境町","lat":37.05288,"lng":140.867278},{"code":"072041380","name":"内郷小島町","lat":37.046665,"lng":140.880699},{"code":"072041390","name":"内郷高野町","lat":37.048596,"lng":140.792525},{"code":"072041400","name":"小島町","lat":37.047747,"lng":140.884204},{"code":"072041410","name":"四倉町","lat":37.114323,"lng":140.977776},{"code":"072041420","name":"四倉町上仁井田","lat":37.09646,"lng":140.977458},{"code":"072041430","name":"四倉町塩木","lat":37.097016,"lng":140.967279},{"code":"072041440","name":"四倉町下仁井田","lat":37.083657,"lng":140.976602},{"code":"072041450","name":"四倉町細谷","lat":37.079833,"lng":140.968421},{"code":"072041460","name":"四倉町大森","lat":37.085847,"lng":140.956648},{"code":"072041470","name":"四倉町狐塚","lat":37.092925,"lng":140.96284},{"code":"072041480","name":"四倉町名木","lat":37.097549,"lng":140.952829},{"code":"072041490","name":"四倉町長友","lat":37.106066,"lng":140.948369},{"code":"072041500","name":"四倉町戸田","lat":37.108857,"lng":140.962035},{"code":"072041510","name":"四倉町白岩","lat":37.136999,"lng":140.944959},{"code":"072041520","name":"四倉町中島","lat":37.125444,"lng":140.944813},{"code":"072041530","name":"四倉町玉山","lat":37.137588,"lng":140.927992},{"code":"072041540","name":"四倉町山田小湊","lat":37.117767,"lng":140.925645},{"code":"072041550","name":"四倉町薬王寺","lat":37.116753,"lng":140.918248},{"code":"072041560","name":"四倉町下柳生","lat":37.108375,"lng":140.916048},{"code":"072041570","name":"四倉町上柳生","lat":37.109164,"lng":140.905035},{"code":"072041580","name":"四倉町駒込","lat":37.122831,"lng":140.896971},{"code":"072041590","name":"四倉町八茎","lat":37.168916,"lng":140.900699},{"code":"072041600","name":"四倉町上岡","lat":37.142429,"lng":140.893121},{"code":"072041610","name":"遠野町深山田","lat":37.026901,"lng":140.762101},{"code":"072041620","name":"遠野町上遠野","lat":37.003398,"lng":140.761367},{"code":"072041630","name":"遠野町滝","lat":36.984021,"lng":140.73552},{"code":"072041640","name":"遠野町根岸","lat":37.015328,"lng":140.734856},{"code":"072041650","name":"遠野町上根本","lat":37.044429,"lng":140.733324},{"code":"072041660","name":"遠野町入遠野","lat":37.069397,"lng":140.69534},{"code":"072041670","name":"遠野町大平","lat":37.018798,"lng":140.700854},{"code":"072041680","name":"小川町下小川","lat":37.109408,"lng":140.872983},{"code":"072041690","name":"小川町関場","lat":37.119604,"lng":140.873983},{"code":"072041700","name":"小川町上平","lat":37.130692,"lng":140.872718},{"code":"072041710","name":"小川町柴原","lat":37.15399,"lng":140.876141},{"code":"072041720","name":"小川町福岡","lat":37.144128,"lng":140.848144},{"code":"072041730","name":"小川町上小川","lat":37.205367,"lng":140.844662},{"code":"072041740","name":"小川町塩田","lat":37.158771,"lng":140.822954},{"code":"072041750","name":"小川町高萩","lat":37.126558,"lng":140.842725},{"code":"072041760","name":"小川町三島","lat":37.12388,"lng":140.867802},{"code":"072041770","name":"小川町西小川","lat":37.117779,"lng":140.833181},{"code":"072041780","name":"好間町榊小屋","lat":37.066706,"lng":140.80628},{"code":"072041790","name":"好間町大利","lat":37.075483,"lng":140.791711},{"code":"072041800","name":"好間町北好間","lat":37.074087,"lng":140.827298},{"code":"072041810","name":"好間町上好間","lat":37.059531,"lng":140.832016},{"code":"072041820","name":"好間町中好間","lat":37.056849,"lng":140.85082},{"code":"072041830","name":"好間町下好間","lat":37.059173,"lng":140.868625},{"code":"072041840","name":"好間町小谷作","lat":37.065995,"lng":140.863599},{"code":"072041850","name":"好間町愛谷","lat":37.072214,"lng":140.873985},{"code":"072041860","name":"好間町今新田","lat":37.06676,"lng":140.875759},{"code":"072041870","name":"好間町川中子","lat":37.067731,"lng":140.887151},{"code":"072041880","name":"三和町上三坂","lat":37.175224,"lng":140.62241},{"code":"072041890","name":"三和町中三坂","lat":37.193422,"lng":140.640991},{"code":"072041900","name":"三和町下三坂","lat":37.205202,"lng":140.676579},{"code":"072041910","name":"三和町差塩","lat":37.183279,"lng":140.715522},{"code":"072041920","name":"三和町上永井","lat":37.155373,"lng":140.73698},{"code":"072041930","name":"三和町下永井","lat":37.152232,"lng":140.781492},{"code":"072041940","name":"三和町合戸","lat":37.091679,"lng":140.765241},{"code":"072041950","name":"三和町渡戸","lat":37.113377,"lng":140.721481},{"code":"072041960","name":"三和町中寺","lat":37.124101,"lng":140.706246},{"code":"072041970","name":"三和町下市萱","lat":37.137924,"lng":140.677311},{"code":"072041980","name":"三和町上市萱","lat":37.153343,"lng":140.650974},{"code":"072041990","name":"田人町南大平","lat":36.922601,"lng":140.688641},{"code":"072042000","name":"田人町旅人","lat":36.934691,"lng":140.647353},{"code":"072042010","name":"田人町黒田","lat":36.981019,"lng":140.69335},{"code":"072042020","name":"田人町荷路夫","lat":36.968493,"lng":140.645402},{"code":"072042030","name":"田人町貝泊","lat":36.998258,"lng":140.621745},{"code":"072042040","name":"田人町石住","lat":37.040427,"lng":140.656077},{"code":"072042050","name":"川前町川前","lat":37.214893,"lng":140.761949},{"code":"072042060","name":"川前町下桶売","lat":37.254053,"lng":140.758246},{"code":"072042070","name":"川前町上桶売","lat":37.26722,"lng":140.711726},{"code":"072042080","name":"川前町小白井","lat":37.298635,"lng":140.716141},{"code":"072042090","name":"久之浜町末続","lat":37.176466,"lng":140.982274},{"code":"072042100","name":"久之浜町金ケ沢","lat":37.158589,"lng":140.993291},{"code":"072042110","name":"久之浜町久之浜","lat":37.140091,"lng":140.994967},{"code":"072042120","name":"久之浜町田之網","lat":37.123133,"lng":140.990545},{"code":"072042130","name":"大久町大久","lat":37.182695,"lng":140.933904},{"code":"072042140","name":"大久町小久","lat":37.146754,"lng":140.961258},{"code":"072042150","name":"大久町小山田","lat":37.135338,"lng":140.963297},{"code":"072045030","name":"好間工業団地","lat":37.07748,"lng":140.848344},{"code":"07204504001","name":"久之浜町西１丁目","lat":37.148083,"lng":140.990749},{"code":"07204504002","name":"久之浜町西２丁目","lat":37.147653,"lng":140.993019},{"code":"07204504003","name":"久之浜町西３丁目","lat":37.144564,"lng":140.994402},{"code":"07204505001","name":"泉玉露１丁目","lat":36.958416,"lng":140.857098},{"code":"07204505002","name":"泉玉露２丁目","lat":36.956194,"lng":140.850281},{"code":"07204505003","name":"泉玉露３丁目","lat":36.958346,"lng":140.853345},{"code":"07204505004","name":"泉玉露４丁目","lat":36.958388,"lng":140.849571},{"code":"07204505005","name":"泉玉露５丁目","lat":36.960436,"lng":140.852044},{"code":"07204505006","name":"泉玉露６丁目","lat":36.958732,"lng":140.8455},{"code":"07204505007","name":"泉玉露７丁目","lat":36.955491,"lng":140.845588},{"code":"07204506001","name":"湘南台１丁目","lat":36.959941,"lng":140.9126},{"code":"07204506002","name":"湘南台２丁目","lat":36.959876,"lng":140.915368},{"code":"07204507001","name":"泉ケ丘１丁目","lat":36.966323,"lng":140.857263},{"code":"07204507002","name":"泉ケ丘２丁目","lat":36.96316,"lng":140.857562},{"code":"07204507003","name":"泉ケ丘３丁目","lat":36.9691,"lng":140.858091},{"code":"07204509001","name":"南台１丁目","lat":36.931687,"lng":140.746151},{"code":"07204509002","name":"南台２丁目","lat":36.932217,"lng":140.751239},{"code":"07204509003","name":"南台３丁目","lat":36.938889,"lng":140.750004},{"code":"07204509004","name":"南台４丁目","lat":36.937865,"lng":140.743909},{"code":"07204510001","name":"草木台１丁目","lat":37.020451,"lng":140.867395},{"code":"07204510002","name":"草木台２丁目","lat":37.016471,"lng":140.86834},{"code":"07204510003","name":"草木台３丁目","lat":37.020128,"lng":140.869997},{"code":"07204510004","name":"草木台４丁目","lat":37.017728,"lng":140.871313},{"code":"07204601001","name":"中央台飯野１丁目","lat":37.020181,"lng":140.906684},{"code":"07204601002","name":"中央台飯野２丁目","lat":37.012673,"lng":140.910619},{"code":"07204601003","name":"中央台飯野３丁目","lat":37.015838,"lng":140.912249},{"code":"07204601004","name":"中央台飯野４丁目","lat":37.014878,"lng":140.918088},{"code":"07204601005","name":"中央台飯野５丁目","lat":37.019399,"lng":140.916421},{"code":"07204602001","name":"中央台鹿島１丁目","lat":37.004047,"lng":140.914949},{"code":"07204602002","name":"中央台鹿島２丁目","lat":37.000944,"lng":140.924388},{"code":"07204602003","name":"中央台鹿島３丁目","lat":37.005804,"lng":140.921182},{"code":"07204603001","name":"中央台高久１丁目","lat":37.011071,"lng":140.926577},{"code":"07204603002","name":"中央台高久２丁目","lat":37.008553,"lng":140.927964},{"code":"07204603003","name":"中央台高久３丁目","lat":37.004298,"lng":140.931321},{"code":"07204603004","name":"中央台高久４丁目","lat":37.012543,"lng":140.930353},{"code":"07204607001","name":"平成１丁目","lat":37.042517,"lng":140.883522},{"code":"07204607002","name":"平成２丁目","lat":37.041796,"lng":140.881055},{"code":"072046080","name":"鹿島町上蔵持","lat":36.98986,"lng":140.934606},{"code":"07204609001","name":"泉もえぎ台１丁目","lat":36.945879,"lng":140.848674},{"code":"07204609002","name":"泉もえぎ台２丁目","lat":36.948354,"lng":140.846237},{"code":"07204609003","name":"泉もえぎ台３丁目","lat":36.947309,"lng":140.842534}]}
