{"municipality":"07212","name":"南相馬市","prefecture":"福島県","source":{"dataset":"frogcat/japan-small-area","census":"平成27年国勢調査 小地域（e-Stat 統計LOD）","license":"MIT（リポジトリ）／政府統計の総合窓口(e-Stat)の利用規約（元データ・出典表記必要）","fetched":"2026-07-06"},"towns":[{"code":"07212001001","name":"原町区国見町１丁目","lat":37.631135,"lng":140.953977},{"code":"07212001002","name":"原町区国見町２丁目","lat":37.627897,"lng":140.952891},{"code":"07212001003","name":"原町区国見町３丁目","lat":37.625876,"lng":140.948887},{"code":"07212002001","name":"原町区上町１丁目","lat":37.632571,"lng":140.951933},{"code":"07212002002","name":"原町区上町２丁目","lat":37.631081,"lng":140.947993},{"code":"07212002003","name":"原町区上町３丁目","lat":37.628781,"lng":140.94801},{"code":"07212003001","name":"原町区西町１丁目","lat":37.637286,"lng":140.950578},{"code":"07212003002","name":"原町区西町２丁目","lat":37.635121,"lng":140.950426},{"code":"07212003003","name":"原町区西町３丁目","lat":37.633894,"lng":140.945315},{"code":"07212004001","name":"原町区三島町１丁目","lat":37.636154,"lng":140.954785},{"code":"07212004002","name":"原町区三島町２丁目","lat":37.639905,"lng":140.954452},{"code":"07212004003","name":"原町区三島町３丁目","lat":37.642731,"lng":140.955258},{"code":"072120050","name":"原町区北町","lat":37.64637,"lng":140.951811},{"code":"072120060","name":"原町区小川町","lat":37.647075,"lng":140.960338},{"code":"07212007001","name":"原町区本町１丁目","lat":37.639378,"lng":140.958319},{"code":"07212007002","name":"原町区本町２丁目","lat":37.641724,"lng":140.95859},{"code":"07212007003","name":"原町区本町３丁目","lat":37.643933,"lng":140.958842},{"code":"07212008001","name":"原町区南町１丁目","lat":37.637312,"lng":140.958168},{"code":"07212008002","name":"原町区南町２丁目","lat":37.634958,"lng":140.957992},{"code":"07212008003","name":"原町区南町３丁目","lat":37.63195,"lng":140.957115},{"code":"07212008004","name":"原町区南町４丁目","lat":37.62839,"lng":140.956851},{"code":"07212009001","name":"原町区本陣前１丁目","lat":37.624807,"lng":140.95492},{"code":"07212009002","name":"原町区本陣前２丁目","lat":37.621596,"lng":140.952812},{"code":"07212009003","name":"原町区本陣前３丁目","lat":37.619279,"lng":140.949798},{"code":"07212010001","name":"原町区橋本町１丁目","lat":37.634741,"lng":140.962014},{"code":"07212010002","name":"原町区橋本町２丁目","lat":37.631981,"lng":140.962354},{"code":"07212010003","name":"原町区橋本町３丁目","lat":37.629406,"lng":140.961309},{"code":"07212010004","name":"原町区橋本町４丁目","lat":37.626927,"lng":140.961025},{"code":"07212011001","name":"原町区栄町１丁目","lat":37.637508,"lng":140.960735},{"code":"07212011002","name":"原町区栄町２丁目","lat":37.637475,"lng":140.962387},{"code":"07212011003","name":"原町区栄町３丁目","lat":37.637112,"lng":140.964933},{"code":"07212012001","name":"原町区大町１丁目","lat":37.640094,"lng":140.961298},{"code":"07212012002","name":"原町区大町２丁目","lat":37.639942,"lng":140.964173},{"code":"07212012003","name":"原町区大町３丁目","lat":37.639632,"lng":140.968007},{"code":"07212013001","name":"原町区東町１丁目","lat":37.642864,"lng":140.96124},{"code":"07212013002","name":"原町区東町２丁目","lat":37.642704,"lng":140.963507},{"code":"07212013003","name":"原町区東町３丁目","lat":37.642419,"lng":140.966284},{"code":"07212014001","name":"原町区旭町１丁目","lat":37.637838,"lng":140.967129},{"code":"07212014002","name":"原町区旭町２丁目","lat":37.6374,"lng":140.970616},{"code":"07212014003","name":"原町区旭町３丁目","lat":37.635896,"lng":140.969119},{"code":"07212014004","name":"原町区旭町４丁目","lat":37.635317,"lng":140.972835},{"code":"07212015001","name":"原町区二見町１丁目","lat":37.63433,"lng":140.965819},{"code":"07212015002","name":"原町区二見町２丁目","lat":37.633916,"lng":140.968709},{"code":"07212015003","name":"原町区二見町３丁目","lat":37.632954,"lng":140.971228},{"code":"07212015004","name":"原町区二見町４丁目","lat":37.629121,"lng":140.967258},{"code":"07212016001","name":"原町区青葉町１丁目","lat":37.634069,"lng":140.978243},{"code":"07212016002","name":"原町区青葉町２丁目","lat":37.632394,"lng":140.974166},{"code":"07212016003","name":"原町区青葉町３丁目","lat":37.630946,"lng":140.977256},{"code":"07212016004","name":"原町区青葉町４丁目","lat":37.628617,"lng":140.973241},{"code":"07212017001","name":"原町区錦町１丁目","lat":37.639018,"lng":140.972713},{"code":"07212017002","name":"原町区錦町２丁目","lat":37.64149,"lng":140.971103},{"code":"07212017003","name":"原町区錦町３丁目","lat":37.644037,"lng":140.969381},{"code":"07212018001","name":"原町区桜井町１丁目","lat":37.637715,"lng":140.977911},{"code":"07212018002","name":"原町区桜井町２丁目","lat":37.64079,"lng":140.979815},{"code":"07212019001","name":"原町区高見町１丁目","lat":37.639793,"lng":140.986131},{"code":"07212019002","name":"原町区高見町２丁目","lat":37.636315,"lng":140.98545},{"code":"072120200","name":"原町区日の出町","lat":37.632124,"lng":140.986446},{"code":"07212021001","name":"原町区仲町１丁目","lat":37.641991,"lng":140.94965},{"code":"07212021002","name":"原町区仲町２丁目","lat":37.639799,"lng":140.949743},{"code":"07212021003","name":"原町区仲町３丁目","lat":37.639296,"lng":140.947169},{"code":"072120220","name":"原町区上渋佐","lat":37.639138,"lng":140.998728},{"code":"072120230","name":"原町区下渋佐","lat":37.636864,"lng":141.01677},{"code":"07212024001","name":"原町区萱浜字赤沼","lat":37.629865,"lng":141.009158},{"code":"07212024002","name":"原町区萱浜字六貫山","lat":37.623071,"lng":141.009659},{"code":"072120250","name":"原町区北原","lat":37.625069,"lng":140.990292},{"code":"07212026001","name":"原町区大甕字戸屋下","lat":37.60939,"lng":140.997386},{"code":"07212026002","name":"原町区大甕字十日迫","lat":37.60513,"lng":141.008149},{"code":"072120270","name":"原町区雫","lat":37.611916,"lng":141.011214},{"code":"07212028001","name":"原町区小浜字西内","lat":37.594584,"lng":141.021063},{"code":"07212028002","name":"原町区米々沢字竹ノ花","lat":37.597008,"lng":141.007199},{"code":"072120290","name":"原町区江井","lat":37.589621,"lng":141.00257},{"code":"072120300","name":"原町区下江井","lat":37.585391,"lng":141.012974},{"code":"072120310","name":"原町区小沢","lat":37.579497,"lng":141.022304},{"code":"072120320","name":"原町区堤谷","lat":37.578726,"lng":141.005863},{"code":"072120330","name":"原町区小木迫","lat":37.581041,"lng":140.986359},{"code":"072120340","name":"原町区鶴谷","lat":37.590438,"lng":140.965932},{"code":"07212035001","name":"原町区高字大豆柄内","lat":37.603863,"lng":140.991517},{"code":"07212035002","name":"原町区高字大久保前","lat":37.598164,"lng":140.993761},{"code":"072120360","name":"原町区益田","lat":37.602478,"lng":140.976392},{"code":"072120370","name":"原町区下太田","lat":37.614427,"lng":140.982409},{"code":"072120380","name":"原町区牛来","lat":37.621239,"lng":140.970556},{"code":"072120390","name":"原町区中太田","lat":37.612985,"lng":140.962839},{"code":"07212040001","name":"原町区上太田字陣ケ崎","lat":37.613581,"lng":140.94432},{"code":"07212040002","name":"原町区上太田字陣ケ崎","lat":37.609475,"lng":140.943689},{"code":"07212040003","name":"原町区上太田字堰場","lat":37.60549,"lng":140.948529},{"code":"072120410","name":"原町区矢川原","lat":37.59862,"lng":140.952108},{"code":"072120420","name":"原町区片倉","lat":37.583005,"lng":140.901259},{"code":"07212043001","name":"原町区馬場字欠下","lat":37.592415,"lng":140.87241},{"code":"07212043002","name":"原町区馬場字下中ノ内","lat":37.614983,"lng":140.933687},{"code":"07212044001","name":"原町区大木戸字松島","lat":37.619907,"lng":140.940107},{"code":"07212044002","name":"原町区大木戸字北西原","lat":37.635093,"lng":140.934796},{"code":"07212044003","name":"原町区大木戸字大鹿","lat":37.629746,"lng":140.941104},{"code":"072120450","name":"原町区牛越","lat":37.642682,"lng":140.942136},{"code":"072120460","name":"原町区石神","lat":37.640971,"lng":140.924465},{"code":"072120470","name":"原町区押釜","lat":37.624349,"lng":140.91588},{"code":"072120480","name":"原町区高倉","lat":37.632119,"lng":140.866693},{"code":"072120490","name":"原町区大谷","lat":37.649596,"lng":140.901085},{"code":"072120500","name":"原町区大原","lat":37.667674,"lng":140.857826},{"code":"072120510","name":"原町区信田沢","lat":37.652447,"lng":140.920235},{"code":"072120520","name":"原町区深野","lat":37.671573,"lng":140.923795},{"code":"072120530","name":"原町区長野","lat":37.650562,"lng":140.939067},{"code":"072120540","name":"原町区北長野","lat":37.655657,"lng":140.942178},{"code":"072120550","name":"原町区北新田","lat":37.657706,"lng":140.952668},{"code":"07212056001","name":"原町区上北高平字西高松","lat":37.668797,"lng":140.95468},{"code":"07212056002","name":"原町区上北高平字曲田","lat":37.656041,"lng":140.976992},{"code":"07212056003","name":"原町区上北高平字高松","lat":37.660469,"lng":140.959549},{"code":"07212057001","name":"原町区上高平字川原","lat":37.646425,"lng":140.974024},{"code":"07212057002","name":"原町区上高平字中里","lat":37.653087,"lng":140.966858},{"code":"072120580","name":"原町区下高平","lat":37.646136,"lng":140.987578},{"code":"072120590","name":"原町区下北高平","lat":37.656142,"lng":140.988458},{"code":"072120600","name":"原町区泉","lat":37.647896,"lng":141.007461},{"code":"072120610","name":"原町区北泉","lat":37.655961,"lng":141.010172},{"code":"072120620","name":"原町区金沢","lat":37.666727,"lng":141.000546},{"code":"07212063001","name":"鹿島区西町二丁目","lat":37.7061,"lng":140.964229},{"code":"07212063002","name":"鹿島区西町一丁目","lat":37.702893,"lng":140.966758},{"code":"07212063003","name":"鹿島区鹿島字瀬戸畑","lat":37.702127,"lng":140.969487},{"code":"07212063004","name":"鹿島区鹿島字町","lat":37.702771,"lng":140.971978},{"code":"07212063005","name":"鹿島区鹿島字舘ノ内","lat":37.701552,"lng":140.978185},{"code":"07212063006","name":"鹿島区北右田","lat":37.698838,"lng":140.994895},{"code":"07212063007","name":"鹿島区南右田字中ノ内","lat":37.691103,"lng":141.001653},{"code":"07212064001","name":"鹿島区寺内字横峰","lat":37.688646,"lng":140.944406},{"code":"07212064002","name":"鹿島区寺内字南町","lat":37.699348,"lng":140.956295},{"code":"07212064003","name":"鹿島区江垂字東前田","lat":37.69258,"lng":140.970312},{"code":"07212064004","name":"鹿島区塩崎字蛇沼","lat":37.680073,"lng":140.959247},{"code":"07212064005","name":"鹿島区川子","lat":37.674635,"lng":140.97732},{"code":"07212064006","name":"鹿島区小島田字北畑","lat":37.691239,"lng":140.983762},{"code":"07212064007","name":"鹿島区江垂","lat":37.682166,"lng":140.994754},{"code":"07212064008","name":"鹿島区烏崎字鳥居作","lat":37.677117,"lng":141.010153},{"code":"07212065001","name":"鹿島区上栃窪","lat":37.730361,"lng":140.868494},{"code":"07212065002","name":"鹿島区栃窪字瀬ノ沢","lat":37.728434,"lng":140.893441},{"code":"07212065003","name":"鹿島区御山","lat":37.736968,"lng":140.911863},{"code":"07212065004","name":"鹿島区山下字安倉","lat":37.728497,"lng":140.919794},{"code":"07212065005","name":"鹿島区角川原","lat":37.728106,"lng":140.933003},{"code":"07212065006","name":"鹿島区横手字白坂","lat":37.736017,"lng":140.935904},{"code":"07212065007","name":"鹿島区横手字飯森松","lat":37.719936,"lng":140.950205},{"code":"07212065008","name":"鹿島区横手字町田","lat":37.710147,"lng":140.962659},{"code":"07212065009","name":"鹿島区牛河内","lat":37.707047,"lng":140.950634},{"code":"07212065010","name":"鹿島区岡和田","lat":37.712342,"lng":140.949126},{"code":"07212065011","name":"鹿島区岡和田字細内","lat":37.716389,"lng":140.931543},{"code":"07212065012","name":"鹿島区小山田字曲田","lat":37.707393,"lng":140.906991},{"code":"07212065013","name":"鹿島区橲原字地蔵木","lat":37.69846,"lng":140.860376},{"code":"07212065014","name":"鹿島区小池字作田","lat":37.691373,"lng":140.929348},{"code":"07212066001","name":"鹿島区永渡","lat":37.736846,"lng":140.946725},{"code":"07212066002","name":"鹿島区南柚木字相馬清水","lat":37.731759,"lng":140.96472},{"code":"07212066003","name":"鹿島区永田","lat":37.718991,"lng":140.961382},{"code":"07212066004","name":"鹿島区南屋形字前畑","lat":37.713419,"lng":140.974595},{"code":"07212066005","name":"鹿島区北屋形","lat":37.725471,"lng":140.98567},{"code":"07212066006","name":"鹿島区北海老字松坂","lat":37.710337,"lng":140.994642},{"code":"07212066007","name":"鹿島区南海老字大森","lat":37.705928,"lng":141.006279},{"code":"07212066008","name":"鹿島区北海老字釜舟戸","lat":37.717563,"lng":141.002936},{"code":"07212067101","name":"小高区西町１丁目","lat":37.563868,"lng":140.983611},{"code":"07212067102","name":"小高区西町２丁目","lat":37.561482,"lng":140.981672},{"code":"07212067201","name":"小高区上町１丁目","lat":37.565191,"lng":140.98501},{"code":"07212067202","name":"小高区上町２丁目","lat":37.566449,"lng":140.98586},{"code":"07212068101","name":"小高区関場１丁目","lat":37.562252,"lng":140.986629},{"code":"07212068102","name":"小高区関場２丁目","lat":37.560707,"lng":140.985946},{"code":"07212068201","name":"小高区仲町１丁目","lat":37.564361,"lng":140.987849},{"code":"07212068202","name":"小高区仲町２丁目","lat":37.56617,"lng":140.988603},{"code":"07212069001","name":"小高区大町１丁目","lat":37.564018,"lng":140.990127},{"code":"07212069002","name":"小高区大町２丁目","lat":37.565827,"lng":140.990783},{"code":"07212070101","name":"小高区田町１丁目","lat":37.561577,"lng":140.989625},{"code":"07212070102","name":"小高区田町２丁目","lat":37.56144,"lng":140.991297},{"code":"07212070201","name":"小高区本町１丁目","lat":37.563641,"lng":140.991872},{"code":"07212070202","name":"小高区本町２丁目","lat":37.56586,"lng":140.992677},{"code":"07212071001","name":"小高区東町１丁目","lat":37.562778,"lng":140.994624},{"code":"07212071002","name":"小高区東町２丁目","lat":37.564578,"lng":140.99498},{"code":"07212071003","name":"小高区東町３丁目","lat":37.566353,"lng":140.995359},{"code":"072120720","name":"小高区小高","lat":37.570151,"lng":140.985194},{"code":"072120730","name":"小高区片草","lat":37.576178,"lng":140.97098},{"code":"072120740","name":"小高区吉名","lat":37.546364,"lng":140.981839},{"code":"072120750","name":"小高区岡田","lat":37.554697,"lng":141.006719},{"code":"072120760","name":"小高区岡田","lat":37.560359,"lng":141.006613},{"code":"072120770","name":"小高区大井","lat":37.569222,"lng":141.002578},{"code":"072120780","name":"小高区塚原","lat":37.567092,"lng":141.017338},{"code":"072120790","name":"小高区飯崎","lat":37.558065,"lng":140.965759},{"code":"072120800","name":"小高区飯崎","lat":37.557071,"lng":140.947657},{"code":"072120810","name":"小高区小谷","lat":37.569613,"lng":140.963443},{"code":"072120821","name":"小高区大富","lat":37.567045,"lng":140.940803},{"code":"072120822","name":"小高区小谷","lat":37.564548,"lng":140.949281},{"code":"072120830","name":"小高区南鳩原","lat":37.572845,"lng":140.950473},{"code":"072120840","name":"小高区北鳩原","lat":37.582102,"lng":140.953614},{"code":"072120850","name":"小高区羽倉","lat":37.554761,"lng":140.906419},{"code":"072120860","name":"小高区大富","lat":37.568567,"lng":140.93323},{"code":"072120870","name":"小高区金谷","lat":37.553653,"lng":140.933971},{"code":"072120880","name":"小高区川房","lat":37.534005,"lng":140.936567},{"code":"072120890","name":"小高区大田和","lat":37.545413,"lng":140.946004},{"code":"072120900","name":"小高区小屋木","lat":37.542416,"lng":140.963458},{"code":"072120910","name":"小高区女場","lat":37.542626,"lng":141.01016},{"code":"072120920","name":"小高区角部内","lat":37.544326,"lng":141.022782},{"code":"072120930","name":"小高区蛯沢","lat":37.531726,"lng":141.007492},{"code":"072120940","name":"小高区蛯沢","lat":37.536245,"lng":141.021329},{"code":"072120950","name":"小高区浦尻","lat":37.517696,"lng":141.025345},{"code":"072120960","name":"小高区下浦","lat":37.514245,"lng":141.007358},{"code":"072120970","name":"小高区行津","lat":37.519512,"lng":141.001706},{"code":"072120980","name":"小高区上浦","lat":37.521481,"lng":140.987738},{"code":"072120990","name":"小高区神山","lat":37.523049,"lng":140.970045},{"code":"072121000","name":"小高区耳谷","lat":37.529405,"lng":140.983745},{"code":"072121010","name":"小高区耳谷","lat":37.525432,"lng":140.999555},{"code":"072121021","name":"小高区水谷","lat":37.542529,"lng":140.997034},{"code":"072121022","name":"小高区泉沢","lat":37.538538,"lng":140.994013},{"code":"072121030","name":"小高区福岡","lat":37.55094,"lng":141.006092},{"code":"072121040","name":"小高区村上","lat":37.553856,"lng":141.025621},{"code":"072121050","name":"小高区井田川","lat":37.526775,"lng":141.01938}]}
