{"municipality":"07483","name":"東白川郡塙町","prefecture":"福島県","source":{"dataset":"frogcat/japan-small-area","census":"平成27年国勢調査 小地域（e-Stat 統計LOD）","license":"MIT（リポジトリ）／政府統計の総合窓口(e-Stat)の利用規約（元データ・出典表記必要）","fetched":"2026-07-06"},"towns":[{"code":"07483001001","name":"大字塙字上町","lat":36.957256,"lng":140.418442},{"code":"07483001002","name":"大字塙字桜木町","lat":36.950231,"lng":140.419984},{"code":"07483001003","name":"大字塙字本町","lat":36.953103,"lng":140.41447},{"code":"07483001004","name":"大字塙字本町","lat":36.954211,"lng":140.41249},{"code":"07483001005","name":"大字塙字栄町","lat":36.956018,"lng":140.411816},{"code":"07483001006","name":"大字塙字材木町","lat":36.959985,"lng":140.408834},{"code":"07483002001","name":"大字上渋井字安久津","lat":36.96842,"lng":140.412911},{"code":"07483002002","name":"大字上渋井字塚田","lat":36.96297,"lng":140.407279},{"code":"074830030","name":"大字堀越","lat":36.998488,"lng":140.412729},{"code":"074830040","name":"大字西河内","lat":36.98535,"lng":140.422557},{"code":"07483005001","name":"大字東河内字出戸","lat":36.994517,"lng":140.444805},{"code":"07483005002","name":"大字東河内字一本木","lat":37.005395,"lng":140.461872},{"code":"07483006001","name":"大字常世北野字天神","lat":36.977011,"lng":140.444002},{"code":"07483006002","name":"大字常世北野字天神","lat":36.96926,"lng":140.437196},{"code":"07483006003","name":"大字常世北野字赤坂","lat":36.966098,"lng":140.424205},{"code":"074830070","name":"大字常世中野","lat":36.96534,"lng":140.447134},{"code":"074830080","name":"大字竹之内","lat":36.95872,"lng":140.425521},{"code":"074830090","name":"大字板庭","lat":36.948727,"lng":140.431346},{"code":"074830100","name":"大字中塚","lat":36.95542,"lng":140.44652},{"code":"074830110","name":"大字田野作","lat":36.960717,"lng":140.461647},{"code":"07483012001","name":"大字山形字久保畑","lat":36.944598,"lng":140.464174},{"code":"07483012002","name":"大字山形字竹ノ下","lat":36.92967,"lng":140.460856},{"code":"07483012003","name":"大字山形字前田","lat":36.918489,"lng":140.447865},{"code":"07483012004","name":"大字山形字森ノ根","lat":36.932096,"lng":140.447221},{"code":"07483013001","name":"大字大蕨字津辺ノ栖","lat":36.922112,"lng":140.488156},{"code":"07483013002","name":"大字大蕨字南田代","lat":36.906835,"lng":140.497989},{"code":"07483014001","name":"大字田代字下五斗蒔","lat":36.94594,"lng":140.495592},{"code":"07483014002","name":"大字田代字森ノ前","lat":36.949221,"lng":140.456233},{"code":"07483015001","name":"大字那倉字田ノ入","lat":36.915807,"lng":140.546352},{"code":"07483015002","name":"大字那倉字矢塚","lat":36.882448,"lng":140.549585},{"code":"07483016001","name":"大字片貝字前板木","lat":36.875622,"lng":140.517981},{"code":"07483016002","name":"大字片貝字長久木","lat":36.875775,"lng":140.568118},{"code":"07483016003","name":"大字片貝字長久木","lat":36.899811,"lng":140.506515},{"code":"074830170","name":"大字湯岐","lat":36.89269,"lng":140.47511},{"code":"074830180","name":"大字木野反","lat":36.90917,"lng":140.460286},{"code":"07483019001","name":"大字川上字道場","lat":36.946901,"lng":140.442725},{"code":"07483019002","name":"大字川上字堀ノ内","lat":36.939677,"lng":140.441576},{"code":"07483019003","name":"大字川上字清水","lat":36.940303,"lng":140.449426},{"code":"07483019004","name":"大字川上字和久","lat":36.929049,"lng":140.439056},{"code":"074830200","name":"大字上石井","lat":36.938485,"lng":140.420536},{"code":"07483021001","name":"大字台宿字中稲沢","lat":36.953336,"lng":140.375973},{"code":"07483021002","name":"大字台宿字下稲沢","lat":36.949519,"lng":140.404824},{"code":"07483021003","name":"大字台宿字南原","lat":36.949505,"lng":140.401701},{"code":"074830220","name":"大字伊香","lat":36.929132,"lng":140.389145},{"code":"074830230","name":"大字植田","lat":36.903074,"lng":140.40215},{"code":"074830240","name":"大字真名畑","lat":36.921726,"lng":140.348115}]}
