{"municipality":"07503","name":"石川郡平田村","prefecture":"福島県","source":{"dataset":"frogcat/japan-small-area","census":"平成27年国勢調査 小地域（e-Stat 統計LOD）","license":"MIT（リポジトリ）／政府統計の総合窓口(e-Stat)の利用規約（元データ・出典表記必要）","fetched":"2026-07-06"},"towns":[{"code":"075030010","name":"大字永田","lat":37.214877,"lng":140.575901},{"code":"075030020","name":"大字小松原","lat":37.213871,"lng":140.560598},{"code":"07503003001","name":"大字下蓬田字瓦宿","lat":37.226904,"lng":140.549197},{"code":"07503003002","name":"大字下蓬田字打違内","lat":37.248974,"lng":140.532239},{"code":"07503003003","name":"大字下蓬田字乙空釜","lat":37.229675,"lng":140.52248},{"code":"075030040","name":"大字上蓬田","lat":37.247044,"lng":140.565196},{"code":"075030050","name":"大字蓬田新田","lat":37.262418,"lng":140.549182},{"code":"075030060","name":"大字九生滝","lat":37.242581,"lng":140.590846},{"code":"075030070","name":"大字鴇子","lat":37.220216,"lng":140.594004},{"code":"075030080","name":"大字小平","lat":37.180828,"lng":140.555222},{"code":"07503009001","name":"大字西山字沼ノ平","lat":37.198795,"lng":140.554884},{"code":"07503009002","name":"大字西山字煙石","lat":37.207103,"lng":140.527716},{"code":"075030100","name":"大字東山","lat":37.203364,"lng":140.593346},{"code":"07503011001","name":"大字北方字羽貫田","lat":37.177092,"lng":140.595073},{"code":"07503011002","name":"大字北方字橋本","lat":37.190686,"lng":140.565202},{"code":"075030120","name":"大字駒形","lat":37.173944,"lng":140.575733},{"code":"07503013001","name":"大字中倉字暮坪","lat":37.167411,"lng":140.542793},{"code":"07503013002","name":"大字中倉字小種石","lat":37.188659,"lng":140.518685}]}
