{"municipality":"08211","name":"常総市","prefecture":"茨城県","source":{"dataset":"frogcat/japan-small-area","census":"平成27年国勢調査 小地域（e-Stat 統計LOD）","license":"MIT（リポジトリ）／政府統計の総合窓口(e-Stat)の利用規約（元データ・出典表記必要）","fetched":"2026-07-06"},"towns":[{"code":"082110010","name":"水海道高野町","lat":36.008043,"lng":139.979993},{"code":"082110020","name":"水海道天満町","lat":36.014757,"lng":139.983759},{"code":"082110030","name":"水海道亀岡町","lat":36.01861,"lng":139.985274},{"code":"082110040","name":"水海道本町","lat":36.02049,"lng":139.984259},{"code":"082110050","name":"水海道元町","lat":36.023624,"lng":139.986253},{"code":"082110060","name":"水海道栄町","lat":36.019893,"lng":139.988008},{"code":"082110070","name":"水海道宝町","lat":36.019761,"lng":139.990585},{"code":"082110080","name":"水海道諏訪町","lat":36.023023,"lng":139.994054},{"code":"082110090","name":"水海道橋本町","lat":36.026598,"lng":139.99159},{"code":"082110100","name":"水海道森下町","lat":36.031128,"lng":139.988044},{"code":"082110110","name":"水海道渕頭町","lat":36.019009,"lng":139.995875},{"code":"082110120","name":"水海道山田町","lat":36.010661,"lng":139.990997},{"code":"082110130","name":"水海道川又町","lat":36.002467,"lng":139.991878},{"code":"08211014001","name":"豊岡町前原","lat":36.024339,"lng":139.976907},{"code":"08211014002","name":"豊岡町河原","lat":36.024388,"lng":139.982421},{"code":"08211014003","name":"豊岡町横曽根上","lat":36.035117,"lng":139.977607},{"code":"08211014004","name":"豊岡町横曽根下","lat":36.029171,"lng":139.978952},{"code":"08211014005","name":"豊岡町谷津","lat":36.030016,"lng":139.972809},{"code":"08211014006","name":"豊岡町下谷原","lat":36.028291,"lng":139.964853},{"code":"08211014007","name":"豊岡町芋内","lat":36.033381,"lng":139.963359},{"code":"08211014008","name":"豊岡町報恩寺","lat":36.033478,"lng":139.970044},{"code":"08211014009","name":"豊岡町北部","lat":36.049735,"lng":139.971409},{"code":"08211014010","name":"豊岡町飯沼","lat":36.041652,"lng":139.974471},{"code":"08211014011","name":"豊岡町細野上","lat":36.047356,"lng":139.952618},{"code":"08211014012","name":"豊岡町細野中","lat":36.039139,"lng":139.962956},{"code":"08211014013","name":"豊岡町細野下","lat":36.031462,"lng":139.953408},{"code":"08211014014","name":"豊岡町六軒","lat":36.024144,"lng":139.961391},{"code":"08211014015","name":"豊岡町砂原","lat":36.019607,"lng":139.973542},{"code":"08211014016","name":"豊岡町浜","lat":36.01737,"lng":139.968738},{"code":"082110150","name":"笹塚新田町","lat":36.04755,"lng":139.959534},{"code":"08211016001","name":"横曽根新田町浅間下","lat":36.053871,"lng":139.959565},{"code":"08211016002","name":"横曽根新田町桶道","lat":36.047584,"lng":139.965018},{"code":"082110170","name":"五郎兵衛新田町","lat":36.057197,"lng":139.947659},{"code":"08211018001","name":"大生郷町上新田","lat":36.090572,"lng":139.945652},{"code":"08211018002","name":"大生郷町中坪","lat":36.084683,"lng":139.947101},{"code":"08211018003","name":"大生郷町山口","lat":36.075108,"lng":139.949305},{"code":"08211018004","name":"大生郷町内久根","lat":36.065114,"lng":139.951063},{"code":"08211018005","name":"大生郷町中新田","lat":36.071087,"lng":139.952873},{"code":"08211018006","name":"大生郷町駒込","lat":36.066899,"lng":139.954845},{"code":"08211018007","name":"大生郷町柏木","lat":36.062929,"lng":139.962184},{"code":"08211018008","name":"大生郷町向丘","lat":36.058451,"lng":139.960964},{"code":"08211018009","name":"大生郷町天神下","lat":36.060287,"lng":139.955477},{"code":"08211018010","name":"大生郷町上口","lat":36.072,"lng":139.958457},{"code":"08211018011","name":"大生郷町大生郷工業団地","lat":36.082302,"lng":139.95344},{"code":"08211019001","name":"大生郷新田町上新田","lat":36.090681,"lng":139.939918},{"code":"08211019002","name":"大生郷新田町中坪","lat":36.079945,"lng":139.943681},{"code":"08211019003","name":"大生郷新田町下新田","lat":36.067257,"lng":139.945909},{"code":"08211020001","name":"伊左衛門新田町中坪","lat":36.079617,"lng":139.93989},{"code":"08211020002","name":"伊左衛門新田町下新田","lat":36.06783,"lng":139.940377},{"code":"08211021001","name":"羽生町下羽生","lat":36.048658,"lng":139.981114},{"code":"08211021002","name":"羽生町台羽生","lat":36.041647,"lng":139.982396},{"code":"08211022001","name":"大輪町築地","lat":36.071853,"lng":139.964978},{"code":"08211022002","name":"大輪町金谷","lat":36.065611,"lng":139.966433},{"code":"08211022003","name":"大輪町上大輪","lat":36.069002,"lng":139.973312},{"code":"08211022004","name":"大輪町中大輪","lat":36.060974,"lng":139.972355},{"code":"08211022005","name":"大輪町下大輪","lat":36.058352,"lng":139.977018},{"code":"08211022006","name":"大輪町満蔵","lat":36.05575,"lng":139.97093},{"code":"08211023001","name":"花島町上花島","lat":36.083062,"lng":139.961251},{"code":"08211023002","name":"花島町下花島","lat":36.076697,"lng":139.971213},{"code":"08211023003","name":"花島町築地","lat":36.075662,"lng":139.96217},{"code":"08211024001","name":"中妻町十家","lat":36.067889,"lng":139.983579},{"code":"08211024002","name":"中妻町沖之内","lat":36.061966,"lng":139.984005},{"code":"08211024003","name":"中妻町中部","lat":36.056214,"lng":139.987022},{"code":"08211024004","name":"中妻町砂場","lat":36.05048,"lng":139.989866},{"code":"08211024005","name":"中妻町根新田","lat":36.048242,"lng":139.994211},{"code":"08211024006","name":"中妻町寺前","lat":36.044812,"lng":139.989755},{"code":"08211024007","name":"中妻町後宿","lat":36.041619,"lng":139.990991},{"code":"08211024008","name":"中妻町千代田団地","lat":36.045838,"lng":139.992349},{"code":"08211025001","name":"三坂町上三坂","lat":36.097426,"lng":139.966663},{"code":"08211025002","name":"三坂町中三坂","lat":36.090403,"lng":139.966426},{"code":"08211025003","name":"三坂町沖三坂","lat":36.09276,"lng":139.973778},{"code":"08211025004","name":"三坂町山戸内","lat":36.08505,"lng":139.975248},{"code":"08211025005","name":"三坂町白畑","lat":36.080053,"lng":139.979566},{"code":"08211025006","name":"三坂町五家","lat":36.075091,"lng":139.979944},{"code":"08211025007","name":"三坂町駅前","lat":36.075194,"lng":139.984448},{"code":"08211026001","name":"沖新田町沖新田上","lat":36.059104,"lng":139.996677},{"code":"08211026002","name":"沖新田町沖新田南","lat":36.051087,"lng":140.000158},{"code":"08211027001","name":"三坂新田町三坂新田上","lat":36.08405,"lng":139.987534},{"code":"08211027002","name":"三坂新田町三坂新田中","lat":36.077803,"lng":139.989315},{"code":"08211027003","name":"三坂新田町三坂新田下","lat":36.069081,"lng":139.992219},{"code":"08211028001","name":"福二町福二上","lat":36.088632,"lng":139.993963},{"code":"08211028002","name":"福二町福二下","lat":36.084365,"lng":139.996399},{"code":"08211029001","name":"上蛇町元上蛇","lat":36.079696,"lng":139.997988},{"code":"08211029002","name":"上蛇町吉野","lat":36.074007,"lng":139.998105},{"code":"08211029003","name":"上蛇町古敷上","lat":36.071864,"lng":140.004867},{"code":"08211029004","name":"上蛇町古敷下","lat":36.067773,"lng":140.001161},{"code":"08211030001","name":"川崎町中川崎","lat":36.062423,"lng":140.001131},{"code":"08211030002","name":"川崎町下川崎","lat":36.055589,"lng":140.008075},{"code":"08211030003","name":"川崎町道島","lat":36.062191,"lng":140.004395},{"code":"08211030004","name":"川崎町上川崎","lat":36.063232,"lng":140.006677},{"code":"082110310","name":"小山戸町","lat":36.036061,"lng":139.986549},{"code":"082110320","name":"相野谷町","lat":36.033522,"lng":139.998157},{"code":"082110330","name":"中山町","lat":36.042464,"lng":139.999395},{"code":"082110340","name":"平町","lat":36.035845,"lng":140.007034},{"code":"082110350","name":"十花町","lat":36.042056,"lng":140.012322},{"code":"082110360","name":"東町","lat":36.049548,"lng":140.019098},{"code":"082110370","name":"大崎町","lat":36.037996,"lng":140.023453},{"code":"082110380","name":"箕輪町","lat":36.030616,"lng":140.020106},{"code":"082110390","name":"兵町","lat":36.029598,"lng":140.013674},{"code":"082110400","name":"長助町","lat":36.027724,"lng":140.008606},{"code":"082110410","name":"新井木町","lat":36.023732,"lng":140.002785},{"code":"08211042001","name":"坂手町貝置","lat":36.022616,"lng":139.942837},{"code":"08211042002","name":"坂手町篠山","lat":36.022227,"lng":139.957029},{"code":"08211042003","name":"坂手町時信","lat":36.016821,"lng":139.95622},{"code":"08211042004","name":"坂手町北呂山","lat":36.017656,"lng":139.960968},{"code":"08211042005","name":"坂手町飯田山","lat":36.01525,"lng":139.964473},{"code":"08211042006","name":"坂手町宿","lat":36.012787,"lng":139.968518},{"code":"08211042007","name":"坂手町島","lat":36.009569,"lng":139.96601},{"code":"08211042008","name":"坂手町江島","lat":36.01056,"lng":139.971106},{"code":"08211042009","name":"坂手町岡ノ内","lat":36.007742,"lng":139.969782},{"code":"08211042010","name":"坂手町米山","lat":36.002138,"lng":139.969262},{"code":"08211042011","name":"坂手町樋ノ口","lat":35.996516,"lng":139.972},{"code":"08211042012","name":"坂手町本郷","lat":36.004165,"lng":139.959296},{"code":"08211042013","name":"坂手町遠大久保","lat":36.013251,"lng":139.956908},{"code":"08211042014","name":"坂手町野口","lat":36.0108,"lng":139.959681},{"code":"08211042015","name":"坂手町染色団地","lat":36.012122,"lng":139.94932},{"code":"08211042016","name":"坂手町ゴルフ場","lat":36.016002,"lng":139.944994},{"code":"08211042017","name":"坂手町きぬ総合公園","lat":36.021136,"lng":139.953046},{"code":"08211042018","name":"坂手町坂手工業団地","lat":36.00936,"lng":139.951105},{"code":"08211043101","name":"内守谷町きぬの里１丁目","lat":35.983743,"lng":139.965317},{"code":"08211043102","name":"内守谷町きぬの里２丁目","lat":35.980781,"lng":139.968832},{"code":"08211043103","name":"内守谷町きぬの里３丁目","lat":35.981799,"lng":139.961769},{"code":"08211043201","name":"内守谷町本郷","lat":35.993641,"lng":139.959116},{"code":"08211043202","name":"内守谷町向地","lat":35.989617,"lng":139.949533},{"code":"08211043203","name":"内守谷町長ノ入","lat":35.988567,"lng":139.968212},{"code":"08211043204","name":"内守谷町鹿小路","lat":35.979671,"lng":139.960144},{"code":"08211043206","name":"内守谷町内守谷工業団地","lat":35.980919,"lng":139.947294},{"code":"08211044001","name":"菅生町上野","lat":36.001913,"lng":139.931197},{"code":"08211044002","name":"菅生町古谷","lat":36.001455,"lng":139.944679},{"code":"08211044003","name":"菅生町平松","lat":35.995786,"lng":139.938683},{"code":"08211044004","name":"菅生町中郷","lat":35.996382,"lng":139.925687},{"code":"08211044005","name":"菅生町黄金","lat":35.981184,"lng":139.928004},{"code":"08211044006","name":"菅生町原","lat":35.993415,"lng":139.93292},{"code":"08211044007","name":"菅生町大並","lat":35.989689,"lng":139.937793},{"code":"08211044008","name":"菅生町下香","lat":35.984947,"lng":139.937561},{"code":"08211044009","name":"菅生町樽井","lat":35.980043,"lng":139.938883},{"code":"08211045001","name":"大塚戸町篠山","lat":36.019247,"lng":139.925638},{"code":"08211045002","name":"大塚戸町新田","lat":36.017001,"lng":139.931862},{"code":"08211045003","name":"大塚戸町遠久保","lat":36.012169,"lng":139.922452},{"code":"08211045004","name":"大塚戸町向山","lat":36.007827,"lng":139.92422},{"code":"08211045005","name":"大塚戸町松山","lat":36.011028,"lng":139.936713},{"code":"08211045006","name":"大塚戸町堀込","lat":36.005745,"lng":139.931895},{"code":"08211045007","name":"大塚戸町あすなろの里","lat":36.004177,"lng":139.922313},{"code":"082110460","name":"新石下","lat":36.110888,"lng":139.979149},{"code":"082110470","name":"大房","lat":36.103817,"lng":139.969891},{"code":"082110480","name":"東野原","lat":36.098206,"lng":139.983643},{"code":"082110490","name":"平内","lat":36.097401,"lng":139.974656},{"code":"082110500","name":"山口","lat":36.098899,"lng":139.977259},{"code":"082110510","name":"収納谷","lat":36.092818,"lng":139.980547},{"code":"082110520","name":"本石下","lat":36.125083,"lng":139.971276},{"code":"082110530","name":"若宮戸","lat":36.137703,"lng":139.957988},{"code":"082110540","name":"原宿","lat":36.137104,"lng":139.966992},{"code":"082110550","name":"小保川","lat":36.134339,"lng":139.979252},{"code":"082110560","name":"豊田","lat":36.121008,"lng":139.992824},{"code":"082110570","name":"舘方","lat":36.132447,"lng":139.994477},{"code":"082110580","name":"本豊田","lat":36.107172,"lng":139.995359},{"code":"082110590","name":"曲田","lat":36.09655,"lng":139.998301},{"code":"082110600","name":"鴻野山","lat":36.116159,"lng":139.929759},{"code":"082110610","name":"鴻野山新田","lat":36.10433,"lng":139.928386},{"code":"082110620","name":"古間木新田","lat":36.097371,"lng":139.933028},{"code":"082110630","name":"馬場","lat":36.130538,"lng":139.922916},{"code":"082110640","name":"馬場新田","lat":36.106514,"lng":139.922118},{"code":"082110650","name":"栗山新田","lat":36.112321,"lng":139.919161},{"code":"082110660","name":"左平太新田","lat":36.112239,"lng":139.913967},{"code":"082110670","name":"孫兵ヱ新田","lat":36.117604,"lng":139.903823},{"code":"082110680","name":"崎房","lat":36.127917,"lng":139.907955},{"code":"082110690","name":"古間木","lat":36.096955,"lng":139.94964},{"code":"082110700","name":"古間木沼新田","lat":36.106619,"lng":139.94351},{"code":"082110710","name":"大沢","lat":36.11612,"lng":139.938506},{"code":"082110720","name":"杉山","lat":36.122687,"lng":139.951305},{"code":"082110730","name":"向石下","lat":36.118009,"lng":139.959717},{"code":"082110740","name":"篠山","lat":36.109593,"lng":139.960564},{"code":"082110750","name":"蔵持","lat":36.104385,"lng":139.95605},{"code":"082110760","name":"蔵持新田","lat":36.105629,"lng":139.951318},{"code":"082110770","name":"中沼","lat":36.112674,"lng":139.946321},{"code":"082110780","name":"岡田","lat":36.126569,"lng":139.936386},{"code":"082110790","name":"国生","lat":36.132059,"lng":139.945687}]}
