{"municipality":"08228","name":"坂東市","prefecture":"茨城県","source":{"dataset":"frogcat/japan-small-area","census":"平成27年国勢調査 小地域（e-Stat 統計LOD）","license":"MIT（リポジトリ）／政府統計の総合窓口(e-Stat)の利用規約（元データ・出典表記必要）","fetched":"2026-07-06"},"towns":[{"code":"082280010","name":"岩井","lat":36.055877,"lng":139.886758},{"code":"082280020","name":"大口","lat":36.038505,"lng":139.945063},{"code":"082280030","name":"大口新田","lat":36.048796,"lng":139.943475},{"code":"082280040","name":"大崎","lat":36.001099,"lng":139.915129},{"code":"082280050","name":"大馬新田","lat":36.083279,"lng":139.932756},{"code":"082280060","name":"大谷口","lat":36.013999,"lng":139.9122},{"code":"082280070","name":"小山","lat":36.010135,"lng":139.882568},{"code":"082280080","name":"神田山","lat":36.037393,"lng":139.919378},{"code":"082280090","name":"神田山新田","lat":36.059003,"lng":139.93618},{"code":"082280100","name":"上出島","lat":36.070236,"lng":139.870804},{"code":"082280110","name":"借宿","lat":36.089169,"lng":139.865991},{"code":"082280120","name":"勘助新田","lat":36.068743,"lng":139.928944},{"code":"082280130","name":"木間ケ瀬","lat":36.036931,"lng":139.847538},{"code":"082280140","name":"桐木","lat":36.022909,"lng":139.886136},{"code":"082280150","name":"鵠戸","lat":36.051185,"lng":139.874183},{"code":"082280160","name":"小泉","lat":36.011846,"lng":139.897635},{"code":"082280170","name":"幸田","lat":36.053942,"lng":139.908216},{"code":"082280180","name":"幸田新田","lat":36.06324,"lng":139.92838},{"code":"082280190","name":"古布内","lat":36.052493,"lng":139.829646},{"code":"082280200","name":"駒跿","lat":36.078413,"lng":139.878137},{"code":"082280210","name":"下出島","lat":36.028443,"lng":139.89758},{"code":"082280220","name":"庄右衛門新田","lat":36.051231,"lng":139.953647},{"code":"082280230","name":"寺久","lat":36.083208,"lng":139.849097},{"code":"082280240","name":"冨田","lat":36.089366,"lng":139.882057},{"code":"082280250","name":"中里","lat":36.020198,"lng":139.902391},{"code":"082280260","name":"長須","lat":36.05277,"lng":139.851334},{"code":"082280270","name":"長谷","lat":36.03116,"lng":139.872722},{"code":"082280280","name":"猫実","lat":36.038201,"lng":139.929302},{"code":"082280290","name":"猫実新田","lat":36.054254,"lng":139.940214},{"code":"082280300","name":"半谷","lat":36.100828,"lng":139.878902},{"code":"082280310","name":"平八新田","lat":36.074639,"lng":139.930172},{"code":"082280320","name":"辺田","lat":36.03752,"lng":139.899598},{"code":"082280330","name":"法師戸","lat":35.986654,"lng":139.9193},{"code":"082280340","name":"馬立","lat":36.063936,"lng":139.905651},{"code":"082280350","name":"みむら","lat":36.073811,"lng":139.858165},{"code":"082280360","name":"莚打","lat":35.99275,"lng":139.890881},{"code":"082280370","name":"矢作","lat":35.989066,"lng":139.906917},{"code":"082280380","name":"弓田","lat":36.076837,"lng":139.903175},{"code":"082280390","name":"幸新平","lat":36.053162,"lng":139.918009},{"code":"08228040001","name":"逆井上新田","lat":36.147857,"lng":139.834458},{"code":"08228040002","name":"逆井大鳥","lat":36.143846,"lng":139.848046},{"code":"08228040003","name":"逆井沼の田","lat":36.141132,"lng":139.837934},{"code":"08228040004","name":"逆井下新田","lat":36.137527,"lng":139.840679},{"code":"08228040005","name":"逆井前山","lat":36.133356,"lng":139.843384},{"code":"08228040006","name":"逆井前原","lat":36.132594,"lng":139.856949},{"code":"08228040007","name":"逆井西坪","lat":36.137611,"lng":139.84987},{"code":"08228040008","name":"逆井砂崎","lat":36.140933,"lng":139.861354},{"code":"08228040009","name":"逆井川端","lat":36.140187,"lng":139.872296},{"code":"08228040010","name":"逆井福辺原","lat":36.153456,"lng":139.838806},{"code":"08228041001","name":"山山上","lat":36.133029,"lng":139.875854},{"code":"08228041002","name":"山山西","lat":36.126341,"lng":139.867645},{"code":"08228041003","name":"山井岡","lat":36.127235,"lng":139.879278},{"code":"08228041004","name":"山駒寄","lat":36.120457,"lng":139.881631},{"code":"08228042001","name":"沓掛深井","lat":36.112211,"lng":139.898278},{"code":"08228042002","name":"沓掛西村西","lat":36.106233,"lng":139.890727},{"code":"08228042003","name":"沓掛西村南","lat":36.100613,"lng":139.895999},{"code":"08228042004","name":"沓掛西村東","lat":36.102808,"lng":139.898974},{"code":"08228042005","name":"沓掛西村中","lat":36.104156,"lng":139.896114},{"code":"08228042006","name":"沓掛西村北","lat":36.107275,"lng":139.900187},{"code":"08228042007","name":"沓掛諏訪山","lat":36.10122,"lng":139.913494},{"code":"08228042008","name":"沓掛中北","lat":36.102187,"lng":139.904029},{"code":"08228042009","name":"沓掛根古内","lat":36.095273,"lng":139.893636},{"code":"08228042010","name":"沓掛向原","lat":36.091617,"lng":139.90011},{"code":"08228042011","name":"沓掛山崎","lat":36.094281,"lng":139.907301},{"code":"08228042012","name":"沓掛遠神","lat":36.107226,"lng":139.886779},{"code":"08228043001","name":"内野山塚越","lat":36.088218,"lng":139.914312},{"code":"08228043002","name":"内野山刈浜","lat":36.091243,"lng":139.925204},{"code":"08228043003","name":"内野山台刈","lat":36.090078,"lng":139.922796},{"code":"08228043004","name":"内野山柿沢","lat":36.087262,"lng":139.921848},{"code":"08228043005","name":"内野山釜前西","lat":36.083474,"lng":139.921561},{"code":"08228043006","name":"内野山然山","lat":36.079633,"lng":139.918395},{"code":"08228043007","name":"内野山釜前東","lat":36.078992,"lng":139.923753},{"code":"08228044001","name":"菅谷大房","lat":36.124394,"lng":139.847483},{"code":"08228044002","name":"菅谷菅谷北","lat":36.121692,"lng":139.85224},{"code":"08228044003","name":"菅谷菅谷西","lat":36.105215,"lng":139.845398},{"code":"08228044004","name":"菅谷菅谷南","lat":36.115895,"lng":139.85521},{"code":"08228044005","name":"菅谷福原","lat":36.113718,"lng":139.836357},{"code":"08228045001","name":"生子釜口","lat":36.11281,"lng":139.866241},{"code":"08228045002","name":"生子北生子","lat":36.107562,"lng":139.857328},{"code":"08228045003","name":"生子道正内","lat":36.101565,"lng":139.860072},{"code":"08228045004","name":"生子北向内","lat":36.098491,"lng":139.849236},{"code":"08228045005","name":"生子西生子","lat":36.091904,"lng":139.846122},{"code":"08228045006","name":"生子中生子西","lat":36.093668,"lng":139.854604},{"code":"08228045007","name":"生子中生子東","lat":36.095463,"lng":139.862385},{"code":"08228045008","name":"生子四反田","lat":36.093315,"lng":139.837854},{"code":"082280460","name":"生子新田","lat":36.115546,"lng":139.887498},{"code":"082280470","name":"みどり町","lat":36.038258,"lng":139.88777}]}
