{"municipality":"08231","name":"桜川市","prefecture":"茨城県","source":{"dataset":"frogcat/japan-small-area","census":"平成27年国勢調査 小地域（e-Stat 統計LOD）","license":"MIT（リポジトリ）／政府統計の総合窓口(e-Stat)の利用規約（元データ・出典表記必要）","fetched":"2026-07-06"},"towns":[{"code":"082310010","name":"西小塙","lat":36.363881,"lng":140.15293},{"code":"082310020","name":"加茂部","lat":36.35263,"lng":140.158013},{"code":"082310030","name":"高幡","lat":36.340185,"lng":140.15882},{"code":"082310040","name":"今泉","lat":36.327949,"lng":140.174304},{"code":"082310050","name":"木植","lat":36.326973,"lng":140.161945},{"code":"082310060","name":"猿田","lat":36.329362,"lng":140.151708},{"code":"082310070","name":"曽根","lat":36.338338,"lng":140.146897},{"code":"082310080","name":"松田","lat":36.343663,"lng":140.142624},{"code":"082310090","name":"友部","lat":36.353635,"lng":140.138876},{"code":"082310100","name":"上城","lat":36.35762,"lng":140.125981},{"code":"082310110","name":"水戸","lat":36.355094,"lng":140.121014},{"code":"082310120","name":"青柳","lat":36.359091,"lng":140.116351},{"code":"082310130","name":"磯部","lat":36.367445,"lng":140.137257},{"code":"082310140","name":"稲","lat":36.373104,"lng":140.150292},{"code":"08231015101","name":"御領１丁目","lat":36.365581,"lng":140.104796},{"code":"08231015102","name":"御領２丁目","lat":36.365151,"lng":140.102356},{"code":"08231015103","name":"御領３丁目","lat":36.366906,"lng":140.102448},{"code":"08231015201","name":"明日香１丁目","lat":36.365643,"lng":140.107906},{"code":"08231015202","name":"明日香２丁目","lat":36.365377,"lng":140.110238},{"code":"08231015203","name":"明日香３丁目","lat":36.364991,"lng":140.112248},{"code":"08231015204","name":"明日香４丁目","lat":36.367123,"lng":140.109462},{"code":"08231015301","name":"富士見台１丁目","lat":36.364282,"lng":140.114242},{"code":"08231015302","name":"富士見台２丁目","lat":36.363464,"lng":140.116553},{"code":"08231015303","name":"富士見台３丁目","lat":36.366046,"lng":140.114948},{"code":"08231015304","name":"富士見台４丁目","lat":36.36543,"lng":140.117205},{"code":"08231015401","name":"西桜川１丁目","lat":36.364103,"lng":140.10781},{"code":"08231015402","name":"西桜川２丁目","lat":36.363954,"lng":140.104626},{"code":"08231015403","name":"西桜川３丁目","lat":36.363431,"lng":140.101213},{"code":"08231015501","name":"東桜川１丁目","lat":36.363517,"lng":140.11075},{"code":"08231015502","name":"東桜川２丁目","lat":36.362137,"lng":140.113707},{"code":"08231015503","name":"東桜川３丁目","lat":36.361389,"lng":140.115897},{"code":"082310156","name":"岩瀬","lat":36.368629,"lng":140.116152},{"code":"082310160","name":"犬田","lat":36.337782,"lng":140.124741},{"code":"082310170","name":"長方","lat":36.356446,"lng":140.072392},{"code":"082310180","name":"中泉","lat":36.353346,"lng":140.061785},{"code":"082310190","name":"上野原地新田","lat":36.348607,"lng":140.050408},{"code":"082310200","name":"下泉","lat":36.358817,"lng":140.056647},{"code":"082310210","name":"本郷","lat":36.366903,"lng":140.048095},{"code":"082310220","name":"堤上","lat":36.373348,"lng":140.058663},{"code":"082310230","name":"西飯岡","lat":36.370254,"lng":140.074251},{"code":"082310240","name":"大泉","lat":36.391339,"lng":140.075288},{"code":"082310250","name":"飯淵","lat":36.381847,"lng":140.086809},{"code":"082310260","name":"久原","lat":36.376123,"lng":140.089028},{"code":"082310270","name":"富岡","lat":36.366554,"lng":140.087909},{"code":"082310280","name":"鍬田","lat":36.360787,"lng":140.09154},{"code":"082310290","name":"富谷","lat":36.38398,"lng":140.099348},{"code":"082310300","name":"中里","lat":36.37937,"lng":140.118072},{"code":"082310310","name":"入野","lat":36.389903,"lng":140.123572},{"code":"082310320","name":"門毛","lat":36.399546,"lng":140.138628},{"code":"082310330","name":"南飯田","lat":36.384958,"lng":140.131642},{"code":"082310340","name":"間中","lat":36.388237,"lng":140.141558},{"code":"082310350","name":"平沢","lat":36.388228,"lng":140.151571},{"code":"082310360","name":"池亀","lat":36.388196,"lng":140.162651},{"code":"082310370","name":"山口","lat":36.382423,"lng":140.175123},{"code":"082310380","name":"坂本","lat":36.37254,"lng":140.170056},{"code":"082310390","name":"大月","lat":36.367253,"lng":140.166626},{"code":"082310400","name":"小塩","lat":36.379407,"lng":140.159662},{"code":"082310410","name":"福崎","lat":36.379438,"lng":140.15323},{"code":"082310420","name":"亀岡","lat":36.377052,"lng":140.141027},{"code":"082310430","name":"真壁町真壁","lat":36.277395,"lng":140.100355},{"code":"082310440","name":"真壁町古城","lat":36.275494,"lng":140.105448},{"code":"082310450","name":"真壁町山尾","lat":36.26041,"lng":140.120286},{"code":"082310460","name":"真壁町田","lat":36.254498,"lng":140.106689},{"code":"082310470","name":"真壁町伊佐々","lat":36.270428,"lng":140.083073},{"code":"082310480","name":"真壁町飯塚","lat":36.277433,"lng":140.091355},{"code":"082310490","name":"真壁町塙世","lat":36.281084,"lng":140.07803},{"code":"082310500","name":"真壁町亀熊","lat":36.289411,"lng":140.088681},{"code":"082310510","name":"真壁町源法寺","lat":36.272839,"lng":140.070454},{"code":"082310520","name":"真壁町羽鳥","lat":36.246384,"lng":140.097469},{"code":"082310530","name":"真壁町東山田","lat":36.256421,"lng":140.08056},{"code":"082310540","name":"真壁町椎尾","lat":36.243585,"lng":140.075864},{"code":"082310550","name":"真壁町酒寄","lat":36.232168,"lng":140.071949},{"code":"082310560","name":"真壁町細芝","lat":36.280173,"lng":140.063269},{"code":"082310570","name":"真壁町下谷貝","lat":36.288442,"lng":140.059735},{"code":"082310580","name":"真壁町上谷貝","lat":36.306098,"lng":140.057505},{"code":"082310590","name":"真壁町東矢貝","lat":36.298069,"lng":140.075043},{"code":"082310600","name":"真壁町大塚新田","lat":36.30803,"lng":140.06828},{"code":"082310610","name":"真壁町桜井","lat":36.27675,"lng":140.124406},{"code":"082310620","name":"真壁町白井","lat":36.285527,"lng":140.12422},{"code":"082310630","name":"真壁町長岡","lat":36.293266,"lng":140.129663},{"code":"082310640","name":"真壁町下小幡","lat":36.299341,"lng":140.124562},{"code":"082310650","name":"真壁町上小幡","lat":36.304326,"lng":140.118502},{"code":"082310660","name":"真壁町原方","lat":36.30157,"lng":140.091449},{"code":"08231067001","name":"本木本木１区","lat":36.322243,"lng":140.124488},{"code":"08231067002","name":"本木本木２区","lat":36.331882,"lng":140.104461},{"code":"082310680","name":"大曽根","lat":36.317791,"lng":140.114834},{"code":"08231069001","name":"東飯田東飯田","lat":36.309324,"lng":140.110601},{"code":"08231069002","name":"東飯田西方","lat":36.310296,"lng":140.101726},{"code":"082310700","name":"阿部田","lat":36.317084,"lng":140.094396},{"code":"082310710","name":"羽田","lat":36.332134,"lng":140.089253},{"code":"08231072001","name":"大国玉宮","lat":36.332671,"lng":140.074171},{"code":"08231072002","name":"大国玉木崎","lat":36.327618,"lng":140.080108},{"code":"08231072003","name":"大国玉前原","lat":36.321625,"lng":140.071261},{"code":"08231072004","name":"大国玉中丸木","lat":36.327848,"lng":140.062139},{"code":"08231072005","name":"大国玉福泉","lat":36.336008,"lng":140.055769},{"code":"08231073001","name":"高久中根","lat":36.316553,"lng":140.079256},{"code":"08231073002","name":"高久高久","lat":36.311222,"lng":140.088037},{"code":"08231073003","name":"高久鷲宿","lat":36.309,"lng":140.077366},{"code":"082310740","name":"金敷","lat":36.322411,"lng":140.055465},{"code":"082310750","name":"高森","lat":36.342588,"lng":140.070405},{"code":"082310760","name":"青木","lat":36.347008,"lng":140.087036}]}
