{"municipality":"08309","name":"東茨城郡大洗町","prefecture":"茨城県","source":{"dataset":"frogcat/japan-small-area","census":"平成27年国勢調査 小地域（e-Stat 統計LOD）","license":"MIT（リポジトリ）／政府統計の総合窓口(e-Stat)の利用規約（元データ・出典表記必要）","fetched":"2026-07-06"},"towns":[{"code":"08309001101","name":"磯浜町明神町","lat":36.314998,"lng":140.585807},{"code":"08309001102","name":"磯浜町東光台","lat":36.319084,"lng":140.583899},{"code":"08309001103","name":"磯浜町一丁目","lat":36.314542,"lng":140.579899},{"code":"08309001104","name":"磯浜町汐見ケ丘","lat":36.315162,"lng":140.580205},{"code":"08309001105","name":"磯浜町二丁目","lat":36.315032,"lng":140.578402},{"code":"08309001106","name":"磯浜町仲町","lat":36.314474,"lng":140.576896},{"code":"08309001107","name":"磯浜町金沢町","lat":36.315479,"lng":140.57612},{"code":"08309001108","name":"磯浜町祝町","lat":36.329027,"lng":140.587709},{"code":"08309001109","name":"磯浜町松ケ丘","lat":36.32873,"lng":140.587039},{"code":"08309001110","name":"磯浜町通町","lat":36.31476,"lng":140.573783},{"code":"08309001111","name":"磯浜町新町","lat":36.323214,"lng":140.576962},{"code":"08309001112","name":"磯浜町永町","lat":36.318756,"lng":140.568815},{"code":"08309001113","name":"磯浜町髭釜町","lat":36.313444,"lng":140.567487},{"code":"083090012","name":"磯道","lat":36.322551,"lng":140.580072},{"code":"083090020","name":"和銅","lat":36.319073,"lng":140.57457},{"code":"083090030","name":"東光台","lat":36.316204,"lng":140.583017},{"code":"083090040","name":"五反田","lat":36.323103,"lng":140.571391},{"code":"083090050","name":"大貫町","lat":36.306476,"lng":140.553101},{"code":"083090060","name":"神山町","lat":36.294383,"lng":140.541776},{"code":"083090070","name":"成田町","lat":36.27302,"lng":140.545717},{"code":"083090080","name":"桜道","lat":36.316247,"lng":140.562589},{"code":"083090090","name":"港中央","lat":36.30695,"lng":140.569626},{"code":"083090110","name":"涸沼","lat":36.282716,"lng":140.52902}]}
