{"municipality":"08302","name":"東茨城郡茨城町","prefecture":"茨城県","source":{"dataset":"frogcat/japan-small-area","census":"平成27年国勢調査 小地域（e-Stat 統計LOD）","license":"MIT（リポジトリ）／政府統計の総合窓口(e-Stat)の利用規約（元データ・出典表記必要）","fetched":"2026-07-06"},"towns":[{"code":"08302001001","name":"大字大戸大山原","lat":36.333572,"lng":140.41092},{"code":"08302001002","name":"大字大戸下郷","lat":36.316972,"lng":140.418787},{"code":"08302001003","name":"大字大戸大畑","lat":36.306465,"lng":140.418297},{"code":"08302001004","name":"大字大戸上郷","lat":36.318192,"lng":140.406121},{"code":"083020050","name":"大字前田","lat":36.30997,"lng":140.431392},{"code":"08302006000","name":"大字長岡","lat":36.303534,"lng":140.438418},{"code":"08302006001","name":"大字長岡矢頭","lat":36.312904,"lng":140.452202},{"code":"08302006002","name":"大字長岡植農","lat":36.297183,"lng":140.449237},{"code":"08302006003","name":"大字長岡三島","lat":36.290673,"lng":140.431621},{"code":"083020100","name":"大字谷田部","lat":36.289925,"lng":140.4432},{"code":"083020110","name":"大字小鶴","lat":36.295877,"lng":140.419585},{"code":"083020120","name":"大字近藤","lat":36.328485,"lng":140.405125},{"code":"083020130","name":"大字常井","lat":36.324524,"lng":140.395345},{"code":"083020140","name":"大字馬渡","lat":36.31302,"lng":140.402263},{"code":"083020150","name":"大字木部","lat":36.281814,"lng":140.359635},{"code":"083020160","name":"大字飯沼","lat":36.287177,"lng":140.373355},{"code":"083020170","name":"大字上飯沼","lat":36.288855,"lng":140.379768},{"code":"083020180","name":"大字下飯沼","lat":36.287983,"lng":140.386801},{"code":"083020190","name":"大字下土師","lat":36.28731,"lng":140.397688},{"code":"08302020000","name":"大字奥谷","lat":36.284606,"lng":140.416065},{"code":"08302020001","name":"大字奥谷赤坂","lat":36.282861,"lng":140.40603},{"code":"083020220","name":"大字越安","lat":36.300072,"lng":140.407886},{"code":"083020230","name":"大字蕎麦原","lat":36.301975,"lng":140.399224},{"code":"083020240","name":"大字駒渡","lat":36.304774,"lng":140.393627},{"code":"083020260","name":"大字野曽","lat":36.303423,"lng":140.380181},{"code":"083020270","name":"大字南栗崎","lat":36.301379,"lng":140.370765},{"code":"083020280","name":"大字南川又","lat":36.302652,"lng":140.363553},{"code":"083020290","name":"大字秋葉","lat":36.260502,"lng":140.415294},{"code":"083020300","name":"大字南島田","lat":36.269578,"lng":140.429678},{"code":"083020310","name":"大字神谷","lat":36.262667,"lng":140.432405},{"code":"08302032000","name":"大字鳥羽田","lat":36.244066,"lng":140.430939},{"code":"08302032001","name":"大字鳥羽田増山","lat":36.249319,"lng":140.421022},{"code":"08302032002","name":"大字鳥羽田坂東","lat":36.240786,"lng":140.412548},{"code":"083020350","name":"大字生井沢","lat":36.227535,"lng":140.414776},{"code":"083020360","name":"大字下雨谷","lat":36.232075,"lng":140.405634},{"code":"083020370","name":"大字上雨谷","lat":36.24333,"lng":140.392888},{"code":"083020380","name":"大字下座","lat":36.247873,"lng":140.401225},{"code":"083020390","name":"大字小幡","lat":36.267364,"lng":140.39083},{"code":"083020400","name":"大字小堤","lat":36.281461,"lng":140.4246},{"code":"083020410","name":"大字駒場","lat":36.27818,"lng":140.438547},{"code":"083020420","name":"大字神宿","lat":36.268894,"lng":140.443985},{"code":"08302043000","name":"大字海老沢","lat":36.263275,"lng":140.453077},{"code":"08302043001","name":"大字海老沢本郷","lat":36.261871,"lng":140.443899},{"code":"083020450","name":"大字城之内","lat":36.244113,"lng":140.446577},{"code":"08302046000","name":"大字網掛","lat":36.262456,"lng":140.488855},{"code":"08302046001","name":"大字網掛昭和","lat":36.250477,"lng":140.488291},{"code":"08302048000","name":"大字宮ヶ崎","lat":36.259891,"lng":140.467961},{"code":"08302048001","name":"大字宮ヶ崎第４","lat":36.249407,"lng":140.478995},{"code":"08302048002","name":"大字宮ヶ崎第５","lat":36.243484,"lng":140.47011},{"code":"08302048003","name":"大字宮ヶ崎第６","lat":36.241984,"lng":140.457935},{"code":"083020520","name":"大字上石崎","lat":36.296024,"lng":140.466975},{"code":"083020530","name":"大字中石崎","lat":36.289671,"lng":140.490827},{"code":"083020540","name":"大字下石崎","lat":36.295312,"lng":140.515891},{"code":"083020550","name":"大字若宮","lat":36.307626,"lng":140.487672},{"code":"083020570","name":"中央工業団地","lat":36.307391,"lng":140.376248},{"code":"083020580","name":"桜の郷","lat":36.324063,"lng":140.412798}]}
