{"municipality":"08310","name":"東茨城郡城里町","prefecture":"茨城県","source":{"dataset":"frogcat/japan-small-area","census":"平成27年国勢調査 小地域（e-Stat 統計LOD）","license":"MIT（リポジトリ）／政府統計の総合窓口(e-Stat)の利用規約（元データ・出典表記必要）","fetched":"2026-07-06"},"towns":[{"code":"083100010","name":"大字石塚","lat":36.478108,"lng":140.378023},{"code":"083100020","name":"大字那珂西","lat":36.466164,"lng":140.401032},{"code":"083100030","name":"大字上泉","lat":36.481188,"lng":140.400501},{"code":"083100040","name":"大字増井","lat":36.4546,"lng":140.378225},{"code":"083100050","name":"大字磯野","lat":36.450633,"lng":140.360888},{"code":"083100060","name":"大字上入野","lat":36.440002,"lng":140.374049},{"code":"083100070","name":"大字上青山","lat":36.470312,"lng":140.360268},{"code":"083100080","name":"大字下青山","lat":36.466075,"lng":140.369831},{"code":"083100090","name":"大字春園","lat":36.482399,"lng":140.351014},{"code":"083100100","name":"大字小坂","lat":36.475557,"lng":140.334749},{"code":"083100110","name":"大字勝見沢","lat":36.460627,"lng":140.351979},{"code":"083100120","name":"大字上古内","lat":36.463703,"lng":140.310841},{"code":"083100130","name":"大字下古内","lat":36.445846,"lng":140.332964},{"code":"083100140","name":"大字上圷","lat":36.493225,"lng":140.372378},{"code":"083100150","name":"大字下圷","lat":36.492742,"lng":140.386573},{"code":"083100160","name":"大字粟","lat":36.506935,"lng":140.374596},{"code":"083100170","name":"大字北方","lat":36.503373,"lng":140.357382},{"code":"083100180","name":"大字高久","lat":36.492317,"lng":140.350116},{"code":"083100190","name":"大字錫高野","lat":36.499049,"lng":140.312033},{"code":"083100200","name":"大字孫根","lat":36.513986,"lng":140.321589},{"code":"083100210","name":"大字岩船","lat":36.520532,"lng":140.327557},{"code":"083100220","name":"大字高根","lat":36.516448,"lng":140.351237},{"code":"083100230","name":"大字阿波山","lat":36.518341,"lng":140.365131},{"code":"083100240","name":"大字下阿野沢","lat":36.525428,"lng":140.351125},{"code":"083100250","name":"大字上阿野沢","lat":36.532009,"lng":140.349861},{"code":"083100260","name":"大字高根台","lat":36.519244,"lng":140.344973},{"code":"083100270","name":"大字御前山","lat":36.535706,"lng":140.324858},{"code":"083100280","name":"大字徳蔵","lat":36.461148,"lng":140.242178},{"code":"083100290","name":"大字小勝","lat":36.470311,"lng":140.278131},{"code":"083100300","name":"大字塩子","lat":36.497498,"lng":140.260468},{"code":"083100310","name":"大字下赤沢","lat":36.451369,"lng":140.228459},{"code":"083100320","name":"大字上赤沢","lat":36.443676,"lng":140.211415},{"code":"083100330","name":"大字真端","lat":36.438526,"lng":140.251132},{"code":"083100340","name":"大字大網","lat":36.444271,"lng":140.278693}]}
