{"municipality":"08442","name":"稲敷郡美浦村","prefecture":"茨城県","source":{"dataset":"frogcat/japan-small-area","census":"平成27年国勢調査 小地域（e-Stat 統計LOD）","license":"MIT（リポジトリ）／政府統計の総合窓口(e-Stat)の利用規約（元データ・出典表記必要）","fetched":"2026-07-06"},"towns":[{"code":"084420010","name":"大字舟子","lat":36.027449,"lng":140.278667},{"code":"084420020","name":"大字木原","lat":36.01857,"lng":140.294911},{"code":"084420030","name":"大字布佐","lat":36.010742,"lng":140.282302},{"code":"084420040","name":"大字宮地","lat":36.008831,"lng":140.317086},{"code":"084420050","name":"大字受領","lat":36.006535,"lng":140.305027},{"code":"084420060","name":"大字大須賀津","lat":36.024853,"lng":140.311832},{"code":"084420070","name":"大字茂呂","lat":36.015434,"lng":140.312798},{"code":"084420080","name":"大字大谷","lat":36.000817,"lng":140.318014},{"code":"084420090","name":"大字信太","lat":35.988529,"lng":140.313689},{"code":"084420100","name":"大字興津","lat":35.99669,"lng":140.299476},{"code":"084420110","name":"大字土屋","lat":35.989959,"lng":140.287298},{"code":"084420120","name":"大字美駒","lat":35.987379,"lng":140.302472},{"code":"084420130","name":"大字大塚","lat":36.023824,"lng":140.320448},{"code":"084420140","name":"大字谷中","lat":36.017791,"lng":140.320389},{"code":"084420150","name":"大字山内","lat":36.022896,"lng":140.32615},{"code":"084420160","name":"大字山王","lat":36.018199,"lng":140.32603},{"code":"084420170","name":"大字八井田","lat":36.023456,"lng":140.332694},{"code":"084420180","name":"大字根火","lat":36.023821,"lng":140.337872},{"code":"084420191","name":"大字根本","lat":36.025088,"lng":140.345196},{"code":"084420192","name":"大字牛込","lat":36.027091,"lng":140.344372},{"code":"084420201","name":"大字定光","lat":36.013246,"lng":140.326422},{"code":"084420202","name":"大字木","lat":36.013011,"lng":140.326325},{"code":"084420210","name":"大字本橋","lat":36.014283,"lng":140.330278},{"code":"084420220","name":"大字間野","lat":36.011651,"lng":140.335872},{"code":"084420230","name":"大字土浦","lat":36.012235,"lng":140.345941},{"code":"084420240","name":"大字馬掛","lat":36.020417,"lng":140.35301},{"code":"084420250","name":"大字馬見山","lat":36.011279,"lng":140.353661},{"code":"084420260","name":"大字大山","lat":36.0062,"lng":140.36418},{"code":"084420270","name":"霞ヶ浦","lat":36.028211,"lng":140.349709},{"code":"084420280","name":"大字見晴","lat":36.01663,"lng":140.333389},{"code":"084420290","name":"大字花見塚","lat":36.015941,"lng":140.322359},{"code":"084420300","name":"大字余郷入","lat":36.002922,"lng":140.344337},{"code":"084420310","name":"大字太田","lat":36.013212,"lng":140.330936},{"code":"084420320","name":"大字堀田","lat":36.023557,"lng":140.329807},{"code":"084420330","name":"大字中野内","lat":36.023664,"lng":140.332178},{"code":"084420340","name":"郷中","lat":36.010376,"lng":140.296756},{"code":"084420350","name":"みどり台","lat":36.01625,"lng":140.315178}]}
