{"municipality":"08546","name":"猿島郡境町","prefecture":"茨城県","source":{"dataset":"frogcat/japan-small-area","census":"平成27年国勢調査 小地域（e-Stat 統計LOD）","license":"MIT（リポジトリ）／政府統計の総合窓口(e-Stat)の利用規約（元データ・出典表記必要）","fetched":"2026-07-06"},"towns":[{"code":"08546001001","name":"大字境本船町","lat":36.104076,"lng":139.78934},{"code":"08546001002","name":"大字境下仲町","lat":36.105906,"lng":139.791036},{"code":"08546001003","name":"大字境上仲町","lat":36.10667,"lng":139.791979},{"code":"08546001004","name":"大字境上町","lat":36.107647,"lng":139.793651},{"code":"08546001005","name":"大字境住吉町","lat":36.111784,"lng":139.796375},{"code":"08546001006","name":"大字境宮本町","lat":36.110508,"lng":139.786327},{"code":"08546001007","name":"大字境坂花町","lat":36.10408,"lng":139.79147},{"code":"08546001008","name":"大字境新吉町","lat":36.102632,"lng":139.793193},{"code":"08546001009","name":"大字境山神町","lat":36.102238,"lng":139.798404},{"code":"08546001010","name":"大字境旭町","lat":36.109977,"lng":139.799847},{"code":"08546001011","name":"大字境松岡町","lat":36.116511,"lng":139.79538},{"code":"08546001101","name":"大字境陽光台１丁目","lat":36.110998,"lng":139.80469},{"code":"08546001102","name":"大字境陽光台２丁目","lat":36.108519,"lng":139.805371},{"code":"085460012","name":"大字境","lat":36.109421,"lng":139.802501},{"code":"085460020","name":"大字蛇池","lat":36.130566,"lng":139.813329},{"code":"085460030","name":"大字長井戸","lat":36.126967,"lng":139.795258},{"code":"085460040","name":"大字猿山","lat":36.140173,"lng":139.803693},{"code":"085460050","name":"大字下砂井","lat":36.136167,"lng":139.82597},{"code":"085460060","name":"大字栗山","lat":36.128825,"lng":139.824272},{"code":"085460070","name":"大字西泉田","lat":36.117176,"lng":139.815013},{"code":"085460080","name":"大字上小橋","lat":36.118043,"lng":139.80595},{"code":"085460081","name":"大字上小橋","lat":36.112748,"lng":139.804272},{"code":"085460090","name":"大字金岡","lat":36.083178,"lng":139.810249},{"code":"085460100","name":"大字浦向","lat":36.092335,"lng":139.808663},{"code":"085460110","name":"大字下小橋","lat":36.103497,"lng":139.806825},{"code":"085460111","name":"大字下小橋","lat":36.107023,"lng":139.803796},{"code":"085460120","name":"大字染谷","lat":36.099171,"lng":139.8167},{"code":"085460130","name":"大字大歩","lat":36.112331,"lng":139.829823},{"code":"085460140","name":"大字内門","lat":36.118262,"lng":139.832447},{"code":"085460150","name":"大字山崎","lat":36.12208,"lng":139.832578},{"code":"085460160","name":"大字伏木","lat":36.095696,"lng":139.832765},{"code":"085460170","name":"大字一ノ谷","lat":36.086502,"lng":139.820268},{"code":"085460180","name":"大字百戸","lat":36.076406,"lng":139.82084},{"code":"085460190","name":"大字新田戸","lat":36.072672,"lng":139.811583},{"code":"085460200","name":"大字桐ケ作","lat":36.064077,"lng":139.819192},{"code":"085460210","name":"大字若林","lat":36.072362,"lng":139.83613},{"code":"085460220","name":"大字塚崎","lat":36.125405,"lng":139.774893},{"code":"085460230","name":"大字稲尾","lat":36.141694,"lng":139.791696},{"code":"085460240","name":"大字志鳥","lat":36.149874,"lng":139.794193},{"code":"085460250","name":"大字横塚","lat":36.147953,"lng":139.781246}]}
