{"municipality":"09301","name":"河内郡上三川町","prefecture":"栃木県","source":{"dataset":"frogcat/japan-small-area","census":"平成27年国勢調査 小地域（e-Stat 統計LOD）","license":"MIT（リポジトリ）／政府統計の総合窓口(e-Stat)の利用規約（元データ・出典表記必要）","fetched":"2026-07-06"},"towns":[{"code":"093010010","name":"大字上三川","lat":36.426316,"lng":139.919902},{"code":"093010020","name":"大字上蒲生","lat":36.4526,"lng":139.908192},{"code":"093010030","name":"大字下蒲生","lat":36.425692,"lng":139.897784},{"code":"093010040","name":"大字五分一","lat":36.410583,"lng":139.898819},{"code":"093010050","name":"大字三村","lat":36.416595,"lng":139.905928},{"code":"093010060","name":"大字坂上","lat":36.406716,"lng":139.913264},{"code":"093010070","name":"大字三本木","lat":36.408023,"lng":139.926106},{"code":"093010080","name":"大字上郷","lat":36.446963,"lng":139.931639},{"code":"093010090","name":"大字西蓼沼","lat":36.463523,"lng":139.929593},{"code":"093010100","name":"大字東蓼沼","lat":36.460825,"lng":139.946659},{"code":"093010110","name":"大字東汗","lat":36.469675,"lng":139.948944},{"code":"093010120","name":"大字上文挾","lat":36.475331,"lng":139.94493},{"code":"093010130","name":"大字西木代","lat":36.481551,"lng":139.941304},{"code":"093010140","name":"大字西汗","lat":36.478231,"lng":139.923796},{"code":"093010150","name":"大字磯岡","lat":36.480221,"lng":139.910154},{"code":"093010160","name":"大字大山","lat":36.444128,"lng":139.879668},{"code":"093010171","name":"天神町","lat":36.435956,"lng":139.869961},{"code":"093010172","name":"大字多功","lat":36.428502,"lng":139.872925},{"code":"093010180","name":"大字梁","lat":36.428344,"lng":139.883121},{"code":"093010190","name":"大字川中子","lat":36.443967,"lng":139.89269},{"code":"093010200","name":"大字下神主","lat":36.451019,"lng":139.884454},{"code":"093010210","name":"大字上神主","lat":36.460916,"lng":139.882254},{"code":"093010220","name":"大字石田","lat":36.467626,"lng":139.900105},{"code":"093010230","name":"大字鞘堂","lat":36.458569,"lng":139.868697},{"code":"093010250","name":"大字ゆうきが丘","lat":36.456064,"lng":139.877034},{"code":"09301026001","name":"しらさぎ１丁目","lat":36.44049,"lng":139.911134},{"code":"09301026002","name":"しらさぎ２丁目","lat":36.444616,"lng":139.909575},{"code":"09301026003","name":"しらさぎ３丁目","lat":36.44398,"lng":139.91676}]}
