{"municipality":"09407","name":"那須郡那須町","prefecture":"栃木県","source":{"dataset":"frogcat/japan-small-area","census":"平成27年国勢調査 小地域（e-Stat 統計LOD）","license":"MIT（リポジトリ）／政府統計の総合窓口(e-Stat)の利用規約（元データ・出典表記必要）","fetched":"2026-07-06"},"towns":[{"code":"094070010","name":"大字寺子乙","lat":37.003155,"lng":140.106315},{"code":"094070020","name":"大字寺子丙","lat":37.041374,"lng":140.094513},{"code":"094070030","name":"大字高久甲","lat":37.006262,"lng":140.054381},{"code":"094070040","name":"大字高久乙","lat":37.060087,"lng":139.982559},{"code":"094070050","name":"大字高久丙","lat":37.070537,"lng":140.046906},{"code":"094070060","name":"大字湯本","lat":37.111696,"lng":139.989521},{"code":"094070070","name":"大字大島","lat":37.108617,"lng":140.059726},{"code":"094070080","name":"大字漆塚","lat":37.030953,"lng":140.087537},{"code":"094070090","name":"大字豊原甲","lat":37.049656,"lng":140.144346},{"code":"094070100","name":"大字豊原乙","lat":37.088797,"lng":140.124332},{"code":"094070110","name":"大字豊原丙","lat":37.074158,"lng":140.098148},{"code":"094070120","name":"大字芦野","lat":36.991319,"lng":140.167826},{"code":"094070130","name":"大字富岡","lat":37.015788,"lng":140.146711},{"code":"094070140","name":"大字寄居","lat":37.042882,"lng":140.179191},{"code":"094070150","name":"大字豊原","lat":37.013778,"lng":140.143517},{"code":"094070160","name":"大字横岡","lat":37.013145,"lng":140.179606},{"code":"094070170","name":"大字寺子","lat":36.978085,"lng":140.139492},{"code":"094070180","name":"大字伊王野","lat":36.958531,"lng":140.190453},{"code":"094070190","name":"大字大和須","lat":36.961808,"lng":140.211626},{"code":"094070200","name":"大字大畑","lat":37.001242,"lng":140.229818},{"code":"094070210","name":"大字蓑沢","lat":37.004013,"lng":140.212652},{"code":"094070220","name":"大字梓","lat":36.975974,"lng":140.225372},{"code":"094070230","name":"大字睦家","lat":36.949756,"lng":140.150373},{"code":"094070240","name":"大字梁瀬","lat":36.940555,"lng":140.151592},{"code":"094070250","name":"大字沼野井","lat":36.955921,"lng":140.132402},{"code":"094070260","name":"大字東岩崎","lat":36.968384,"lng":140.150294},{"code":"094070270","name":"大字稲沢","lat":36.933341,"lng":140.125301}]}
