{"municipality":"10203","name":"桐生市","prefecture":"群馬県","source":{"dataset":"frogcat/japan-small-area","census":"平成27年国勢調査 小地域（e-Stat 統計LOD）","license":"MIT（リポジトリ）／政府統計の総合窓口(e-Stat)の利用規約（元データ・出典表記必要）","fetched":"2026-07-06"},"towns":[{"code":"10203001001","name":"本町１丁目","lat":36.419385,"lng":139.344807},{"code":"10203001002","name":"本町２丁目","lat":36.417156,"lng":139.343301},{"code":"10203001003","name":"本町３丁目","lat":36.415059,"lng":139.341761},{"code":"10203001004","name":"本町４丁目","lat":36.41286,"lng":139.340327},{"code":"10203001005","name":"本町５丁目","lat":36.410788,"lng":139.338869},{"code":"10203001006","name":"本町６丁目","lat":36.40829,"lng":139.336875},{"code":"102030020","name":"横山町","lat":36.419031,"lng":139.342269},{"code":"102030030","name":"稲荷町","lat":36.407725,"lng":139.332073},{"code":"10203004001","name":"錦町１丁目","lat":36.406053,"lng":139.334632},{"code":"10203004002","name":"錦町２丁目","lat":36.403762,"lng":139.33268},{"code":"10203004003","name":"錦町３丁目","lat":36.401079,"lng":139.329978},{"code":"102030050","name":"織姫町","lat":36.403776,"lng":139.327242},{"code":"102030060","name":"桜木町","lat":36.399021,"lng":139.327715},{"code":"102030070","name":"美原町","lat":36.407792,"lng":139.32882},{"code":"102030080","name":"清瀬町","lat":36.406883,"lng":139.324594},{"code":"10203009001","name":"新宿１丁目","lat":36.401616,"lng":139.33669},{"code":"10203009002","name":"新宿２丁目","lat":36.398659,"lng":139.339268},{"code":"10203009003","name":"新宿３丁目","lat":36.395453,"lng":139.34287},{"code":"10203010001","name":"三吉町１丁目","lat":36.40042,"lng":139.334958},{"code":"10203010002","name":"三吉町２丁目","lat":36.398513,"lng":139.333025},{"code":"102030110","name":"小梅町","lat":36.39597,"lng":139.336123},{"code":"102030120","name":"琴平町","lat":36.393203,"lng":139.340692},{"code":"10203013001","name":"浜松町１丁目","lat":36.404057,"lng":139.338418},{"code":"10203013002","name":"浜松町２丁目","lat":36.401093,"lng":139.341962},{"code":"10203014001","name":"仲町１丁目","lat":36.413908,"lng":139.343881},{"code":"10203014002","name":"仲町２丁目","lat":36.409858,"lng":139.341515},{"code":"10203014003","name":"仲町３丁目","lat":36.406797,"lng":139.34017},{"code":"102030150","name":"川岸町","lat":36.406408,"lng":139.336688},{"code":"102030160","name":"泉町","lat":36.412219,"lng":139.341047},{"code":"102030170","name":"東町","lat":36.412937,"lng":139.34158},{"code":"102030180","name":"高砂町","lat":36.408756,"lng":139.337936},{"code":"102030190","name":"旭町","lat":36.407122,"lng":139.337769},{"code":"10203020001","name":"東１丁目","lat":36.413319,"lng":139.346404},{"code":"10203020002","name":"東２丁目","lat":36.413606,"lng":139.348609},{"code":"10203020003","name":"東３丁目","lat":36.412176,"lng":139.350587},{"code":"10203020004","name":"東４丁目","lat":36.409041,"lng":139.344784},{"code":"10203020005","name":"東５丁目","lat":36.40779,"lng":139.348345},{"code":"10203020006","name":"東６丁目","lat":36.405668,"lng":139.343182},{"code":"10203020007","name":"東７丁目","lat":36.404077,"lng":139.345503},{"code":"102030210","name":"末広町","lat":36.411165,"lng":139.335428},{"code":"10203022001","name":"宮前町１丁目","lat":36.414228,"lng":139.326954},{"code":"10203022002","name":"宮前町２丁目","lat":36.413158,"lng":139.33184},{"code":"10203023001","name":"堤町１丁目","lat":36.422448,"lng":139.329301},{"code":"10203023002","name":"堤町２丁目","lat":36.420838,"lng":139.323512},{"code":"10203023003","name":"堤町３丁目","lat":36.418596,"lng":139.318416},{"code":"10203024001","name":"巴町１丁目","lat":36.409225,"lng":139.335558},{"code":"10203024002","name":"巴町２丁目","lat":36.41009,"lng":139.332358},{"code":"102030250","name":"元宿町","lat":36.411211,"lng":139.325835},{"code":"102030260","name":"永楽町","lat":36.412886,"lng":139.336678},{"code":"102030270","name":"小曾根町","lat":36.415534,"lng":139.334893},{"code":"10203028001","name":"宮本町１丁目","lat":36.415419,"lng":139.339465},{"code":"10203028002","name":"宮本町２丁目","lat":36.418207,"lng":139.33611},{"code":"10203028003","name":"宮本町３丁目","lat":36.421399,"lng":139.336605},{"code":"10203028004","name":"宮本町４丁目","lat":36.430958,"lng":139.338047},{"code":"10203029001","name":"東久方町１丁目","lat":36.421778,"lng":139.349408},{"code":"10203029002","name":"東久方町２丁目","lat":36.418817,"lng":139.347509},{"code":"10203029003","name":"東久方町３丁目","lat":36.41686,"lng":139.346006},{"code":"10203030001","name":"西久方町１丁目","lat":36.423748,"lng":139.344359},{"code":"10203030002","name":"西久方町２丁目","lat":36.418814,"lng":139.340941},{"code":"10203031001","name":"天神町１丁目","lat":36.422886,"lng":139.347559},{"code":"10203031002","name":"天神町２丁目","lat":36.42593,"lng":139.350803},{"code":"10203031003","name":"天神町３丁目","lat":36.429038,"lng":139.353789},{"code":"102030320","name":"平井町","lat":36.432313,"lng":139.346671},{"code":"10203033001","name":"境野町１丁目","lat":36.394662,"lng":139.34896},{"code":"10203033002","name":"境野町２丁目","lat":36.39095,"lng":139.348966},{"code":"10203033003","name":"境野町３丁目","lat":36.387196,"lng":139.347018},{"code":"10203033004","name":"境野町４丁目","lat":36.391929,"lng":139.355439},{"code":"10203033005","name":"境野町５丁目","lat":36.38796,"lng":139.358704},{"code":"10203033006","name":"境野町６丁目","lat":36.384682,"lng":139.353958},{"code":"10203033007","name":"境野町７丁目","lat":36.377193,"lng":139.361754},{"code":"10203034001","name":"広沢町１丁目","lat":36.39332,"lng":139.328973},{"code":"10203034002","name":"広沢町２丁目","lat":36.392042,"lng":139.321438},{"code":"10203034003","name":"広沢町３丁目","lat":36.382749,"lng":139.322967},{"code":"10203034004","name":"広沢町４丁目","lat":36.379478,"lng":139.335231},{"code":"10203034005","name":"広沢町５丁目","lat":36.373739,"lng":139.3428},{"code":"10203034006","name":"広沢町６丁目","lat":36.368278,"lng":139.352463},{"code":"10203034007","name":"広沢町７丁目","lat":36.366271,"lng":139.364717},{"code":"10203034008","name":"広沢町間ノ島","lat":36.390027,"lng":139.338415},{"code":"10203035001","name":"梅田町１丁目","lat":36.449822,"lng":139.356764},{"code":"10203035002","name":"梅田町２丁目","lat":36.455039,"lng":139.379363},{"code":"10203035003","name":"梅田町３丁目","lat":36.489051,"lng":139.372211},{"code":"10203035004","name":"梅田町４丁目","lat":36.483073,"lng":139.401625},{"code":"10203035005","name":"梅田町５丁目","lat":36.515713,"lng":139.418741},{"code":"10203036002","name":"相生町２丁目","lat":36.412119,"lng":139.309109},{"code":"10203036003","name":"相生町３丁目","lat":36.422309,"lng":139.302162},{"code":"10203036004","name":"相生町４丁目","lat":36.428005,"lng":139.291041},{"code":"10203036005","name":"相生町５丁目","lat":36.410468,"lng":139.296202},{"code":"10203036006","name":"相生町２丁目","lat":36.415776,"lng":139.3094},{"code":"10203037001","name":"川内町１丁目","lat":36.432671,"lng":139.324928},{"code":"10203037002","name":"川内町２丁目","lat":36.437602,"lng":139.319987},{"code":"10203037003","name":"川内町３丁目","lat":36.434148,"lng":139.303352},{"code":"10203037004","name":"川内町４丁目","lat":36.436004,"lng":139.295478},{"code":"10203037005","name":"川内町５丁目","lat":36.466361,"lng":139.333923},{"code":"10203038001","name":"菱町１丁目","lat":36.404169,"lng":139.365862},{"code":"10203038002","name":"菱町２丁目","lat":36.42446,"lng":139.37412},{"code":"10203038003","name":"菱町３丁目","lat":36.408608,"lng":139.353154},{"code":"10203038004","name":"菱町４丁目","lat":36.421947,"lng":139.355542},{"code":"10203038005","name":"菱町５丁目","lat":36.445896,"lng":139.387034},{"code":"10203039001","name":"相生町１丁目","lat":36.401664,"lng":139.317816},{"code":"10203039002","name":"相生町２丁目","lat":36.402724,"lng":139.308862},{"code":"102030400","name":"新里町赤城山","lat":36.485708,"lng":139.216629},{"code":"10203041001","name":"新里町板橋","lat":36.461762,"lng":139.22503},{"code":"10203041002","name":"新里町赤城山","lat":36.45471,"lng":139.217287},{"code":"102030420","name":"新里町関","lat":36.451279,"lng":139.229507},{"code":"102030430","name":"新里町高泉","lat":36.461233,"lng":139.239238},{"code":"102030440","name":"新里町大久保","lat":36.446758,"lng":139.239054},{"code":"102030450","name":"新里町奥沢","lat":36.449954,"lng":139.255337},{"code":"10203046001","name":"新里町鶴ケ谷","lat":36.440105,"lng":139.248438},{"code":"10203046002","name":"新里町鶴ケ谷","lat":36.431839,"lng":139.244083},{"code":"10203047001","name":"新里町山上","lat":36.437798,"lng":139.222489},{"code":"10203047002","name":"新里町山上","lat":36.438986,"lng":139.228486},{"code":"10203047003","name":"新里町山上","lat":36.434355,"lng":139.235101},{"code":"10203047004","name":"新里町山上","lat":36.427089,"lng":139.235642},{"code":"10203047005","name":"新里町山上","lat":36.427242,"lng":139.226423},{"code":"10203047006","name":"新里町山上","lat":36.41932,"lng":139.232209},{"code":"10203048001","name":"新里町小林","lat":36.418613,"lng":139.236569},{"code":"10203048002","name":"新里町小林","lat":36.409927,"lng":139.230065},{"code":"10203049001","name":"新里町武井","lat":36.409284,"lng":139.236265},{"code":"10203049002","name":"新里町武井","lat":36.420925,"lng":139.241926},{"code":"10203049003","name":"新里町武井","lat":36.41072,"lng":139.24149},{"code":"102030500","name":"新里町野","lat":36.401102,"lng":139.23841},{"code":"10203051001","name":"新里町新川","lat":36.413345,"lng":139.259713},{"code":"10203051002","name":"新里町新川","lat":36.42497,"lng":139.266271},{"code":"10203051003","name":"新里町新川","lat":36.419542,"lng":139.254929},{"code":"10203051004","name":"新里町新川","lat":36.414676,"lng":139.251741},{"code":"10203051005","name":"新里町新川","lat":36.429259,"lng":139.25451},{"code":"102030520","name":"黒保根町水沼","lat":36.504999,"lng":139.28476},{"code":"102030530","name":"黒保根町八木原","lat":36.493533,"lng":139.284337},{"code":"102030540","name":"黒保根町","lat":36.551647,"lng":139.284044},{"code":"102030550","name":"黒保根町","lat":36.542643,"lng":139.233251},{"code":"102030560","name":"黒保根町","lat":36.495305,"lng":139.239636}]}
