{"municipality":"10208","name":"渋川市","prefecture":"群馬県","source":{"dataset":"frogcat/japan-small-area","census":"平成27年国勢調査 小地域（e-Stat 統計LOD）","license":"MIT（リポジトリ）／政府統計の総合窓口(e-Stat)の利用規約（元データ・出典表記必要）","fetched":"2026-07-06"},"towns":[{"code":"102080010","name":"大崎","lat":36.489774,"lng":139.013167},{"code":"102080020","name":"下郷","lat":36.494967,"lng":139.012622},{"code":"102080030","name":"東町","lat":36.498787,"lng":139.011041},{"code":"102080040","name":"新町","lat":36.495424,"lng":139.005415},{"code":"102080050","name":"下ノ町","lat":36.495851,"lng":139.003184},{"code":"102080060","name":"南町","lat":36.493427,"lng":138.999852},{"code":"102080070","name":"長塚町","lat":36.492876,"lng":139.002772},{"code":"102080080","name":"本町","lat":36.496355,"lng":139.001718},{"code":"102080090","name":"寄居町","lat":36.497264,"lng":139.003253},{"code":"102080100","name":"坂下町","lat":36.501003,"lng":139.007002},{"code":"102080110","name":"並木町","lat":36.500373,"lng":139.000623},{"code":"102080120","name":"中ノ町","lat":36.495755,"lng":139.00126},{"code":"102080130","name":"上ノ町","lat":36.495995,"lng":138.999576},{"code":"102080140","name":"川原町","lat":36.496332,"lng":138.99835},{"code":"102080150","name":"裏宿","lat":36.497181,"lng":138.997116},{"code":"102080160","name":"元町","lat":36.500296,"lng":138.995378},{"code":"102080170","name":"御蔭","lat":36.499351,"lng":138.97158},{"code":"102080180","name":"入沢","lat":36.500776,"lng":138.985158},{"code":"102080190","name":"上郷","lat":36.496186,"lng":138.991218},{"code":"102080200","name":"藤ノ木","lat":36.493221,"lng":138.995429},{"code":"102080210","name":"辰巳町","lat":36.491927,"lng":139.006731},{"code":"102080220","name":"明保野","lat":36.491636,"lng":138.953458},{"code":"102080230","name":"阿久津","lat":36.506427,"lng":139.006617},{"code":"102080240","name":"金井南町","lat":36.50679,"lng":138.998034},{"code":"102080250","name":"金井本町","lat":36.511635,"lng":138.992691},{"code":"102080260","name":"南牧","lat":36.522243,"lng":138.990128},{"code":"102080270","name":"川島","lat":36.523419,"lng":138.961905},{"code":"102080280","name":"祖母島","lat":36.540676,"lng":138.955007},{"code":"102080290","name":"祖母島上村","lat":36.526844,"lng":138.944695},{"code":"102080300","name":"有馬（第一）","lat":36.468118,"lng":138.985597},{"code":"102080310","name":"有馬（第二）","lat":36.469686,"lng":139.00683},{"code":"102080320","name":"八木原（北部）","lat":36.4691,"lng":139.01513},{"code":"102080330","name":"八木原（南部）","lat":36.459268,"lng":139.015849},{"code":"102080340","name":"半田（南部）","lat":36.457283,"lng":139.025722},{"code":"102080350","name":"半田（北部）","lat":36.468889,"lng":139.027713},{"code":"102080360","name":"行幸田（第一）","lat":36.482087,"lng":138.996162},{"code":"102080370","name":"行幸田（第二）","lat":36.47754,"lng":138.985003},{"code":"102080380","name":"本石原","lat":36.483323,"lng":139.003805},{"code":"102080390","name":"石原西","lat":36.486966,"lng":138.978662},{"code":"102080400","name":"中村（北部）","lat":36.483981,"lng":139.017552},{"code":"102080410","name":"中村（南部）","lat":36.479222,"lng":139.016149},{"code":"102080420","name":"金井（下中ノ町）","lat":36.517194,"lng":138.991039},{"code":"102080430","name":"金井（上ノ町）","lat":36.511538,"lng":138.968877},{"code":"102080440","name":"金井（りんごの里）","lat":36.506622,"lng":138.951941},{"code":"102080450","name":"金井軽浜","lat":36.507073,"lng":138.977604},{"code":"102080460","name":"金井国町","lat":36.514187,"lng":139.003025},{"code":"102080470","name":"石原（熊野）","lat":36.490165,"lng":139.001546},{"code":"102080480","name":"石原（田中）","lat":36.486082,"lng":139.006145},{"code":"102080490","name":"大字伊香保","lat":36.488405,"lng":138.922694},{"code":"102080500","name":"大字湯中子","lat":36.49866,"lng":138.90362},{"code":"102080510","name":"大字水沢","lat":36.479358,"lng":138.943397},{"code":"102080520","name":"大字小野子","lat":36.566235,"lng":138.959716},{"code":"102080530","name":"大字村上","lat":36.568536,"lng":138.919171},{"code":"102080540","name":"大字上白井","lat":36.566565,"lng":139.028791},{"code":"102080550","name":"大字中郷","lat":36.551374,"lng":139.006997},{"code":"102080560","name":"大字横堀","lat":36.557072,"lng":138.984228},{"code":"102080570","name":"大字北牧","lat":36.531766,"lng":138.992278},{"code":"102080580","name":"大字吹屋","lat":36.519201,"lng":139.011205},{"code":"102080590","name":"大字白井","lat":36.511956,"lng":139.018069},{"code":"10208060001","name":"大字津久田","lat":36.550288,"lng":139.054756},{"code":"10208060002","name":"大字津久田","lat":36.544083,"lng":139.048561},{"code":"10208060003","name":"大字津久田","lat":36.540793,"lng":139.043341},{"code":"10208060004","name":"大字津久田","lat":36.559556,"lng":139.04333},{"code":"102080610","name":"大字敷島","lat":36.534754,"lng":139.037737},{"code":"10208062001","name":"大字長井小川田","lat":36.559774,"lng":139.057268},{"code":"10208062002","name":"大字長井小川田","lat":36.563506,"lng":139.065258},{"code":"10208062003","name":"大字長井小川田","lat":36.562397,"lng":139.077453},{"code":"102080630","name":"大字深山","lat":36.559398,"lng":139.099843},{"code":"102080640","name":"大字棚下","lat":36.579259,"lng":139.059897},{"code":"102080650","name":"大字持柏木","lat":36.505371,"lng":139.060482},{"code":"102080660","name":"大字溝呂木","lat":36.518438,"lng":139.066289},{"code":"102080670","name":"大字北上野","lat":36.533005,"lng":139.054057},{"code":"102080680","name":"大字勝保沢","lat":36.524183,"lng":139.049829},{"code":"102080690","name":"大字見立","lat":36.51507,"lng":139.038598},{"code":"102080700","name":"大字滝沢","lat":36.514941,"lng":139.044073},{"code":"102080710","name":"大字上三原田","lat":36.508433,"lng":139.04495},{"code":"10208072001","name":"大字三原田","lat":36.506436,"lng":139.032084},{"code":"10208072002","name":"大字三原田","lat":36.50342,"lng":139.028201},{"code":"102080730","name":"大字樽","lat":36.511532,"lng":139.024533},{"code":"102080740","name":"大字宮田","lat":36.525487,"lng":139.031073},{"code":"102080750","name":"大字栄","lat":36.517239,"lng":139.08385},{"code":"10208076001","name":"大字北赤城山","lat":36.550595,"lng":139.111907},{"code":"10208076002","name":"大字北赤城山","lat":36.572955,"lng":139.095111},{"code":"10208076003","name":"大字北赤城山","lat":36.549226,"lng":139.082546},{"code":"10208076004","name":"大字北赤城山","lat":36.57054,"lng":139.122441},{"code":"10208077001","name":"大字南赤城山","lat":36.537228,"lng":139.071816},{"code":"10208077002","name":"大字南赤城山","lat":36.534647,"lng":139.107337},{"code":"10208078001","name":"大字八崎","lat":36.498462,"lng":139.020045},{"code":"10208078002","name":"大字八崎","lat":36.496346,"lng":139.026023},{"code":"10208078003","name":"大字八崎","lat":36.494161,"lng":139.032056},{"code":"102080790","name":"大字分郷八崎","lat":36.484469,"lng":139.028622},{"code":"10208080001","name":"大字小室","lat":36.498715,"lng":139.050071},{"code":"10208080002","name":"大字小室","lat":36.489336,"lng":139.039587},{"code":"102080810","name":"大字下南室","lat":36.487382,"lng":139.05128},{"code":"102080820","name":"大字上南室","lat":36.496455,"lng":139.063912},{"code":"102080830","name":"大字上箱田","lat":36.490682,"lng":139.06952},{"code":"102080840","name":"大字箱田","lat":36.473418,"lng":139.054014},{"code":"102080850","name":"大字下箱田","lat":36.462242,"lng":139.044125},{"code":"10208086001","name":"大字真壁","lat":36.484424,"lng":139.039736},{"code":"10208086002","name":"大字真壁","lat":36.480364,"lng":139.049114},{"code":"10208086003","name":"大字真壁","lat":36.477501,"lng":139.035889},{"code":"10208086004","name":"大字真壁","lat":36.470623,"lng":139.036567},{"code":"102080870","name":"大字赤城山","lat":36.506943,"lng":139.085734}]}
