{"municipality":"10383","name":"甘楽郡南牧村","prefecture":"群馬県","source":{"dataset":"frogcat/japan-small-area","census":"平成27年国勢調査 小地域（e-Stat 統計LOD）","license":"MIT（リポジトリ）／政府統計の総合窓口(e-Stat)の利用規約（元データ・出典表記必要）","fetched":"2026-07-06"},"towns":[{"code":"103830010","name":"大字砥沢","lat":36.144974,"lng":138.660695},{"code":"103830020","name":"大字星尾","lat":36.18647,"lng":138.649326},{"code":"103830030","name":"大字羽沢","lat":36.158117,"lng":138.641746},{"code":"103830040","name":"大字熊倉","lat":36.153487,"lng":138.609153},{"code":"103830050","name":"大字大日向","lat":36.159236,"lng":138.712899},{"code":"103830060","name":"大字六車","lat":36.173062,"lng":138.686835},{"code":"103830070","name":"大字大仁田","lat":36.132826,"lng":138.688759},{"code":"103830080","name":"大字小沢","lat":36.179749,"lng":138.751218},{"code":"103830090","name":"大字大塩沢","lat":36.194158,"lng":138.712554},{"code":"103830100","name":"大字千原","lat":36.173053,"lng":138.733477},{"code":"103830110","name":"大字磐戸","lat":36.158365,"lng":138.747122},{"code":"103830120","name":"大字檜沢","lat":36.138435,"lng":138.740382}]}
