{"municipality":"10429","name":"吾妻郡東吾妻町","prefecture":"群馬県","source":{"dataset":"frogcat/japan-small-area","census":"平成27年国勢調査 小地域（e-Stat 統計LOD）","license":"MIT（リポジトリ）／政府統計の総合窓口(e-Stat)の利用規約（元データ・出典表記必要）","fetched":"2026-07-06"},"towns":[{"code":"10429001001","name":"大字原町上の町","lat":36.57121,"lng":138.826081},{"code":"10429001002","name":"大字原町下の町","lat":36.574822,"lng":138.831263},{"code":"10429001003","name":"大字原町紺屋町","lat":36.569751,"lng":138.821272},{"code":"10429001004","name":"大字原町新井","lat":36.562491,"lng":138.81422},{"code":"10429001005","name":"大字原町在上","lat":36.568463,"lng":138.800293},{"code":"10429001006","name":"大字原町上野","lat":36.575651,"lng":138.820405},{"code":"10429001007","name":"大字原町在上","lat":36.580149,"lng":138.809179},{"code":"10429001008","name":"大字原町在下","lat":36.581336,"lng":138.823629},{"code":"10429001009","name":"大字原町須郷沢","lat":36.579472,"lng":138.832153},{"code":"10429001010","name":"大字原町山田川","lat":36.580581,"lng":138.834445},{"code":"10429001011","name":"大字原町南町","lat":36.573513,"lng":138.832694},{"code":"10429002001","name":"大字川戸上の宮","lat":36.557118,"lng":138.814451},{"code":"10429002002","name":"大字川戸深沢","lat":36.506077,"lng":138.845879},{"code":"10429002003","name":"大字川戸内出","lat":36.561878,"lng":138.820588},{"code":"10429002004","name":"大字川戸田中","lat":36.562996,"lng":138.82482},{"code":"10429002005","name":"大字川戸下郷","lat":36.527899,"lng":138.833264},{"code":"104290030","name":"大字金井","lat":36.557924,"lng":138.838531},{"code":"10429004001","name":"大字岩井西組","lat":36.576696,"lng":138.83965},{"code":"10429004002","name":"大字岩井田中","lat":36.580862,"lng":138.84193},{"code":"10429004003","name":"大字岩井上河原","lat":36.580804,"lng":138.837986},{"code":"10429004004","name":"大字岩井松の木","lat":36.577445,"lng":138.846156},{"code":"10429004005","name":"大字岩井山根","lat":36.531499,"lng":138.847594},{"code":"10429004006","name":"大字岩井原組","lat":36.576345,"lng":138.851293},{"code":"10429004007","name":"大字岩井十二ケ原","lat":36.541833,"lng":138.848615},{"code":"10429005001","name":"大字植栗上北","lat":36.577464,"lng":138.8559},{"code":"10429005002","name":"大字植栗上南","lat":36.572341,"lng":138.854464},{"code":"10429005003","name":"大字植栗","lat":36.537879,"lng":138.856462},{"code":"10429005005","name":"大字植栗中西","lat":36.57366,"lng":138.861362},{"code":"10429005006","name":"大字植栗北組","lat":36.578947,"lng":138.86338},{"code":"10429005007","name":"大字植栗八幡","lat":36.574413,"lng":138.868375},{"code":"10429005008","name":"大字植栗双葉","lat":36.571898,"lng":138.86698},{"code":"10429006001","name":"大字小泉新興","lat":36.556911,"lng":138.86565},{"code":"10429006002","name":"大字小泉弥栄","lat":36.567812,"lng":138.876352},{"code":"10429006003","name":"大字小泉日之出","lat":36.564506,"lng":138.879454},{"code":"10429006004","name":"大字小泉広野","lat":36.554523,"lng":138.869121},{"code":"10429007001","name":"大字泉沢糀屋","lat":36.559014,"lng":138.879872},{"code":"10429007002","name":"大字泉沢重田","lat":36.556248,"lng":138.875819},{"code":"10429007003","name":"大字泉沢太郎谷戸","lat":36.553048,"lng":138.874301},{"code":"10429007004","name":"大字泉沢程岩","lat":36.549049,"lng":138.873027},{"code":"10429007005","name":"大字泉沢浜井場","lat":36.542826,"lng":138.877236},{"code":"10429007006","name":"大字泉沢渡戸","lat":36.536771,"lng":138.871999},{"code":"10429007007","name":"大字泉沢新井","lat":36.532729,"lng":138.87428},{"code":"10429007008","name":"大字泉沢迦葉","lat":36.521303,"lng":138.864594},{"code":"10429008001","name":"大字郷原唐沢","lat":36.552437,"lng":138.806174},{"code":"10429008002","name":"大字郷原辻","lat":36.549458,"lng":138.800436},{"code":"10429008003","name":"大字郷原古谷","lat":36.55307,"lng":138.794144},{"code":"10429009001","name":"大字矢倉","lat":36.558501,"lng":138.783334},{"code":"10429009002","name":"大字矢倉本村","lat":36.550924,"lng":138.786726},{"code":"10429010001","name":"大字岩下吾妻山","lat":36.573027,"lng":138.767197},{"code":"10429010002","name":"大字岩下机","lat":36.55851,"lng":138.769501},{"code":"10429010003","name":"大字岩下天神","lat":36.56188,"lng":138.761211},{"code":"10429010004","name":"大字岩下姉山","lat":36.566261,"lng":138.761707},{"code":"10429010005","name":"大字岩下漆貝戸","lat":36.565227,"lng":138.755246},{"code":"10429011001","name":"大字松谷松下","lat":36.571419,"lng":138.746156},{"code":"10429011002","name":"大字松谷松中","lat":36.572085,"lng":138.738816},{"code":"10429011003","name":"大字松谷大平","lat":36.581729,"lng":138.716208},{"code":"10429011004","name":"大字松谷中尾","lat":36.581837,"lng":138.723721},{"code":"10429011005","name":"大字松谷高日向","lat":36.579795,"lng":138.713658},{"code":"10429011006","name":"大字松谷松上","lat":36.566881,"lng":138.727308},{"code":"10429012001","name":"大字三島四戸","lat":36.546573,"lng":138.79061},{"code":"10429012002","name":"大字三島生原","lat":36.540766,"lng":138.783825},{"code":"10429012003","name":"大字三島大竹","lat":36.543145,"lng":138.773431},{"code":"10429012004","name":"大字三島沢尻","lat":36.536381,"lng":138.77296},{"code":"10429012005","name":"大字三島万木沢","lat":36.546117,"lng":138.781678},{"code":"10429012006","name":"大字三島唐堀","lat":36.551046,"lng":138.776906},{"code":"10429012007","name":"大字三島根古屋","lat":36.555989,"lng":138.765103},{"code":"10429012008","name":"大字三島細谷","lat":36.561975,"lng":138.753799},{"code":"10429012009","name":"大字三島大沢","lat":36.565229,"lng":138.74735},{"code":"10429012010","name":"大字三島","lat":36.548063,"lng":138.749501},{"code":"10429013001","name":"大字厚田兵庫","lat":36.534775,"lng":138.802324},{"code":"10429013002","name":"大字厚田新井","lat":36.543622,"lng":138.7952},{"code":"10429013003","name":"大字厚田田中","lat":36.547384,"lng":138.807277},{"code":"10429013004","name":"大字厚田長藤","lat":36.516642,"lng":138.811898},{"code":"10429013005","name":"大字厚田烏帽子","lat":36.520684,"lng":138.818061},{"code":"10429014001","name":"大字大戸平大谷沢","lat":36.529569,"lng":138.786814},{"code":"10429014002","name":"大字大戸稲田","lat":36.520047,"lng":138.777924},{"code":"10429014003","name":"大字大戸塩の平","lat":36.504397,"lng":138.766859},{"code":"10429014004","name":"大字大戸上宿","lat":36.506598,"lng":138.776435},{"code":"10429014005","name":"大字大戸下宿","lat":36.509875,"lng":138.771413},{"code":"10429014006","name":"大字大戸上大戸","lat":36.500019,"lng":138.812309},{"code":"10429014007","name":"大字大戸古賀良","lat":36.507411,"lng":138.801904},{"code":"10429014008","name":"大字大戸御所谷戸、上大戸","lat":36.500203,"lng":138.787016},{"code":"10429015001","name":"大字萩生田谷上","lat":36.487575,"lng":138.76796},{"code":"10429015002","name":"大字萩生田谷下","lat":36.488815,"lng":138.771376},{"code":"10429015003","name":"大字萩生堀井戸","lat":36.491572,"lng":138.76124},{"code":"10429015004","name":"大字萩生","lat":36.485953,"lng":138.755704},{"code":"10429015005","name":"大字萩生境野","lat":36.487224,"lng":138.776442},{"code":"10429015006","name":"大字萩生分去","lat":36.483359,"lng":138.776374},{"code":"10429015007","name":"大字萩生大谷","lat":36.481591,"lng":138.78667},{"code":"10429015008","name":"大字萩生大沢","lat":36.474256,"lng":138.778202},{"code":"10429015009","name":"大字萩生西榛名","lat":36.477001,"lng":138.792623},{"code":"10429015010","name":"大字萩生十二沢","lat":36.478606,"lng":138.809154},{"code":"10429015011","name":"大字萩生大石","lat":36.483336,"lng":138.799391},{"code":"10429015012","name":"大字萩生相原","lat":36.480083,"lng":138.823149},{"code":"10429015013","name":"大字萩生オリジン","lat":36.475624,"lng":138.815232},{"code":"10429016001","name":"大字本宿宿","lat":36.488479,"lng":138.706371},{"code":"10429016002","name":"大字本宿日向","lat":36.513225,"lng":138.732158},{"code":"10429016003","name":"大字本宿丑ケ渕","lat":36.505171,"lng":138.728765},{"code":"10429016004","name":"大字本宿関谷","lat":36.504533,"lng":138.713097},{"code":"10429016005","name":"大字本宿長寿園","lat":36.501911,"lng":138.705978},{"code":"10429017001","name":"大字須賀尾須賀尾１区","lat":36.497392,"lng":138.668353},{"code":"10429017002","name":"大字須賀尾須賀尾２区","lat":36.506283,"lng":138.701588},{"code":"10429017003","name":"大字須賀尾須賀尾３区","lat":36.504884,"lng":138.697184},{"code":"10429017004","name":"大字須賀尾須賀尾４区","lat":36.504204,"lng":138.68422},{"code":"10429017005","name":"大字本宿須賀尾６区","lat":36.498645,"lng":138.684244},{"code":"10429017006","name":"大字須賀尾須賀尾５区","lat":36.496873,"lng":138.677905},{"code":"10429018001","name":"大字大柏木","lat":36.52714,"lng":138.732189},{"code":"10429018002","name":"大字大柏木宮谷戸","lat":36.521182,"lng":138.756584},{"code":"10429018003","name":"大字大柏木下中","lat":36.52449,"lng":138.752919},{"code":"10429018004","name":"大字大柏木猿谷戸","lat":36.526309,"lng":138.749504},{"code":"10429018005","name":"大字大柏木羽田","lat":36.527501,"lng":138.745593},{"code":"10429018006","name":"大字大柏木殿原","lat":36.528741,"lng":138.740161},{"code":"10429018007","name":"大字大柏木天神","lat":36.529922,"lng":138.733206},{"code":"10429018008","name":"大字大柏木松の木","lat":36.529603,"lng":138.728916},{"code":"10429018009","name":"大字大柏木上の沢","lat":36.528859,"lng":138.721813},{"code":"10429018010","name":"大字大柏木広石","lat":36.526827,"lng":138.713406},{"code":"104290190","name":"大字五町田","lat":36.534353,"lng":138.900182},{"code":"104290200","name":"大字箱島","lat":36.541646,"lng":138.925667},{"code":"104290210","name":"大字岡崎","lat":36.513809,"lng":138.897992},{"code":"104290220","name":"大字新巻","lat":36.551127,"lng":138.886663},{"code":"104290230","name":"大字奥田","lat":36.54129,"lng":138.889751}]}
