{"municipality":"10521","name":"邑楽郡板倉町","prefecture":"群馬県","source":{"dataset":"frogcat/japan-small-area","census":"平成27年国勢調査 小地域（e-Stat 統計LOD）","license":"MIT（リポジトリ）／政府統計の総合窓口(e-Stat)の利用規約（元データ・出典表記必要）","fetched":"2026-07-06"},"towns":[{"code":"105210010","name":"大字除川","lat":36.262548,"lng":139.629528},{"code":"105210020","name":"大字西岡","lat":36.266984,"lng":139.617777},{"code":"105210030","name":"大字西岡新田","lat":36.264097,"lng":139.606151},{"code":"105210040","name":"大字大曲","lat":36.246118,"lng":139.601057},{"code":"105210050","name":"大字大荷場","lat":36.245212,"lng":139.609903},{"code":"105210060","name":"大字細谷","lat":36.243577,"lng":139.622694},{"code":"105210070","name":"大字離","lat":36.24287,"lng":139.634756},{"code":"105210080","name":"大字海老瀬","lat":36.234489,"lng":139.648731},{"code":"105210090","name":"大字海老瀬","lat":36.230238,"lng":139.643437},{"code":"105210100","name":"大字海老瀬","lat":36.221673,"lng":139.654284},{"code":"105210110","name":"大字海老瀬","lat":36.215351,"lng":139.656757},{"code":"105210120","name":"大字海老瀬","lat":36.21844,"lng":139.632751},{"code":"105210130","name":"大字大高嶋","lat":36.206461,"lng":139.641292},{"code":"105210140","name":"大字下五箇","lat":36.199384,"lng":139.639139},{"code":"105210150","name":"大字大高嶋","lat":36.205766,"lng":139.623539},{"code":"105210160","name":"大字大高嶋","lat":36.195565,"lng":139.619371},{"code":"105210170","name":"大字飯野","lat":36.208429,"lng":139.611235},{"code":"105210180","name":"大字飯野","lat":36.209425,"lng":139.600364},{"code":"105210190","name":"大字板倉","lat":36.217108,"lng":139.615073},{"code":"105210200","name":"大字板倉","lat":36.219562,"lng":139.622649},{"code":"105210210","name":"大字板倉","lat":36.228312,"lng":139.614273},{"code":"105210220","name":"大字板倉","lat":36.222831,"lng":139.605522},{"code":"105210230","name":"大字板倉","lat":36.230143,"lng":139.599098},{"code":"105210240","name":"大字岩田","lat":36.2205,"lng":139.597115},{"code":"105210250","name":"大字岩田","lat":36.226296,"lng":139.584934},{"code":"105210260","name":"大字籾谷","lat":36.23349,"lng":139.593166},{"code":"105210270","name":"大字籾谷","lat":36.241885,"lng":139.585533},{"code":"105210280","name":"大字内蔵新田","lat":36.239902,"lng":139.593418},{"code":"105210290","name":"大字板倉","lat":36.233234,"lng":139.608234},{"code":"10521030001","name":"朝日野１丁目","lat":36.22333,"lng":139.645782},{"code":"10521030002","name":"朝日野２丁目","lat":36.223778,"lng":139.649064},{"code":"10521030003","name":"朝日野３丁目","lat":36.219011,"lng":139.646037},{"code":"10521030004","name":"朝日野４丁目","lat":36.218269,"lng":139.642665},{"code":"10521031001","name":"泉野１丁目","lat":36.223628,"lng":139.636213},{"code":"10521031002","name":"泉野２丁目","lat":36.228577,"lng":139.632344},{"code":"10521031003","name":"泉野３丁目","lat":36.227723,"lng":139.639392}]}
