{"municipality":"11101","name":"さいたま市西区","prefecture":"埼玉県","source":{"dataset":"frogcat/japan-small-area","census":"平成27年国勢調査 小地域（e-Stat 統計LOD）","license":"MIT（リポジトリ）／政府統計の総合窓口(e-Stat)の利用規約（元データ・出典表記必要）","fetched":"2026-07-06"},"towns":[{"code":"111010010","name":"宮前町","lat":35.92667,"lng":139.590748},{"code":"11101002005","name":"三橋５丁目","lat":35.907677,"lng":139.594399},{"code":"11101002006","name":"三橋６丁目","lat":35.917194,"lng":139.589235},{"code":"11101003001","name":"大字指扇","lat":35.923145,"lng":139.575445},{"code":"11101003002","name":"大字指扇","lat":35.914578,"lng":139.572235},{"code":"11101003003","name":"大字指扇","lat":35.917504,"lng":139.578938},{"code":"11101003004","name":"大字指扇","lat":35.909725,"lng":139.583485},{"code":"111010040","name":"大字指扇領別所","lat":35.92134,"lng":139.567608},{"code":"111010050","name":"大字宝来","lat":35.923882,"lng":139.557784},{"code":"111010060","name":"大字峰岸","lat":35.931964,"lng":139.556179},{"code":"111010070","name":"大字指扇領辻","lat":35.92946,"lng":139.558968},{"code":"111010080","name":"大字中釘","lat":35.934286,"lng":139.567781},{"code":"111010090","name":"大字高木","lat":35.932597,"lng":139.574149},{"code":"111010100","name":"大字清河寺","lat":35.932989,"lng":139.582509},{"code":"111010110","name":"大字内野本郷","lat":35.934846,"lng":139.593196},{"code":"111010120","name":"大字西新井","lat":35.941484,"lng":139.58661},{"code":"111010130","name":"大字平方領領家","lat":35.924217,"lng":139.562373},{"code":"111010140","name":"大字西遊馬","lat":35.909786,"lng":139.564401},{"code":"111010150","name":"大字土屋","lat":35.910236,"lng":139.57041},{"code":"111010160","name":"大字二ツ宮","lat":35.895665,"lng":139.577481},{"code":"111010170","name":"大字飯田新田","lat":35.886142,"lng":139.556061},{"code":"111010180","name":"大字塚本","lat":35.883669,"lng":139.561008},{"code":"111010190","name":"大字植田谷本村新田","lat":35.889044,"lng":139.558453},{"code":"11101020001","name":"湯木町１丁目","lat":35.895013,"lng":139.555458},{"code":"11101020002","name":"湯木町２丁目","lat":35.897885,"lng":139.553906},{"code":"11101021001","name":"塚本町１丁目","lat":35.880601,"lng":139.562283},{"code":"11101021002","name":"塚本町２丁目","lat":35.876658,"lng":139.564126},{"code":"11101021003","name":"塚本町３丁目","lat":35.87377,"lng":139.565739},{"code":"11101022001","name":"プラザ","lat":35.909278,"lng":139.575166},{"code":"11101022002","name":"プラザ","lat":35.906161,"lng":139.580181},{"code":"111010230","name":"大字島根","lat":35.883324,"lng":139.593563},{"code":"111010240","name":"大字三条町","lat":35.886921,"lng":139.586606},{"code":"111010250","name":"大字植田谷本","lat":35.889912,"lng":139.594719},{"code":"111010260","name":"大字中野林","lat":35.892906,"lng":139.587231},{"code":"111010270","name":"大字飯田","lat":35.896717,"lng":139.586652},{"code":"111010280","name":"大字水判土","lat":35.899352,"lng":139.593249},{"code":"111010290","name":"大字佐知川","lat":35.902682,"lng":139.584048},{"code":"111010300","name":"大字昭和","lat":35.899204,"lng":139.56326}]}
