{"municipality":"11102","name":"さいたま市北区","prefecture":"埼玉県","source":{"dataset":"frogcat/japan-small-area","census":"平成27年国勢調査 小地域（e-Stat 統計LOD）","license":"MIT（リポジトリ）／政府統計の総合窓口(e-Stat)の利用規約（元データ・出典表記必要）","fetched":"2026-07-06"},"towns":[{"code":"111020010","name":"大成町","lat":35.925904,"lng":139.614105},{"code":"11102002001","name":"東大成町１丁目","lat":35.920747,"lng":139.621537},{"code":"11102002002","name":"東大成町２丁目","lat":35.929019,"lng":139.617648},{"code":"11102003001","name":"日進町１丁目","lat":35.920719,"lng":139.600589},{"code":"11102003002","name":"日進町２丁目","lat":35.928061,"lng":139.606842},{"code":"11102003003","name":"日進町３丁目","lat":35.937852,"lng":139.602826},{"code":"11102003004","name":"日進町２丁目","lat":35.933247,"lng":139.604255},{"code":"111020040","name":"櫛引町","lat":35.919992,"lng":139.608568},{"code":"11102005001","name":"宮原町１丁目","lat":35.935461,"lng":139.620944},{"code":"11102005002","name":"宮原町２丁目","lat":35.941628,"lng":139.616444},{"code":"11102005003","name":"宮原町３丁目","lat":35.938012,"lng":139.610703},{"code":"11102005004","name":"宮原町４丁目","lat":35.947692,"lng":139.608606},{"code":"11102006001","name":"吉野町１丁目","lat":35.953139,"lng":139.614586},{"code":"11102006002","name":"吉野町２丁目","lat":35.959985,"lng":139.610128},{"code":"111020070","name":"別所町","lat":35.957296,"lng":139.595764},{"code":"111020080","name":"奈良町","lat":35.94709,"lng":139.600748},{"code":"11102009001","name":"植竹町１丁目","lat":35.926126,"lng":139.62406},{"code":"11102009002","name":"植竹町２丁目","lat":35.931049,"lng":139.626893},{"code":"111020100","name":"盆栽町","lat":35.926199,"lng":139.629995},{"code":"11102011001","name":"土呂町１丁目","lat":35.934745,"lng":139.631235},{"code":"11102011002","name":"土呂町２丁目","lat":35.931909,"lng":139.635244},{"code":"111020120","name":"土呂町","lat":35.928968,"lng":139.633337},{"code":"111020130","name":"今羽町","lat":35.951733,"lng":139.623168},{"code":"111020140","name":"本郷町","lat":35.942646,"lng":139.628261},{"code":"11102015001","name":"見沼１丁目","lat":35.924894,"lng":139.640252},{"code":"11102015002","name":"見沼２丁目","lat":35.931594,"lng":139.640156},{"code":"11102015003","name":"見沼３丁目","lat":35.938518,"lng":139.639275}]}
