{"municipality":"11209","name":"飯能市","prefecture":"埼玉県","source":{"dataset":"frogcat/japan-small-area","census":"平成27年国勢調査 小地域（e-Stat 統計LOD）","license":"MIT（リポジトリ）／政府統計の総合窓口(e-Stat)の利用規約（元データ・出典表記必要）","fetched":"2026-07-06"},"towns":[{"code":"112090010","name":"山手町","lat":35.85892,"lng":139.313922},{"code":"112090020","name":"本町","lat":35.857477,"lng":139.316808},{"code":"112090030","name":"八幡町","lat":35.85577,"lng":139.319594},{"code":"112090040","name":"新町","lat":35.857443,"lng":139.324106},{"code":"112090050","name":"東町","lat":35.854272,"lng":139.323584},{"code":"112090060","name":"柳町","lat":35.851415,"lng":139.323058},{"code":"112090070","name":"仲町","lat":35.852894,"lng":139.31742},{"code":"112090080","name":"稲荷町","lat":35.851687,"lng":139.314055},{"code":"112090090","name":"南町","lat":35.848438,"lng":139.318516},{"code":"112090100","name":"大字飯能","lat":35.86371,"lng":139.304945},{"code":"112090110","name":"原町","lat":35.859614,"lng":139.319498},{"code":"112090120","name":"大字久下","lat":35.854745,"lng":139.31237},{"code":"112090130","name":"大字中山","lat":35.867891,"lng":139.320449},{"code":"112090140","name":"大字久須美","lat":35.874406,"lng":139.268725},{"code":"112090150","name":"大字小瀬戸","lat":35.870324,"lng":139.265315},{"code":"112090160","name":"大字大河原","lat":35.855,"lng":139.299585},{"code":"112090170","name":"大字小岩井","lat":35.861612,"lng":139.272853},{"code":"112090180","name":"大字永田","lat":35.863811,"lng":139.290366},{"code":"112090190","name":"栄町","lat":35.851833,"lng":139.327948},{"code":"112090200","name":"緑町","lat":35.851264,"lng":139.331409},{"code":"112090210","name":"大字下加治","lat":35.864138,"lng":139.336832},{"code":"112090220","name":"大字小久保","lat":35.8681,"lng":139.340107},{"code":"112090230","name":"大字宮沢","lat":35.875599,"lng":139.327859},{"code":"112090240","name":"大字平松","lat":35.872571,"lng":139.346754},{"code":"112090250","name":"大字川崎","lat":35.874161,"lng":139.354996},{"code":"112090260","name":"大字下川崎","lat":35.877163,"lng":139.363912},{"code":"112090270","name":"大字新光","lat":35.851192,"lng":139.344245},{"code":"112090280","name":"大字芦苅場","lat":35.864787,"lng":139.361112},{"code":"11209029000","name":"大字双柳","lat":35.855306,"lng":139.339183},{"code":"11209029001","name":"大字双柳","lat":35.851558,"lng":139.341779},{"code":"112090300","name":"大字青木","lat":35.861437,"lng":139.331337},{"code":"112090310","name":"大字中居","lat":35.865173,"lng":139.328902},{"code":"112090320","name":"大字岩沢","lat":35.841193,"lng":139.340069},{"code":"11209033000","name":"大字笠縫","lat":35.843207,"lng":139.331144},{"code":"11209033001","name":"大字笠縫","lat":35.840227,"lng":139.330646},{"code":"11209034000","name":"大字川寺","lat":35.844951,"lng":139.324657},{"code":"11209034001","name":"大字川寺","lat":35.842749,"lng":139.327432},{"code":"112090350","name":"大字阿須","lat":35.829514,"lng":139.329239},{"code":"112090360","name":"大字落合","lat":35.834646,"lng":139.320893},{"code":"112090370","name":"大字前ケ貫","lat":35.839159,"lng":139.314517},{"code":"112090380","name":"大字矢颪","lat":35.84534,"lng":139.314975},{"code":"112090390","name":"大字岩渕","lat":35.833016,"lng":139.307886},{"code":"112090400","name":"大字下畑","lat":35.841021,"lng":139.294298},{"code":"112090410","name":"大字上畑","lat":35.842669,"lng":139.284966},{"code":"112090420","name":"大字苅生","lat":35.851758,"lng":139.273615},{"code":"112090430","name":"大字下直竹","lat":35.843747,"lng":139.265178},{"code":"112090440","name":"大字上直竹下分","lat":35.849174,"lng":139.246906},{"code":"112090450","name":"大字上直竹上分","lat":35.844046,"lng":139.228481},{"code":"112090460","name":"大字白子","lat":35.88762,"lng":139.272619},{"code":"112090470","name":"大字平戸","lat":35.889912,"lng":139.260377},{"code":"112090480","name":"大字虎秀","lat":35.906817,"lng":139.262581},{"code":"112090490","name":"大字井上","lat":35.903116,"lng":139.245926},{"code":"112090500","name":"大字長沢","lat":35.92416,"lng":139.235811},{"code":"112090510","name":"大字原市場","lat":35.869203,"lng":139.224959},{"code":"112090520","name":"大字下赤工","lat":35.864205,"lng":139.251844},{"code":"112090530","name":"大字上赤工","lat":35.869622,"lng":139.238388},{"code":"112090540","name":"大字赤沢","lat":35.85797,"lng":139.211757},{"code":"112090550","name":"大字唐竹","lat":35.854849,"lng":139.225203},{"code":"112090560","name":"大字中藤下郷","lat":35.879686,"lng":139.248074},{"code":"112090570","name":"大字中藤中郷","lat":35.885859,"lng":139.233796},{"code":"112090580","name":"大字中藤上郷","lat":35.888272,"lng":139.222023},{"code":"112090590","name":"大字南","lat":35.893137,"lng":139.201363},{"code":"112090600","name":"大字坂石町分","lat":35.904689,"lng":139.230481},{"code":"112090610","name":"大字坂石","lat":35.910593,"lng":139.211286},{"code":"112090620","name":"大字吾野","lat":35.920036,"lng":139.201124},{"code":"112090630","name":"大字上長沢","lat":35.927649,"lng":139.214091},{"code":"112090640","name":"大字高山","lat":35.941951,"lng":139.215975},{"code":"112090650","name":"大字北川","lat":35.949622,"lng":139.197343},{"code":"112090660","name":"大字坂元","lat":35.950749,"lng":139.176239},{"code":"112090670","name":"大字南川","lat":35.925275,"lng":139.176993},{"code":"11209068001","name":"美杉台１丁目","lat":35.846547,"lng":139.310638},{"code":"11209068002","name":"美杉台２丁目","lat":35.841875,"lng":139.311882},{"code":"11209068003","name":"美杉台３丁目","lat":35.84246,"lng":139.308864},{"code":"11209068004","name":"美杉台４丁目","lat":35.845736,"lng":139.305584},{"code":"11209068005","name":"美杉台５丁目","lat":35.849345,"lng":139.305664},{"code":"11209068006","name":"美杉台６丁目","lat":35.847719,"lng":139.298661},{"code":"11209068007","name":"美杉台７丁目","lat":35.843501,"lng":139.3017},{"code":"11209069001","name":"永田台１丁目","lat":35.869795,"lng":139.285784},{"code":"11209069002","name":"永田台２丁目","lat":35.867509,"lng":139.290518},{"code":"11209069003","name":"永田台３丁目","lat":35.86781,"lng":139.294902},{"code":"112090700","name":"征矢町","lat":35.840247,"lng":139.319866},{"code":"112090710","name":"大字上名栗","lat":35.908488,"lng":139.149968},{"code":"112090720","name":"大字下名栗","lat":35.868717,"lng":139.156349},{"code":"11209073001","name":"茜台１丁目","lat":35.848364,"lng":139.295797},{"code":"11209073002","name":"茜台２丁目","lat":35.852791,"lng":139.292191},{"code":"11209073003","name":"茜台３丁目","lat":35.853884,"lng":139.286953}]}
