{"municipality":"11326","name":"入間郡毛呂山町","prefecture":"埼玉県","source":{"dataset":"frogcat/japan-small-area","census":"平成27年国勢調査 小地域（e-Stat 統計LOD）","license":"MIT（リポジトリ）／政府統計の総合窓口(e-Stat)の利用規約（元データ・出典表記必要）","fetched":"2026-07-06"},"towns":[{"code":"11326001001","name":"大字毛呂本郷","lat":35.942035,"lng":139.305479},{"code":"11326001002","name":"大字毛呂本郷","lat":35.948153,"lng":139.305678},{"code":"11326001003","name":"大字毛呂本郷","lat":35.941742,"lng":139.30805},{"code":"11326001004","name":"大字毛呂本郷","lat":35.944815,"lng":139.306606},{"code":"11326001005","name":"大字毛呂本郷","lat":35.942555,"lng":139.303254},{"code":"11326001006","name":"大字毛呂本郷","lat":35.937276,"lng":139.304705},{"code":"113260020","name":"大字小田谷","lat":35.935157,"lng":139.308639},{"code":"11326003001","name":"大字長瀬","lat":35.934061,"lng":139.314599},{"code":"11326003002","name":"大字長瀬","lat":35.938356,"lng":139.316645},{"code":"11326003003","name":"大字長瀬","lat":35.936429,"lng":139.320371},{"code":"11326004001","name":"大字前久保","lat":35.950269,"lng":139.325381},{"code":"11326004004","name":"大字前久保","lat":35.953504,"lng":139.325573},{"code":"113260050","name":"大字岩井","lat":35.953013,"lng":139.318343},{"code":"113260060","name":"大字滝ノ入","lat":35.939857,"lng":139.280913},{"code":"11326007001","name":"大字阿諏訪","lat":35.928483,"lng":139.283891},{"code":"11326007002","name":"大字阿諏訪","lat":35.9369,"lng":139.302489},{"code":"113260080","name":"大字大谷木","lat":35.922665,"lng":139.295016},{"code":"113260090","name":"大字葛貫","lat":35.924944,"lng":139.317488},{"code":"113260100","name":"大字権現堂","lat":35.908997,"lng":139.281835},{"code":"113260110","name":"大字宿谷","lat":35.912331,"lng":139.299991},{"code":"11326012001","name":"大字川角","lat":35.950142,"lng":139.336791},{"code":"11326012003","name":"大字川角","lat":35.944983,"lng":139.329366},{"code":"11326012004","name":"大字川角","lat":35.946455,"lng":139.339429},{"code":"11326012005","name":"大字川角","lat":35.959612,"lng":139.353157},{"code":"113260130","name":"大字苦林","lat":35.965134,"lng":139.345801},{"code":"113260140","name":"大字大類","lat":35.95753,"lng":139.347765},{"code":"113260150","name":"大字西大久保","lat":35.950765,"lng":139.353956},{"code":"11326016001","name":"大字市場","lat":35.943931,"lng":139.345032},{"code":"11326016002","name":"大字市場","lat":35.940342,"lng":139.338211},{"code":"11326016003","name":"大字市場","lat":35.949372,"lng":139.344942},{"code":"11326016004","name":"大字市場","lat":35.95328,"lng":139.344559},{"code":"11326017001","name":"大字下川原","lat":35.935305,"lng":139.346055},{"code":"11326017002","name":"大字下川原","lat":35.935422,"lng":139.338893},{"code":"11326017003","name":"大字下川原","lat":35.938361,"lng":139.339323},{"code":"11326018001","name":"大字西戸","lat":35.95792,"lng":139.334792},{"code":"11326018002","name":"大字西戸","lat":35.96161,"lng":139.331069},{"code":"113260190","name":"大字箕和田","lat":35.958825,"lng":139.320734},{"code":"11326020001","name":"大字旭台","lat":35.938331,"lng":139.334608},{"code":"11326020002","name":"大字旭台","lat":35.941491,"lng":139.334754},{"code":"11326021001","name":"目白台１丁目","lat":35.960011,"lng":139.322819},{"code":"11326021002","name":"目白台２丁目","lat":35.962915,"lng":139.323545},{"code":"11326021003","name":"目白台３丁目","lat":35.960123,"lng":139.32624},{"code":"11326021004","name":"目白台４丁目","lat":35.959194,"lng":139.328429},{"code":"11326022001","name":"若山１丁目","lat":35.942824,"lng":139.328675},{"code":"11326022002","name":"若山２丁目","lat":35.944591,"lng":139.331321},{"code":"11326022003","name":"若山３丁目","lat":35.94186,"lng":139.331648},{"code":"11326023001","name":"前久保南１丁目","lat":35.946161,"lng":139.319381},{"code":"11326023002","name":"前久保南２丁目","lat":35.944668,"lng":139.321454},{"code":"11326023003","name":"前久保南３丁目","lat":35.944806,"lng":139.32384},{"code":"11326023004","name":"前久保南４丁目","lat":35.94519,"lng":139.326653},{"code":"11326024001","name":"中央１丁目","lat":35.943628,"lng":139.316652},{"code":"11326024002","name":"中央２丁目","lat":35.941191,"lng":139.317247},{"code":"11326024003","name":"中央３丁目","lat":35.941538,"lng":139.320508},{"code":"11326024004","name":"中央４丁目","lat":35.940907,"lng":139.324175},{"code":"11326025001","name":"南台１丁目","lat":35.935993,"lng":139.323351},{"code":"11326025002","name":"南台２丁目","lat":35.933948,"lng":139.325015},{"code":"11326025003","name":"南台３丁目","lat":35.937245,"lng":139.326343},{"code":"11326025004","name":"南台４丁目","lat":35.937705,"lng":139.329309},{"code":"11326025005","name":"南台５丁目","lat":35.940272,"lng":139.328902},{"code":"11326026001","name":"岩井西１丁目","lat":35.945855,"lng":139.31003},{"code":"11326026002","name":"岩井西２丁目","lat":35.945701,"lng":139.314641},{"code":"11326026003","name":"岩井西３丁目","lat":35.942822,"lng":139.313403},{"code":"11326026004","name":"岩井西４丁目","lat":35.940412,"lng":139.311849},{"code":"11326026005","name":"岩井西５丁目","lat":35.943214,"lng":139.310257},{"code":"11326027001","name":"平山１丁目","lat":35.948396,"lng":139.309442},{"code":"11326027002","name":"平山２丁目","lat":35.948328,"lng":139.312442},{"code":"11326027003","name":"平山３丁目","lat":35.951539,"lng":139.312912},{"code":"11326028001","name":"岩井東１丁目","lat":35.949283,"lng":139.315651},{"code":"11326028002","name":"岩井東２丁目","lat":35.947913,"lng":139.318025}]}
