{"municipality":"11327","name":"入間郡越生町","prefecture":"埼玉県","source":{"dataset":"frogcat/japan-small-area","census":"平成27年国勢調査 小地域（e-Stat 統計LOD）","license":"MIT（リポジトリ）／政府統計の総合窓口(e-Stat)の利用規約（元データ・出典表記必要）","fetched":"2026-07-06"},"towns":[{"code":"11327001001","name":"大字越生河原","lat":35.964948,"lng":139.29402},{"code":"11327001002","name":"大字越生新宿","lat":35.961788,"lng":139.291755},{"code":"11327001003","name":"大字越生上町","lat":35.963641,"lng":139.296994},{"code":"11327001004","name":"大字越生仲町","lat":35.963708,"lng":139.298529},{"code":"11327001005","name":"大字越生本町","lat":35.959856,"lng":139.297814},{"code":"11327001006","name":"大字越生上台","lat":35.959745,"lng":139.296611},{"code":"11327002001","name":"越生東１丁目","lat":35.963807,"lng":139.300367},{"code":"11327002002","name":"越生東２丁目","lat":35.962628,"lng":139.301235},{"code":"11327002003","name":"越生東３丁目","lat":35.960373,"lng":139.301698},{"code":"11327002004","name":"越生東４丁目","lat":35.961168,"lng":139.303372},{"code":"11327002005","name":"越生東５丁目","lat":35.95815,"lng":139.303682},{"code":"11327002006","name":"越生東６丁目","lat":35.959118,"lng":139.305331},{"code":"11327002007","name":"越生東７丁目","lat":35.9622,"lng":139.303885},{"code":"11327003001","name":"大字上野上野一","lat":35.94944,"lng":139.299623},{"code":"11327003002","name":"大字上野上野二","lat":35.954828,"lng":139.288176},{"code":"11327003003","name":"大字上野唐沢","lat":35.951255,"lng":139.308803},{"code":"11327003101","name":"上野東１丁目","lat":35.952876,"lng":139.311094},{"code":"11327003102","name":"上野東２丁目","lat":35.954172,"lng":139.310263},{"code":"11327003103","name":"上野東３丁目","lat":35.955033,"lng":139.307521},{"code":"11327003104","name":"上野東４丁目","lat":35.956935,"lng":139.306635},{"code":"11327003105","name":"上野東５丁目","lat":35.956623,"lng":139.310526},{"code":"11327004001","name":"大字如意","lat":35.966111,"lng":139.311253},{"code":"11327004002","name":"大字如意如意東","lat":35.96063,"lng":139.315001},{"code":"11327004003","name":"大字如意しらさぎ","lat":35.964212,"lng":139.30686},{"code":"113270050","name":"大字西和田","lat":35.970321,"lng":139.30107},{"code":"113270060","name":"大字大谷","lat":35.980707,"lng":139.297107},{"code":"113270070","name":"大字鹿下","lat":35.984167,"lng":139.285779},{"code":"113270080","name":"大字古池","lat":35.982939,"lng":139.276081},{"code":"113270090","name":"大字成瀬","lat":35.975161,"lng":139.28521},{"code":"113270100","name":"大字黒岩","lat":35.967485,"lng":139.290682},{"code":"113270110","name":"大字津久根","lat":35.966514,"lng":139.280151},{"code":"113270120","name":"大字小杉","lat":35.964695,"lng":139.256214},{"code":"113270130","name":"大字大満","lat":35.951917,"lng":139.266105},{"code":"113270140","name":"大字黒山","lat":35.937475,"lng":139.248274},{"code":"113270150","name":"大字龍ケ谷","lat":35.95424,"lng":139.237872},{"code":"113270160","name":"大字麦原","lat":35.967875,"lng":139.234911},{"code":"113270170","name":"大字上谷","lat":35.978522,"lng":139.257858},{"code":"113270180","name":"大字堂山","lat":35.971671,"lng":139.264104}]}
