{"municipality":"11464","name":"北葛飾郡杉戸町","prefecture":"埼玉県","source":{"dataset":"frogcat/japan-small-area","census":"平成27年国勢調査 小地域（e-Stat 統計LOD）","license":"MIT（リポジトリ）／政府統計の総合窓口(e-Stat)の利用規約（元データ・出典表記必要）","fetched":"2026-07-06"},"towns":[{"code":"114640010","name":"大字下野","lat":36.056875,"lng":139.703353},{"code":"114640020","name":"大字下高野","lat":36.04408,"lng":139.710149},{"code":"114640030","name":"大字茨島","lat":36.051718,"lng":139.720813},{"code":"114640040","name":"大字大島","lat":36.047971,"lng":139.72313},{"code":"11464005001","name":"高野台東１丁目","lat":36.050811,"lng":139.715852},{"code":"11464005002","name":"高野台東２丁目","lat":36.047236,"lng":139.717078},{"code":"11464006001","name":"高野台南１丁目","lat":36.049558,"lng":139.712354},{"code":"11464006002","name":"高野台南２丁目","lat":36.048158,"lng":139.713253},{"code":"11464006003","name":"高野台南３丁目","lat":36.046574,"lng":139.714443},{"code":"11464006004","name":"高野台南４丁目","lat":36.044294,"lng":139.714192},{"code":"11464006005","name":"高野台南５丁目","lat":36.046634,"lng":139.710968},{"code":"11464007001","name":"高野台西１丁目","lat":36.052431,"lng":139.712746},{"code":"11464007002","name":"高野台西２丁目","lat":36.053768,"lng":139.710166},{"code":"11464007003","name":"高野台西３丁目","lat":36.051888,"lng":139.709339},{"code":"11464007004","name":"高野台西４丁目","lat":36.051153,"lng":139.70732},{"code":"11464007005","name":"高野台西５丁目","lat":36.055542,"lng":139.707227},{"code":"11464007006","name":"高野台西６丁目","lat":36.055743,"lng":139.710577},{"code":"11464008001","name":"杉戸１丁目","lat":36.032116,"lng":139.725107},{"code":"11464008002","name":"杉戸２丁目","lat":36.030002,"lng":139.729223},{"code":"11464008003","name":"杉戸３丁目","lat":36.027518,"lng":139.728522},{"code":"11464008004","name":"杉戸４丁目","lat":36.029272,"lng":139.724487},{"code":"11464008005","name":"杉戸５丁目","lat":36.032311,"lng":139.722},{"code":"11464008006","name":"杉戸６丁目","lat":36.034592,"lng":139.72245},{"code":"11464008007","name":"杉戸７丁目","lat":36.034875,"lng":139.72487},{"code":"114640090","name":"大字杉戸","lat":36.038459,"lng":139.724584},{"code":"11464010001","name":"内田１丁目","lat":36.033735,"lng":139.72789},{"code":"11464010002","name":"内田２丁目","lat":36.031974,"lng":139.731291},{"code":"11464010003","name":"内田３丁目","lat":36.035423,"lng":139.732169},{"code":"11464010004","name":"内田４丁目","lat":36.036444,"lng":139.728409},{"code":"11464011001","name":"清地１丁目","lat":36.02746,"lng":139.733365},{"code":"11464011002","name":"清地２丁目","lat":36.025426,"lng":139.736856},{"code":"11464011003","name":"清地３丁目","lat":36.022609,"lng":139.740413},{"code":"11464011004","name":"清地４丁目","lat":36.029128,"lng":139.735691},{"code":"11464011005","name":"清地５丁目","lat":36.028237,"lng":139.738959},{"code":"11464011006","name":"清地６丁目","lat":36.02666,"lng":139.741511},{"code":"114640120","name":"大字清地","lat":36.030742,"lng":139.748922},{"code":"114640130","name":"大字倉松","lat":36.034215,"lng":139.743864},{"code":"11464014001","name":"倉松１丁目","lat":36.032992,"lng":139.73448},{"code":"11464014002","name":"倉松２丁目","lat":36.031973,"lng":139.736745},{"code":"11464014003","name":"倉松３丁目","lat":36.031689,"lng":139.739226},{"code":"11464014004","name":"倉松４丁目","lat":36.030661,"lng":139.74308},{"code":"11464014005","name":"倉松５丁目","lat":36.029294,"lng":139.743189},{"code":"114640150","name":"大字本島","lat":36.042647,"lng":139.744029},{"code":"114640160","name":"大字堤根","lat":36.017531,"lng":139.756001},{"code":"114640170","name":"大字本郷","lat":36.004505,"lng":139.754737},{"code":"114640180","name":"大字遠野","lat":36.051671,"lng":139.751616},{"code":"114640190","name":"大字広戸沼","lat":36.04681,"lng":139.762502},{"code":"114640200","name":"大字佐左エ門","lat":36.040687,"lng":139.757644},{"code":"114640210","name":"大字並塚","lat":36.034499,"lng":139.76566},{"code":"114640220","name":"大字才羽","lat":36.025471,"lng":139.768782},{"code":"114640230","name":"大字北蓮沼","lat":36.017371,"lng":139.772482},{"code":"114640240","name":"大字大塚","lat":36.011898,"lng":139.777384},{"code":"114640250","name":"大字屏風","lat":36.046799,"lng":139.782951},{"code":"114640260","name":"大字深輪","lat":36.03786,"lng":139.789691},{"code":"114640270","name":"大字椿","lat":36.035387,"lng":139.780381},{"code":"114640280","name":"大字木津内","lat":36.055563,"lng":139.790264},{"code":"114640290","name":"大字目沼","lat":36.052686,"lng":139.783701},{"code":"114640300","name":"大字宮前","lat":36.048065,"lng":139.791259},{"code":"114640310","name":"大字鷲巣","lat":36.044425,"lng":139.797982},{"code":"114640320","name":"大字木野川","lat":36.038398,"lng":139.802126}]}
