{"municipality":"12202","name":"銚子市","prefecture":"千葉県","source":{"dataset":"frogcat/japan-small-area","census":"平成27年国勢調査 小地域（e-Stat 統計LOD）","license":"MIT（リポジトリ）／政府統計の総合窓口(e-Stat)の利用規約（元データ・出典表記必要）","fetched":"2026-07-06"},"towns":[{"code":"12202001001","name":"外川町１丁目","lat":35.697473,"lng":140.857686},{"code":"12202001002","name":"外川町２丁目","lat":35.69855,"lng":140.855965},{"code":"12202001003","name":"外川町３丁目","lat":35.699389,"lng":140.855333},{"code":"12202001004","name":"外川町４丁目","lat":35.699331,"lng":140.853029},{"code":"122020020","name":"外川台町","lat":35.701864,"lng":140.85199},{"code":"122020030","name":"長崎町","lat":35.696542,"lng":140.86192},{"code":"122020040","name":"犬吠埼","lat":35.706001,"lng":140.862608},{"code":"122020050","name":"君ケ浜","lat":35.71539,"lng":140.864958},{"code":"122020060","name":"犬若","lat":35.69887,"lng":140.848457},{"code":"122020070","name":"潮見町","lat":35.704319,"lng":140.843175},{"code":"122020080","name":"高神東町","lat":35.710761,"lng":140.854111},{"code":"122020090","name":"高神西町","lat":35.711667,"lng":140.844822},{"code":"122020100","name":"天王台","lat":35.705744,"lng":140.8547},{"code":"122020110","name":"高神原町","lat":35.718898,"lng":140.845575},{"code":"122020120","name":"小畑町","lat":35.716805,"lng":140.852783},{"code":"122020130","name":"小畑新町","lat":35.719145,"lng":140.85913},{"code":"122020140","name":"名洗町","lat":35.712521,"lng":140.836709},{"code":"12202015001","name":"川口町１丁目","lat":35.737137,"lng":140.85261},{"code":"12202015002","name":"川口町２丁目","lat":35.739465,"lng":140.861281},{"code":"122020160","name":"植松町","lat":35.735344,"lng":140.852992},{"code":"12202017001","name":"明神町１丁目","lat":35.734191,"lng":140.857022},{"code":"12202017002","name":"明神町２丁目","lat":35.737194,"lng":140.859594},{"code":"122020180","name":"笠上町","lat":35.72849,"lng":140.859996},{"code":"122020190","name":"黒生町","lat":35.73228,"lng":140.865014},{"code":"122020200","name":"海鹿島町","lat":35.723497,"lng":140.864109},{"code":"122020210","name":"榊町","lat":35.723699,"lng":140.8499},{"code":"122020220","name":"愛宕町","lat":35.728563,"lng":140.849344},{"code":"122020230","name":"清水町","lat":35.732353,"lng":140.849648},{"code":"12202024001","name":"幸町１丁目","lat":35.733768,"lng":140.848694},{"code":"12202024002","name":"幸町２丁目","lat":35.734632,"lng":140.850023},{"code":"12202025001","name":"弥生町１丁目","lat":35.734124,"lng":140.850938},{"code":"12202025002","name":"弥生町２丁目","lat":35.734744,"lng":140.852078},{"code":"122020260","name":"本町","lat":35.735744,"lng":140.845665},{"code":"122020270","name":"仲町","lat":35.737098,"lng":140.848046},{"code":"122020280","name":"通町","lat":35.73625,"lng":140.848701},{"code":"122020290","name":"橋本町","lat":35.734694,"lng":140.847365},{"code":"122020300","name":"内浜町","lat":35.736191,"lng":140.843193},{"code":"122020310","name":"港町","lat":35.737008,"lng":140.845674},{"code":"122020320","name":"竹町","lat":35.734816,"lng":140.843961},{"code":"122020330","name":"和田町","lat":35.733478,"lng":140.844303},{"code":"122020340","name":"田中町","lat":35.733243,"lng":140.843121},{"code":"122020350","name":"新地町","lat":35.734031,"lng":140.842283},{"code":"122020360","name":"浜町","lat":35.732703,"lng":140.841595},{"code":"122020370","name":"後飯町","lat":35.73158,"lng":140.844507},{"code":"122020380","name":"飯沼町","lat":35.733233,"lng":140.840285},{"code":"122020390","name":"東町","lat":35.731119,"lng":140.842022},{"code":"122020400","name":"馬場町","lat":35.730853,"lng":140.840426},{"code":"122020410","name":"南町","lat":35.729085,"lng":140.83917},{"code":"122020420","name":"陣屋町","lat":35.730409,"lng":140.838122},{"code":"122020430","name":"前宿町","lat":35.727003,"lng":140.842846},{"code":"12202044001","name":"新生町１丁目","lat":35.733283,"lng":140.836591},{"code":"12202044002","name":"新生町２丁目","lat":35.730565,"lng":140.834876},{"code":"122020450","name":"中央町","lat":35.734848,"lng":140.831891},{"code":"122020460","name":"末広町","lat":35.731804,"lng":140.831754},{"code":"122020470","name":"双葉町","lat":35.73296,"lng":140.828659},{"code":"122020480","name":"妙見町","lat":35.726969,"lng":140.830234},{"code":"122020490","name":"台町","lat":35.721372,"lng":140.827434},{"code":"122020500","name":"東芝町","lat":35.730537,"lng":140.830159},{"code":"122020510","name":"西芝町","lat":35.730198,"lng":140.827347},{"code":"12202052001","name":"栄町１丁目","lat":35.728175,"lng":140.828379},{"code":"12202052002","name":"栄町２丁目","lat":35.728269,"lng":140.82645},{"code":"12202052003","name":"栄町３丁目","lat":35.725201,"lng":140.827402},{"code":"12202052004","name":"栄町４丁目","lat":35.725946,"lng":140.828722},{"code":"122020530","name":"若宮町","lat":35.733403,"lng":140.82654},{"code":"122020540","name":"大橋町","lat":35.735635,"lng":140.823793},{"code":"122020550","name":"三軒町","lat":35.73271,"lng":140.824582},{"code":"122020560","name":"唐子町","lat":35.732507,"lng":140.821968},{"code":"122020570","name":"今宮町","lat":35.730771,"lng":140.809121},{"code":"12202058001","name":"清川町１丁目","lat":35.728765,"lng":140.823435},{"code":"12202058002","name":"清川町２丁目","lat":35.728321,"lng":140.821655},{"code":"12202058003","name":"清川町３丁目","lat":35.72751,"lng":140.820898},{"code":"12202058004","name":"清川町４丁目","lat":35.726194,"lng":140.819899},{"code":"122020590","name":"八幡町","lat":35.728069,"lng":140.816333},{"code":"122020600","name":"東小川町","lat":35.724999,"lng":140.839481},{"code":"122020610","name":"西小川町","lat":35.718195,"lng":140.831478},{"code":"122020620","name":"南小川町","lat":35.721307,"lng":140.837593},{"code":"122020630","name":"北小川町","lat":35.727725,"lng":140.834942},{"code":"122020640","name":"春日町","lat":35.721312,"lng":140.817341},{"code":"122020650","name":"春日台町","lat":35.726049,"lng":140.809858},{"code":"122020660","name":"上野町","lat":35.725556,"lng":140.802663},{"code":"12202067001","name":"三崎町１丁目","lat":35.714447,"lng":140.803096},{"code":"12202067002","name":"三崎町２丁目","lat":35.716393,"lng":140.79397},{"code":"12202067003","name":"三崎町３丁目","lat":35.707345,"lng":140.782342},{"code":"12202068001","name":"松本町１丁目","lat":35.73086,"lng":140.818506},{"code":"12202068002","name":"松本町２丁目","lat":35.733206,"lng":140.817895},{"code":"12202068003","name":"松本町３丁目","lat":35.733891,"lng":140.815908},{"code":"12202068005","name":"松本町５丁目","lat":35.730127,"lng":140.813589},{"code":"12202069001","name":"本城町１丁目","lat":35.735546,"lng":140.814455},{"code":"12202069002","name":"本城町２丁目","lat":35.736558,"lng":140.812943},{"code":"12202069003","name":"本城町３丁目","lat":35.737103,"lng":140.809488},{"code":"12202069004","name":"本城町４丁目","lat":35.734171,"lng":140.810545},{"code":"12202069005","name":"本城町５丁目","lat":35.733706,"lng":140.806844},{"code":"12202069006","name":"本城町６丁目","lat":35.725523,"lng":140.797398},{"code":"12202070001","name":"長塚町１丁目","lat":35.738479,"lng":140.806146},{"code":"12202070002","name":"長塚町２丁目","lat":35.739607,"lng":140.803453},{"code":"12202070003","name":"長塚町３丁目","lat":35.741293,"lng":140.799715},{"code":"12202070004","name":"長塚町４丁目","lat":35.729582,"lng":140.797182},{"code":"12202070005","name":"長塚町５丁目","lat":35.735328,"lng":140.794478},{"code":"12202070006","name":"長塚町６丁目","lat":35.718836,"lng":140.790175},{"code":"12202070007","name":"長塚町７丁目","lat":35.723182,"lng":140.785068},{"code":"12202071001","name":"松岸町１丁目","lat":35.745888,"lng":140.797445},{"code":"12202071002","name":"松岸町２丁目","lat":35.744079,"lng":140.795279},{"code":"12202071003","name":"松岸町３丁目","lat":35.741753,"lng":140.793804},{"code":"12202071004","name":"松岸町４丁目","lat":35.739894,"lng":140.790329},{"code":"122020720","name":"松岸見晴台","lat":35.719592,"lng":140.786077},{"code":"12202073001","name":"垣根町１丁目","lat":35.747034,"lng":140.793741},{"code":"12202073002","name":"垣根町２丁目","lat":35.743882,"lng":140.790417},{"code":"12202074001","name":"柴崎町１丁目","lat":35.74588,"lng":140.785964},{"code":"12202074002","name":"柴崎町２丁目","lat":35.741575,"lng":140.787012},{"code":"122020750","name":"四日市場町","lat":35.749795,"lng":140.786115},{"code":"122020760","name":"余山町","lat":35.751199,"lng":140.776709},{"code":"12202077001","name":"三宅町１丁目","lat":35.742504,"lng":140.778885},{"code":"12202077002","name":"三宅町２丁目","lat":35.735223,"lng":140.772021},{"code":"12202077003","name":"三宅町３丁目","lat":35.733107,"lng":140.766493},{"code":"122020780","name":"赤塚町","lat":35.740653,"lng":140.769503},{"code":"122020790","name":"高野町","lat":35.735977,"lng":140.784131},{"code":"122020800","name":"芦崎町","lat":35.75613,"lng":140.775787},{"code":"12202081001","name":"高田町１丁目","lat":35.760137,"lng":140.761755},{"code":"12202081002","name":"高田町２丁目","lat":35.762916,"lng":140.768533},{"code":"12202081003","name":"高田町３丁目","lat":35.763468,"lng":140.766528},{"code":"12202081004","name":"高田町４丁目","lat":35.763946,"lng":140.765457},{"code":"12202081005","name":"高田町５丁目","lat":35.764555,"lng":140.764664},{"code":"12202081006","name":"高田町６丁目","lat":35.765523,"lng":140.763769},{"code":"12202081007","name":"高田町７丁目","lat":35.756969,"lng":140.743982},{"code":"12202082001","name":"岡野台町１丁目","lat":35.748807,"lng":140.771834},{"code":"12202082002","name":"岡野台町２丁目","lat":35.745399,"lng":140.768651},{"code":"12202082003","name":"岡野台町３丁目","lat":35.74453,"lng":140.765044},{"code":"122020830","name":"三門町","lat":35.751478,"lng":140.767603},{"code":"122020840","name":"中島町","lat":35.745862,"lng":140.759483},{"code":"122020850","name":"正明寺町","lat":35.75017,"lng":140.752582},{"code":"122020860","name":"船木町","lat":35.755633,"lng":140.757729},{"code":"122020870","name":"白石町","lat":35.73789,"lng":140.749674},{"code":"122020880","name":"新町","lat":35.733555,"lng":140.759747},{"code":"122020890","name":"野尻町","lat":35.763915,"lng":140.750651},{"code":"12202090001","name":"小船木町１丁目","lat":35.768191,"lng":140.749964},{"code":"12202090002","name":"小船木町２丁目","lat":35.765481,"lng":140.731851},{"code":"122020910","name":"塚本町","lat":35.771681,"lng":140.744224},{"code":"122020920","name":"忍町","lat":35.775575,"lng":140.737811},{"code":"122020930","name":"猿田町","lat":35.744754,"lng":140.733986},{"code":"122020940","name":"茶畑町","lat":35.734337,"lng":140.736086},{"code":"122020950","name":"長山町","lat":35.767731,"lng":140.718598},{"code":"122020960","name":"小長町","lat":35.765531,"lng":140.713343},{"code":"122020970","name":"富川町","lat":35.777197,"lng":140.729844},{"code":"122020980","name":"森戸町","lat":35.781355,"lng":140.71894},{"code":"12202099001","name":"豊里台１丁目","lat":35.787514,"lng":140.710963},{"code":"12202099002","name":"豊里台２丁目","lat":35.786433,"lng":140.702629},{"code":"12202099003","name":"豊里台３丁目","lat":35.788838,"lng":140.704853},{"code":"122021000","name":"笹本町","lat":35.790506,"lng":140.717377},{"code":"122021010","name":"桜井町","lat":35.797085,"lng":140.714473},{"code":"122021020","name":"諸持町","lat":35.799106,"lng":140.701604},{"code":"122021030","name":"宮原町","lat":35.806744,"lng":140.711732},{"code":"122021040","name":"八木町","lat":35.711108,"lng":140.745922},{"code":"122021050","name":"小浜町","lat":35.71013,"lng":140.770927},{"code":"122021060","name":"親田町","lat":35.719145,"lng":140.768093},{"code":"122021070","name":"常世田町","lat":35.720967,"lng":140.758426},{"code":"122021080","name":"垣根見晴台","lat":35.71322,"lng":140.783868}]}
