{"municipality":"12322","name":"印旛郡酒々井町","prefecture":"千葉県","source":{"dataset":"frogcat/japan-small-area","census":"平成27年国勢調査 小地域（e-Stat 統計LOD）","license":"MIT（リポジトリ）／政府統計の総合窓口(e-Stat)の利用規約（元データ・出典表記必要）","fetched":"2026-07-06"},"towns":[{"code":"123220010","name":"下台","lat":35.720572,"lng":140.269646},{"code":"123220020","name":"酒々井","lat":35.730239,"lng":140.266044},{"code":"123220030","name":"上本佐倉","lat":35.720957,"lng":140.260184},{"code":"123220040","name":"本佐倉","lat":35.720545,"lng":140.258954},{"code":"123220050","name":"馬橋","lat":35.707172,"lng":140.26821},{"code":"123220060","name":"墨","lat":35.712379,"lng":140.280161},{"code":"123220070","name":"尾上","lat":35.723775,"lng":140.287166},{"code":"12322008000","name":"飯積","lat":35.716178,"lng":140.290425},{"code":"12322008001","name":"飯積１丁目","lat":35.716938,"lng":140.297151},{"code":"12322008002","name":"飯積２丁目","lat":35.712952,"lng":140.293684},{"code":"123220090","name":"中川","lat":35.737749,"lng":140.268068},{"code":"123220100","name":"上岩橋","lat":35.73869,"lng":140.280506},{"code":"123220110","name":"柏木","lat":35.749571,"lng":140.269348},{"code":"123220120","name":"下岩橋","lat":35.75226,"lng":140.277716},{"code":"123220130","name":"伊篠","lat":35.746399,"lng":140.289891},{"code":"123220140","name":"伊篠新田","lat":35.741213,"lng":140.300181},{"code":"123220150","name":"篠山新田","lat":35.753574,"lng":140.293421},{"code":"123220160","name":"今倉新田","lat":35.743621,"lng":140.302082},{"code":"12322017001","name":"東酒々井１丁目","lat":35.730782,"lng":140.27665},{"code":"12322017002","name":"東酒々井２丁目","lat":35.73034,"lng":140.280995},{"code":"12322017003","name":"東酒々井３丁目","lat":35.728609,"lng":140.276898},{"code":"12322017004","name":"東酒々井４丁目","lat":35.726116,"lng":140.276366},{"code":"12322017005","name":"東酒々井５丁目","lat":35.725939,"lng":140.273325},{"code":"12322017006","name":"東酒々井６丁目","lat":35.724816,"lng":140.273982},{"code":"123220180","name":"上本佐倉一丁目","lat":35.715643,"lng":140.262546},{"code":"12322019001","name":"中央台１丁目","lat":35.734414,"lng":140.274873},{"code":"12322019002","name":"中央台２丁目","lat":35.7302,"lng":140.272725},{"code":"12322019003","name":"中央台３丁目","lat":35.729513,"lng":140.27094},{"code":"12322019004","name":"中央台４丁目","lat":35.724962,"lng":140.270652},{"code":"12322020001","name":"ふじき野１丁目","lat":35.726775,"lng":140.279401},{"code":"12322020002","name":"ふじき野２丁目","lat":35.725618,"lng":140.280379},{"code":"12322020003","name":"ふじき野３丁目","lat":35.723221,"lng":140.276082}]}
