{"municipality":"13119","name":"板橋区","prefecture":"東京都","source":{"dataset":"frogcat/japan-small-area","census":"平成27年国勢調査 小地域（e-Stat 統計LOD）","license":"MIT（リポジトリ）／政府統計の総合窓口(e-Stat)の利用規約（元データ・出典表記必要）","fetched":"2026-07-06"},"towns":[{"code":"13119001001","name":"板橋１丁目","lat":35.747405,"lng":139.717966},{"code":"13119001002","name":"板橋２丁目","lat":35.748312,"lng":139.71125},{"code":"13119001003","name":"板橋３丁目","lat":35.752198,"lng":139.71334},{"code":"13119001004","name":"板橋４丁目","lat":35.750823,"lng":139.71891},{"code":"13119002001","name":"加賀１丁目","lat":35.754806,"lng":139.718604},{"code":"13119002002","name":"加賀２丁目","lat":35.757779,"lng":139.714891},{"code":"131190030","name":"大山東町","lat":35.74918,"lng":139.705685},{"code":"131190040","name":"大山金井町","lat":35.746066,"lng":139.705362},{"code":"131190050","name":"熊野町","lat":35.743378,"lng":139.706211},{"code":"131190060","name":"中丸町","lat":35.74177,"lng":139.703497},{"code":"131190070","name":"南町","lat":35.739946,"lng":139.701396},{"code":"131190080","name":"稲荷台","lat":35.761221,"lng":139.712275},{"code":"131190090","name":"仲宿","lat":35.755284,"lng":139.710247},{"code":"131190100","name":"氷川町","lat":35.753541,"lng":139.706451},{"code":"131190110","name":"栄町","lat":35.753114,"lng":139.702405},{"code":"131190120","name":"大山町","lat":35.748776,"lng":139.69972},{"code":"131190130","name":"大山西町","lat":35.746843,"lng":139.695138},{"code":"131190140","name":"幸町","lat":35.744328,"lng":139.697274},{"code":"131190150","name":"中板橋","lat":35.755933,"lng":139.697512},{"code":"131190160","name":"仲町","lat":35.752527,"lng":139.697755},{"code":"131190170","name":"弥生町","lat":35.7538,"lng":139.693425},{"code":"131190180","name":"本町","lat":35.759869,"lng":139.708338},{"code":"131190190","name":"大和町","lat":35.758933,"lng":139.704608},{"code":"131190200","name":"双葉町","lat":35.75805,"lng":139.699821},{"code":"131190210","name":"富士見町","lat":35.76089,"lng":139.698204},{"code":"131190220","name":"大谷口上町","lat":35.748535,"lng":139.691201},{"code":"131190230","name":"大谷口北町","lat":35.750653,"lng":139.688516},{"code":"13119024001","name":"大谷口１丁目","lat":35.743758,"lng":139.690633},{"code":"13119024002","name":"大谷口２丁目","lat":35.744855,"lng":139.687705},{"code":"13119025001","name":"向原１丁目","lat":35.741859,"lng":139.685278},{"code":"13119025002","name":"向原２丁目","lat":35.740586,"lng":139.681818},{"code":"13119025003","name":"向原３丁目","lat":35.744845,"lng":139.683825},{"code":"13119026001","name":"小茂根１丁目","lat":35.746248,"lng":139.68019},{"code":"13119026002","name":"小茂根２丁目","lat":35.749566,"lng":139.68282},{"code":"13119026003","name":"小茂根３丁目","lat":35.75088,"lng":139.680023},{"code":"13119026004","name":"小茂根４丁目","lat":35.74759,"lng":139.67534},{"code":"13119026005","name":"小茂根５丁目","lat":35.752222,"lng":139.675962},{"code":"13119027001","name":"常盤台１丁目","lat":35.760341,"lng":139.692491},{"code":"13119027002","name":"常盤台２丁目","lat":35.761343,"lng":139.688249},{"code":"13119027003","name":"常盤台３丁目","lat":35.762017,"lng":139.684223},{"code":"13119027004","name":"常盤台４丁目","lat":35.763807,"lng":139.679246},{"code":"13119028001","name":"南常盤台１丁目","lat":35.756483,"lng":139.689394},{"code":"13119028002","name":"南常盤台２丁目","lat":35.758448,"lng":139.685411},{"code":"13119029001","name":"東新町１丁目","lat":35.758582,"lng":139.681738},{"code":"13119029002","name":"東新町２丁目","lat":35.754476,"lng":139.681061},{"code":"13119030001","name":"上板橋１丁目","lat":35.761572,"lng":139.677426},{"code":"13119030002","name":"上板橋２丁目","lat":35.763605,"lng":139.672681},{"code":"13119030003","name":"上板橋３丁目","lat":35.765571,"lng":139.673542},{"code":"131190310","name":"清水町","lat":35.76455,"lng":139.706993},{"code":"131190320","name":"蓮沼町","lat":35.770596,"lng":139.703578},{"code":"131190330","name":"大原町","lat":35.769003,"lng":139.698023},{"code":"131190340","name":"泉町","lat":35.766893,"lng":139.700616},{"code":"131190350","name":"宮本町","lat":35.763786,"lng":139.701202},{"code":"13119036001","name":"志村１丁目","lat":35.773926,"lng":139.694211},{"code":"13119036002","name":"志村２丁目","lat":35.776547,"lng":139.689583},{"code":"13119036003","name":"志村３丁目","lat":35.777682,"lng":139.686406},{"code":"13119037001","name":"坂下１丁目","lat":35.78024,"lng":139.68519},{"code":"13119037002","name":"坂下２丁目","lat":35.783096,"lng":139.682814},{"code":"13119037003","name":"坂下３丁目","lat":35.788159,"lng":139.682549},{"code":"13119038001","name":"東坂下１丁目","lat":35.781864,"lng":139.692702},{"code":"13119038002","name":"東坂下２丁目","lat":35.786261,"lng":139.687837},{"code":"13119039001","name":"小豆沢１丁目","lat":35.7742,"lng":139.701053},{"code":"13119039002","name":"小豆沢２丁目","lat":35.776822,"lng":139.699885},{"code":"13119039003","name":"小豆沢３丁目","lat":35.778844,"lng":139.695093},{"code":"13119039004","name":"小豆沢４丁目","lat":35.781041,"lng":139.700142},{"code":"13119040001","name":"西台１丁目","lat":35.775402,"lng":139.672707},{"code":"13119040002","name":"西台２丁目","lat":35.779388,"lng":139.669379},{"code":"13119040003","name":"西台３丁目","lat":35.775633,"lng":139.667684},{"code":"13119040004","name":"西台４丁目","lat":35.770009,"lng":139.668362},{"code":"13119041001","name":"中台１丁目","lat":35.766953,"lng":139.679492},{"code":"13119041002","name":"中台２丁目","lat":35.771744,"lng":139.682007},{"code":"13119041003","name":"中台３丁目","lat":35.772689,"lng":139.678819},{"code":"13119042001","name":"若木１丁目","lat":35.76787,"lng":139.672906},{"code":"13119042002","name":"若木２丁目","lat":35.770508,"lng":139.67259},{"code":"13119042003","name":"若木３丁目","lat":35.774028,"lng":139.675539},{"code":"13119043001","name":"蓮根１丁目","lat":35.779272,"lng":139.67661},{"code":"13119043002","name":"蓮根２丁目","lat":35.782863,"lng":139.676555},{"code":"13119043003","name":"蓮根３丁目","lat":35.788605,"lng":139.676978},{"code":"131190440","name":"相生町","lat":35.777166,"lng":139.679725},{"code":"13119045001","name":"前野町１丁目","lat":35.76488,"lng":139.695082},{"code":"13119045002","name":"前野町２丁目","lat":35.765573,"lng":139.689555},{"code":"13119045003","name":"前野町３丁目","lat":35.769231,"lng":139.693293},{"code":"13119045004","name":"前野町４丁目","lat":35.771929,"lng":139.690388},{"code":"13119045005","name":"前野町５丁目","lat":35.771408,"lng":139.685714},{"code":"13119045006","name":"前野町６丁目","lat":35.76664,"lng":139.684865},{"code":"13119046001","name":"赤塚１丁目","lat":35.771498,"lng":139.648777},{"code":"13119046002","name":"赤塚２丁目","lat":35.773629,"lng":139.64192},{"code":"13119046003","name":"赤塚３丁目","lat":35.778259,"lng":139.637947},{"code":"13119046004","name":"赤塚４丁目","lat":35.784691,"lng":139.639916},{"code":"13119046005","name":"赤塚５丁目","lat":35.781376,"lng":139.643038},{"code":"13119046006","name":"赤塚６丁目","lat":35.77631,"lng":139.644646},{"code":"13119046007","name":"赤塚７丁目","lat":35.776611,"lng":139.648657},{"code":"13119046008","name":"赤塚８丁目","lat":35.782437,"lng":139.646647},{"code":"13119047001","name":"赤塚新町１丁目","lat":35.769639,"lng":139.646802},{"code":"13119047002","name":"赤塚新町２丁目","lat":35.772681,"lng":139.638989},{"code":"13119047003","name":"赤塚新町３丁目","lat":35.770893,"lng":139.637016},{"code":"13119048001","name":"四葉１丁目","lat":35.777662,"lng":139.651946},{"code":"13119048002","name":"四葉２丁目","lat":35.781974,"lng":139.65217},{"code":"131190490","name":"大門","lat":35.783973,"lng":139.648381},{"code":"13119050001","name":"三園１丁目","lat":35.789498,"lng":139.640858},{"code":"13119050002","name":"三園２丁目","lat":35.794809,"lng":139.642299},{"code":"13119051001","name":"成増１丁目","lat":35.77484,"lng":139.63084},{"code":"13119051002","name":"成増２丁目","lat":35.778162,"lng":139.630353},{"code":"13119051003","name":"成増３丁目","lat":35.780589,"lng":139.631631},{"code":"13119051004","name":"成増４丁目","lat":35.784057,"lng":139.635317},{"code":"13119051005","name":"成増５丁目","lat":35.786927,"lng":139.633265},{"code":"13119052001","name":"徳丸１丁目","lat":35.771405,"lng":139.665411},{"code":"13119052002","name":"徳丸２丁目","lat":35.772555,"lng":139.661596},{"code":"13119052003","name":"徳丸３丁目","lat":35.772249,"lng":139.657511},{"code":"13119052004","name":"徳丸４丁目","lat":35.772797,"lng":139.65327},{"code":"13119052005","name":"徳丸５丁目","lat":35.777784,"lng":139.65624},{"code":"13119052006","name":"徳丸６丁目","lat":35.778127,"lng":139.661754},{"code":"13119052007","name":"徳丸７丁目","lat":35.780944,"lng":139.661616},{"code":"13119052008","name":"徳丸８丁目","lat":35.781641,"lng":139.656855},{"code":"131190530","name":"東山町","lat":35.753645,"lng":139.686395},{"code":"13119054001","name":"桜川１丁目","lat":35.756015,"lng":139.675697},{"code":"13119054002","name":"桜川２丁目","lat":35.758564,"lng":139.677591},{"code":"13119054003","name":"桜川３丁目","lat":35.760134,"lng":139.673905},{"code":"13119055001","name":"高島平１丁目","lat":35.784029,"lng":139.670135},{"code":"13119055002","name":"高島平２丁目","lat":35.785148,"lng":139.662569},{"code":"13119055003","name":"高島平３丁目","lat":35.786803,"lng":139.655505},{"code":"13119055004","name":"高島平４丁目","lat":35.787986,"lng":139.65025},{"code":"13119055005","name":"高島平５丁目","lat":35.789137,"lng":139.646227},{"code":"13119055006","name":"高島平６丁目","lat":35.793219,"lng":139.648917},{"code":"13119055007","name":"高島平７丁目","lat":35.791498,"lng":139.656904},{"code":"13119055008","name":"高島平８丁目","lat":35.790796,"lng":139.662579},{"code":"13119055009","name":"高島平９丁目","lat":35.789591,"lng":139.669253},{"code":"13119056001","name":"新河岸１丁目","lat":35.797714,"lng":139.67138},{"code":"13119056002","name":"新河岸２丁目","lat":35.795288,"lng":139.661918},{"code":"13119056003","name":"新河岸３丁目","lat":35.795302,"lng":139.654676},{"code":"13119057001","name":"舟渡１丁目","lat":35.791361,"lng":139.688386},{"code":"13119057002","name":"舟渡２丁目","lat":35.794846,"lng":139.689909},{"code":"13119057003","name":"舟渡３丁目","lat":35.79381,"lng":139.683039},{"code":"13119057004","name":"舟渡４丁目","lat":35.793861,"lng":139.675563}]}
