{"municipality":"13205","name":"青梅市","prefecture":"東京都","source":{"dataset":"frogcat/japan-small-area","census":"平成27年国勢調査 小地域（e-Stat 統計LOD）","license":"MIT（リポジトリ）／政府統計の総合窓口(e-Stat)の利用規約（元データ・出典表記必要）","fetched":"2026-07-06"},"towns":[{"code":"13205001001","name":"東青梅１丁目","lat":35.788404,"lng":139.273399},{"code":"13205001002","name":"東青梅２丁目","lat":35.791269,"lng":139.27294},{"code":"13205001003","name":"東青梅３丁目","lat":35.789992,"lng":139.277248},{"code":"13205001004","name":"東青梅４丁目","lat":35.784988,"lng":139.280035},{"code":"13205001005","name":"東青梅５丁目","lat":35.789221,"lng":139.280849},{"code":"13205001006","name":"東青梅６丁目","lat":35.79526,"lng":139.273758},{"code":"13205002001","name":"根ヶ布１丁目","lat":35.799264,"lng":139.266037},{"code":"13205002002","name":"根ヶ布２丁目","lat":35.804133,"lng":139.262643},{"code":"13205003001","name":"師岡町１丁目","lat":35.794021,"lng":139.279151},{"code":"13205003002","name":"師岡町２丁目","lat":35.79382,"lng":139.283442},{"code":"13205003003","name":"師岡町３丁目","lat":35.790237,"lng":139.284625},{"code":"13205003004","name":"師岡町４丁目","lat":35.787338,"lng":139.284226},{"code":"13205004001","name":"勝沼１丁目","lat":35.790702,"lng":139.269712},{"code":"13205004002","name":"勝沼２丁目","lat":35.794361,"lng":139.262326},{"code":"13205004003","name":"勝沼３丁目","lat":35.790693,"lng":139.266819},{"code":"13205005001","name":"西分町１丁目","lat":35.790134,"lng":139.264443},{"code":"13205005002","name":"西分町２丁目","lat":35.789762,"lng":139.262559},{"code":"13205005003","name":"西分町３丁目","lat":35.788349,"lng":139.267192},{"code":"13205007001","name":"日向和田１丁目","lat":35.788868,"lng":139.239157},{"code":"13205007002","name":"日向和田２丁目","lat":35.788284,"lng":139.234555},{"code":"13205007003","name":"日向和田３丁目","lat":35.785377,"lng":139.231106},{"code":"13205008001","name":"駒木町１丁目","lat":35.782796,"lng":139.258321},{"code":"13205008002","name":"駒木町２丁目","lat":35.774152,"lng":139.249601},{"code":"13205008003","name":"駒木町３丁目","lat":35.783047,"lng":139.252422},{"code":"13205009001","name":"長淵１丁目","lat":35.773154,"lng":139.278854},{"code":"13205009002","name":"長淵２丁目","lat":35.772161,"lng":139.271432},{"code":"13205009003","name":"長淵３丁目","lat":35.77934,"lng":139.276757},{"code":"13205009004","name":"長淵４丁目","lat":35.780282,"lng":139.272427},{"code":"13205009005","name":"長淵５丁目","lat":35.772428,"lng":139.2628},{"code":"13205009006","name":"長淵６丁目","lat":35.781244,"lng":139.267315},{"code":"13205009007","name":"長淵７丁目","lat":35.78263,"lng":139.262612},{"code":"13205009008","name":"長淵８丁目","lat":35.775389,"lng":139.258229},{"code":"13205009009","name":"長淵９丁目","lat":35.763895,"lng":139.266185},{"code":"13205010001","name":"友田町１丁目","lat":35.763056,"lng":139.28937},{"code":"13205010002","name":"友田町２丁目","lat":35.76972,"lng":139.292226},{"code":"13205010003","name":"友田町３丁目","lat":35.774033,"lng":139.288832},{"code":"13205010004","name":"友田町４丁目","lat":35.770847,"lng":139.287025},{"code":"13205010005","name":"友田町５丁目","lat":35.770812,"lng":139.282566},{"code":"13205012001","name":"河辺町１丁目","lat":35.777166,"lng":139.289211},{"code":"13205012002","name":"河辺町２丁目","lat":35.778126,"lng":139.283521},{"code":"13205012003","name":"河辺町３丁目","lat":35.780355,"lng":139.280945},{"code":"13205012004","name":"河辺町４丁目","lat":35.781434,"lng":139.28461},{"code":"13205012005","name":"河辺町５丁目","lat":35.782989,"lng":139.285899},{"code":"13205012006","name":"河辺町６丁目","lat":35.779475,"lng":139.292232},{"code":"13205012007","name":"河辺町７丁目","lat":35.781491,"lng":139.293754},{"code":"13205012008","name":"河辺町８丁目","lat":35.783704,"lng":139.295167},{"code":"13205012009","name":"河辺町９丁目","lat":35.784463,"lng":139.289707},{"code":"13205012010","name":"河辺町１０丁目","lat":35.785541,"lng":139.286523},{"code":"13205013001","name":"千ヶ瀬町１丁目","lat":35.783578,"lng":139.277701},{"code":"13205013002","name":"千ヶ瀬町２丁目","lat":35.78489,"lng":139.27392},{"code":"13205013003","name":"千ヶ瀬町３丁目","lat":35.783976,"lng":139.26916},{"code":"13205013004","name":"千ヶ瀬町４丁目","lat":35.78668,"lng":139.268814},{"code":"13205013005","name":"千ヶ瀬町５丁目","lat":35.785762,"lng":139.264324},{"code":"13205013006","name":"千ヶ瀬町６丁目","lat":35.786082,"lng":139.259409},{"code":"132050140","name":"吹上","lat":35.798994,"lng":139.278384},{"code":"13205016001","name":"野上町１丁目","lat":35.796059,"lng":139.286593},{"code":"13205016002","name":"野上町２丁目","lat":35.793429,"lng":139.289384},{"code":"13205016003","name":"野上町３丁目","lat":35.790021,"lng":139.289933},{"code":"13205016004","name":"野上町４丁目","lat":35.787325,"lng":139.289952},{"code":"13205018001","name":"大門１丁目","lat":35.799223,"lng":139.28794},{"code":"13205018002","name":"大門２丁目","lat":35.796667,"lng":139.293118},{"code":"13205018003","name":"大門３丁目","lat":35.793384,"lng":139.295234},{"code":"132050190","name":"塩船","lat":35.803886,"lng":139.28161},{"code":"132050200","name":"谷野","lat":35.805047,"lng":139.289335},{"code":"13205021001","name":"木野下１丁目","lat":35.808069,"lng":139.29736},{"code":"13205021002","name":"木野下２丁目","lat":35.806885,"lng":139.292787},{"code":"13205023001","name":"今寺１丁目","lat":35.801035,"lng":139.29456},{"code":"13205023002","name":"今寺２丁目","lat":35.802959,"lng":139.298015},{"code":"13205023003","name":"今寺３丁目","lat":35.798524,"lng":139.298679},{"code":"13205023004","name":"今寺４丁目","lat":35.796273,"lng":139.300394},{"code":"13205023005","name":"今寺５丁目","lat":35.793609,"lng":139.301983},{"code":"13205025001","name":"末広町１丁目","lat":35.778078,"lng":139.313243},{"code":"13205025002","name":"末広町２丁目","lat":35.779842,"lng":139.309221},{"code":"13205027001","name":"藤橋１丁目","lat":35.810251,"lng":139.302257},{"code":"13205027002","name":"藤橋２丁目","lat":35.802755,"lng":139.303265},{"code":"13205027003","name":"藤橋３丁目","lat":35.796636,"lng":139.306055},{"code":"13205029001","name":"今井１丁目","lat":35.816288,"lng":139.309667},{"code":"13205029002","name":"今井２丁目","lat":35.805569,"lng":139.31288},{"code":"13205029003","name":"今井３丁目","lat":35.797573,"lng":139.311271},{"code":"13205029004","name":"今井４丁目","lat":35.800238,"lng":139.317569},{"code":"13205029005","name":"今井５丁目","lat":35.792645,"lng":139.32497},{"code":"13205030001","name":"畑中１丁目","lat":35.782677,"lng":139.246598},{"code":"13205030002","name":"畑中２丁目","lat":35.781677,"lng":139.242497},{"code":"13205030003","name":"畑中３丁目","lat":35.776757,"lng":139.239055},{"code":"13205031001","name":"和田町１丁目","lat":35.772999,"lng":139.234102},{"code":"13205031002","name":"和田町２丁目","lat":35.777913,"lng":139.224491},{"code":"13205032001","name":"梅郷１丁目","lat":35.779033,"lng":139.215794},{"code":"13205032002","name":"梅郷２丁目","lat":35.784672,"lng":139.222305},{"code":"13205032003","name":"梅郷３丁目","lat":35.787412,"lng":139.225781},{"code":"13205032004","name":"梅郷４丁目","lat":35.785118,"lng":139.210957},{"code":"13205032005","name":"梅郷５丁目","lat":35.790973,"lng":139.224105},{"code":"13205032006","name":"梅郷６丁目","lat":35.790779,"lng":139.211512},{"code":"13205033001","name":"柚木町１丁目","lat":35.793517,"lng":139.20497},{"code":"13205033002","name":"柚木町２丁目","lat":35.796543,"lng":139.200324},{"code":"13205033003","name":"柚木町３丁目","lat":35.801246,"lng":139.197782},{"code":"13205034001","name":"二俣尾１丁目","lat":35.799205,"lng":139.230115},{"code":"13205034002","name":"二俣尾２丁目","lat":35.802195,"lng":139.223813},{"code":"13205034003","name":"二俣尾３丁目","lat":35.802191,"lng":139.220133},{"code":"13205034004","name":"二俣尾４丁目","lat":35.80803,"lng":139.217508},{"code":"13205034005","name":"二俣尾５丁目","lat":35.820381,"lng":139.198187},{"code":"13205035001","name":"沢井１丁目","lat":35.812109,"lng":139.198309},{"code":"13205035002","name":"沢井２丁目","lat":35.806738,"lng":139.195965},{"code":"13205035003","name":"沢井３丁目","lat":35.814597,"lng":139.183218},{"code":"132050360","name":"御岳本町","lat":35.806791,"lng":139.178717},{"code":"13205037001","name":"御岳１丁目","lat":35.795458,"lng":139.183684},{"code":"13205037002","name":"御岳２丁目","lat":35.790462,"lng":139.165071},{"code":"132050380","name":"御岳山","lat":35.781943,"lng":139.147786},{"code":"13205039001","name":"富岡１丁目","lat":35.829598,"lng":139.298042},{"code":"13205039002","name":"富岡２丁目","lat":35.833842,"lng":139.289915},{"code":"13205039003","name":"富岡３丁目","lat":35.828853,"lng":139.288214},{"code":"13205040001","name":"小曾木１丁目","lat":35.818764,"lng":139.297047},{"code":"13205040002","name":"小曾木２丁目","lat":35.811864,"lng":139.284596},{"code":"13205040003","name":"小曾木３丁目","lat":35.817927,"lng":139.272365},{"code":"13205040004","name":"小曾木４丁目","lat":35.821086,"lng":139.280643},{"code":"13205040005","name":"小曾木５丁目","lat":35.825335,"lng":139.284658},{"code":"13205041001","name":"黒沢１丁目","lat":35.815292,"lng":139.264047},{"code":"13205041002","name":"黒沢２丁目","lat":35.812295,"lng":139.256487},{"code":"13205041003","name":"黒沢３丁目","lat":35.801811,"lng":139.24649},{"code":"13205042001","name":"成木１丁目","lat":35.834994,"lng":139.279844},{"code":"13205042002","name":"成木２丁目","lat":35.833988,"lng":139.270751},{"code":"13205042003","name":"成木３丁目","lat":35.831544,"lng":139.258464},{"code":"13205042004","name":"成木４丁目","lat":35.82451,"lng":139.254105},{"code":"13205042005","name":"成木５丁目","lat":35.83032,"lng":139.240332},{"code":"13205042006","name":"成木６丁目","lat":35.833638,"lng":139.224815},{"code":"13205042007","name":"成木７丁目","lat":35.838149,"lng":139.192772},{"code":"13205042008","name":"成木８丁目","lat":35.819885,"lng":139.225901},{"code":"132050440","name":"住江町","lat":35.789796,"lng":139.26132},{"code":"132050450","name":"本町","lat":35.790913,"lng":139.259341},{"code":"132050460","name":"仲町","lat":35.791459,"lng":139.256384},{"code":"132050470","name":"上町","lat":35.7911,"lng":139.254108},{"code":"132050480","name":"森下町","lat":35.791523,"lng":139.251376},{"code":"132050490","name":"裏宿町","lat":35.79108,"lng":139.244233},{"code":"132050500","name":"天ヶ瀬町","lat":35.788254,"lng":139.249681},{"code":"132050510","name":"滝ノ上町","lat":35.78792,"lng":139.255675},{"code":"132050520","name":"大柳町","lat":35.785902,"lng":139.250698},{"code":"13205053001","name":"新町１丁目","lat":35.788176,"lng":139.295964},{"code":"13205053002","name":"新町２丁目","lat":35.788218,"lng":139.301202},{"code":"13205053003","name":"新町３丁目","lat":35.781433,"lng":139.30287},{"code":"13205053004","name":"新町４丁目","lat":35.784863,"lng":139.306016},{"code":"13205053005","name":"新町５丁目","lat":35.789563,"lng":139.306782},{"code":"13205053006","name":"新町６丁目","lat":35.79174,"lng":139.316022},{"code":"13205053007","name":"新町７丁目","lat":35.786539,"lng":139.314265},{"code":"13205053008","name":"新町８丁目","lat":35.782791,"lng":139.312739},{"code":"13205053009","name":"新町９丁目","lat":35.782677,"lng":139.319687}]}
