{"municipality":"14107","name":"横浜市磯子区","prefecture":"神奈川県","source":{"dataset":"frogcat/japan-small-area","census":"平成27年国勢調査 小地域（e-Stat 統計LOD）","license":"MIT（リポジトリ）／政府統計の総合窓口(e-Stat)の利用規約（元データ・出典表記必要）","fetched":"2026-07-06"},"towns":[{"code":"141070010","name":"東町","lat":35.417278,"lng":139.63635},{"code":"141070020","name":"西町","lat":35.416383,"lng":139.63229},{"code":"141070030","name":"鳳町","lat":35.412343,"lng":139.636136},{"code":"141070040","name":"原町","lat":35.414838,"lng":139.6291},{"code":"141070050","name":"下町","lat":35.41864,"lng":139.629659},{"code":"141070060","name":"坂下町","lat":35.420055,"lng":139.628234},{"code":"141070070","name":"馬場町","lat":35.422138,"lng":139.627519},{"code":"141070080","name":"上町","lat":35.425407,"lng":139.626207},{"code":"14107009001","name":"丸山一丁目","lat":35.424539,"lng":139.62038},{"code":"14107009002","name":"丸山二丁目","lat":35.422061,"lng":139.622905},{"code":"14107011001","name":"滝頭一丁目","lat":35.42184,"lng":139.616382},{"code":"14107011002","name":"滝頭二丁目","lat":35.420288,"lng":139.620915},{"code":"14107011003","name":"滝頭三丁目","lat":35.418784,"lng":139.62493},{"code":"141070140","name":"中浜町","lat":35.415501,"lng":139.625513},{"code":"14107015001","name":"岡村一丁目","lat":35.4156,"lng":139.618071},{"code":"14107015002","name":"岡村二丁目","lat":35.416275,"lng":139.614462},{"code":"14107015003","name":"岡村三丁目","lat":35.419567,"lng":139.6155},{"code":"14107015004","name":"岡村四丁目","lat":35.419326,"lng":139.610217},{"code":"14107015005","name":"岡村五丁目","lat":35.414527,"lng":139.607806},{"code":"14107015006","name":"岡村六丁目","lat":35.414804,"lng":139.610636},{"code":"14107015007","name":"岡村七丁目","lat":35.412244,"lng":139.612727},{"code":"14107015008","name":"岡村八丁目","lat":35.409314,"lng":139.608586},{"code":"141070230","name":"広地町","lat":35.418118,"lng":139.62239},{"code":"141070240","name":"久木町","lat":35.413931,"lng":139.622612},{"code":"14107025001","name":"磯子一丁目","lat":35.411771,"lng":139.627276},{"code":"14107025002","name":"磯子二丁目","lat":35.409109,"lng":139.622944},{"code":"14107025003","name":"磯子三丁目","lat":35.403312,"lng":139.618636},{"code":"14107025004","name":"磯子四丁目","lat":35.407052,"lng":139.61808},{"code":"14107025005","name":"磯子五丁目","lat":35.407789,"lng":139.615541},{"code":"14107025006","name":"磯子六丁目","lat":35.409696,"lng":139.614717},{"code":"14107025007","name":"磯子七丁目","lat":35.412004,"lng":139.618961},{"code":"14107025008","name":"磯子八丁目","lat":35.415425,"lng":139.6202},{"code":"141070330","name":"磯子台","lat":35.403934,"lng":139.614687},{"code":"141070340","name":"新磯子町","lat":35.403797,"lng":139.631424},{"code":"14107035001","name":"汐見台１丁目","lat":35.404314,"lng":139.609723},{"code":"14107035002","name":"汐見台２丁目","lat":35.399427,"lng":139.609811},{"code":"14107035003","name":"汐見台３丁目","lat":35.400797,"lng":139.605085},{"code":"14107035012","name":"汐見台２丁目","lat":35.401276,"lng":139.610489},{"code":"14107038001","name":"森一丁目","lat":35.398449,"lng":139.616352},{"code":"14107038002","name":"森二丁目","lat":35.397701,"lng":139.612805},{"code":"14107038003","name":"森三丁目","lat":35.393439,"lng":139.61359},{"code":"14107038004","name":"森四丁目","lat":35.395499,"lng":139.606543},{"code":"14107038005","name":"森五丁目","lat":35.392153,"lng":139.606831},{"code":"14107038006","name":"森六丁目","lat":35.389537,"lng":139.609198},{"code":"14107044001","name":"森が丘一丁目","lat":35.400509,"lng":139.602156},{"code":"14107044002","name":"森が丘二丁目","lat":35.399094,"lng":139.600674},{"code":"141070460","name":"新森町","lat":35.397783,"lng":139.620178},{"code":"14107047001","name":"中原一丁目","lat":35.390198,"lng":139.615318},{"code":"14107047002","name":"中原二丁目","lat":35.387283,"lng":139.616213},{"code":"14107047003","name":"中原三丁目","lat":35.387715,"lng":139.611583},{"code":"14107047004","name":"中原四丁目","lat":35.384649,"lng":139.612963},{"code":"141070510","name":"新中原町","lat":35.392847,"lng":139.619569},{"code":"141070520","name":"杉田坪呑","lat":35.37668,"lng":139.614072},{"code":"14107053001","name":"杉田一丁目","lat":35.384709,"lng":139.617566},{"code":"14107053002","name":"杉田二丁目","lat":35.381493,"lng":139.61064},{"code":"14107053003","name":"杉田三丁目","lat":35.379757,"lng":139.613769},{"code":"14107053004","name":"杉田四丁目","lat":35.382404,"lng":139.619223},{"code":"14107053005","name":"杉田五丁目","lat":35.381587,"lng":139.623359},{"code":"14107053006","name":"杉田六丁目","lat":35.375923,"lng":139.61886},{"code":"14107053007","name":"杉田七丁目","lat":35.373761,"lng":139.617354},{"code":"14107053008","name":"杉田八丁目","lat":35.372419,"lng":139.614727},{"code":"14107053009","name":"杉田九丁目","lat":35.368779,"lng":139.615955},{"code":"141070620","name":"新杉田町","lat":35.389334,"lng":139.627106},{"code":"14107063001","name":"栗木一丁目","lat":35.383047,"lng":139.607913},{"code":"14107063002","name":"栗木二丁目","lat":35.380207,"lng":139.604884},{"code":"14107063003","name":"栗木三丁目","lat":35.376427,"lng":139.60692},{"code":"14107066001","name":"田中一丁目","lat":35.38536,"lng":139.605498},{"code":"14107066002","name":"田中二丁目","lat":35.382561,"lng":139.601584},{"code":"141070680","name":"上中里町","lat":35.370189,"lng":139.608617},{"code":"141070690","name":"氷取沢町","lat":35.360094,"lng":139.601331},{"code":"141070700","name":"峰町","lat":35.364977,"lng":139.598421},{"code":"14107071001","name":"洋光台一丁目","lat":35.385961,"lng":139.598199},{"code":"14107071002","name":"洋光台二丁目","lat":35.383836,"lng":139.591887},{"code":"14107071003","name":"洋光台三丁目","lat":35.380863,"lng":139.5966},{"code":"14107071004","name":"洋光台四丁目","lat":35.377077,"lng":139.600252},{"code":"14107071005","name":"洋光台五丁目","lat":35.375413,"lng":139.593452},{"code":"14107071006","name":"洋光台六丁目","lat":35.371715,"lng":139.599311}]}
