{"municipality":"14101","name":"横浜市鶴見区","prefecture":"神奈川県","source":{"dataset":"frogcat/japan-small-area","census":"平成27年国勢調査 小地域（e-Stat 統計LOD）","license":"MIT（リポジトリ）／政府統計の総合窓口(e-Stat)の利用規約（元データ・出典表記必要）","fetched":"2026-07-06"},"towns":[{"code":"141010010","name":"大黒町","lat":35.479432,"lng":139.674498},{"code":"14101003001","name":"生麦一丁目","lat":35.49086,"lng":139.665278},{"code":"14101003002","name":"生麦二丁目","lat":35.492251,"lng":139.672873},{"code":"14101003003","name":"生麦三丁目","lat":35.494562,"lng":139.66912},{"code":"14101003004","name":"生麦四丁目","lat":35.496595,"lng":139.672151},{"code":"14101003005","name":"生麦五丁目","lat":35.499484,"lng":139.674247},{"code":"14101008001","name":"岸谷一丁目","lat":35.495144,"lng":139.663601},{"code":"14101008002","name":"岸谷二丁目","lat":35.495493,"lng":139.66097},{"code":"14101008003","name":"岸谷三丁目","lat":35.501072,"lng":139.665159},{"code":"14101008004","name":"岸谷四丁目","lat":35.499057,"lng":139.66817},{"code":"14101012001","name":"鶴見一丁目","lat":35.502513,"lng":139.671238},{"code":"14101012002","name":"鶴見二丁目","lat":35.506496,"lng":139.670395},{"code":"14101014001","name":"寺谷一丁目","lat":35.511126,"lng":139.668933},{"code":"14101014002","name":"寺谷二丁目","lat":35.513075,"lng":139.670682},{"code":"141010160","name":"諏訪坂","lat":35.515808,"lng":139.66847},{"code":"141010170","name":"豊岡町","lat":35.510036,"lng":139.674323},{"code":"141010180","name":"佃野町","lat":35.514907,"lng":139.674599},{"code":"14101019001","name":"馬場一丁目","lat":35.506124,"lng":139.64504},{"code":"14101019002","name":"馬場二丁目","lat":35.508664,"lng":139.649471},{"code":"14101019003","name":"馬場三丁目","lat":35.506797,"lng":139.653088},{"code":"14101019004","name":"馬場四丁目","lat":35.508826,"lng":139.657771},{"code":"14101019005","name":"馬場五丁目","lat":35.511725,"lng":139.655347},{"code":"14101019006","name":"馬場六丁目","lat":35.511601,"lng":139.651972},{"code":"14101019007","name":"馬場七丁目","lat":35.508689,"lng":139.643058},{"code":"14101026001","name":"北寺尾一丁目","lat":35.513652,"lng":139.661163},{"code":"14101026002","name":"北寺尾二丁目","lat":35.51577,"lng":139.66343},{"code":"14101026003","name":"北寺尾三丁目","lat":35.518708,"lng":139.659037},{"code":"14101026004","name":"北寺尾四丁目","lat":35.516088,"lng":139.657061},{"code":"14101026005","name":"北寺尾五丁目","lat":35.514144,"lng":139.653256},{"code":"14101026006","name":"北寺尾六丁目","lat":35.513211,"lng":139.64794},{"code":"14101026007","name":"北寺尾七丁目","lat":35.513659,"lng":139.644012},{"code":"14101033101","name":"獅子ケ谷一丁目","lat":35.518298,"lng":139.652443},{"code":"14101033102","name":"獅子ケ谷二丁目","lat":35.520378,"lng":139.647484},{"code":"14101033103","name":"獅子ケ谷三丁目","lat":35.519073,"lng":139.64306},{"code":"14101034101","name":"駒岡一丁目","lat":35.523065,"lng":139.653198},{"code":"14101034102","name":"駒岡二丁目","lat":35.528277,"lng":139.649871},{"code":"14101034103","name":"駒岡三丁目","lat":35.52952,"lng":139.656038},{"code":"14101034104","name":"駒岡四丁目","lat":35.534852,"lng":139.656277},{"code":"14101034105","name":"駒岡五丁目","lat":35.534613,"lng":139.650942},{"code":"14101035001","name":"上末吉一丁目","lat":35.525729,"lng":139.667338},{"code":"14101035002","name":"上末吉二丁目","lat":35.527155,"lng":139.671836},{"code":"14101035003","name":"上末吉三丁目","lat":35.529819,"lng":139.669427},{"code":"14101035004","name":"上末吉四丁目","lat":35.529085,"lng":139.666233},{"code":"14101035005","name":"上末吉五丁目","lat":35.533053,"lng":139.66399},{"code":"14101040001","name":"下末吉一丁目","lat":35.518554,"lng":139.671107},{"code":"14101040002","name":"下末吉二丁目","lat":35.519811,"lng":139.674814},{"code":"14101040003","name":"下末吉三丁目","lat":35.524213,"lng":139.673601},{"code":"14101040004","name":"下末吉四丁目","lat":35.522393,"lng":139.670461},{"code":"14101040005","name":"下末吉五丁目","lat":35.518868,"lng":139.666584},{"code":"14101040006","name":"下末吉六丁目","lat":35.521342,"lng":139.665159},{"code":"14101046001","name":"梶山一丁目","lat":35.526925,"lng":139.662584},{"code":"14101046002","name":"梶山二丁目","lat":35.52851,"lng":139.659406},{"code":"141010480","name":"三ツ池公園","lat":35.522928,"lng":139.66088},{"code":"141010490","name":"江ケ崎町","lat":35.534239,"lng":139.673013},{"code":"14101050001","name":"矢向一丁目","lat":35.528671,"lng":139.675963},{"code":"14101050002","name":"矢向二丁目","lat":35.528676,"lng":139.680434},{"code":"14101050003","name":"矢向三丁目","lat":35.534569,"lng":139.679235},{"code":"14101050004","name":"矢向四丁目","lat":35.533446,"lng":139.682656},{"code":"14101050005","name":"矢向五丁目","lat":35.538354,"lng":139.682984},{"code":"14101050006","name":"矢向六丁目","lat":35.538494,"lng":139.678585},{"code":"141010560","name":"市場上町","lat":35.520953,"lng":139.68701},{"code":"141010570","name":"市場東中町","lat":35.519018,"lng":139.685214},{"code":"141010580","name":"市場西中町","lat":35.517681,"lng":139.684258},{"code":"141010590","name":"市場下町","lat":35.515986,"lng":139.681855},{"code":"141010600","name":"市場大和町","lat":35.517539,"lng":139.687435},{"code":"141010610","name":"市場富士見町","lat":35.516392,"lng":139.688651},{"code":"14101062001","name":"尻手一丁目","lat":35.524984,"lng":139.68638},{"code":"14101062002","name":"尻手二丁目","lat":35.526396,"lng":139.683858},{"code":"14101062003","name":"尻手三丁目","lat":35.528328,"lng":139.682777},{"code":"141010650","name":"菅沢町","lat":35.514052,"lng":139.68701},{"code":"14101066001","name":"栄町通一丁目","lat":35.507651,"lng":139.690059},{"code":"14101066002","name":"栄町通二丁目","lat":35.50921,"lng":139.690298},{"code":"14101066003","name":"栄町通三丁目","lat":35.511179,"lng":139.689522},{"code":"14101066004","name":"栄町通四丁目","lat":35.512919,"lng":139.689247},{"code":"14101070001","name":"平安町一丁目","lat":35.516391,"lng":139.691353},{"code":"14101070002","name":"平安町二丁目","lat":35.509809,"lng":139.693552},{"code":"14101072001","name":"向井町一丁目","lat":35.505756,"lng":139.685803},{"code":"14101072002","name":"向井町二丁目","lat":35.505485,"lng":139.687767},{"code":"14101072003","name":"向井町三丁目","lat":35.505433,"lng":139.690198},{"code":"14101072004","name":"向井町四丁目","lat":35.505392,"lng":139.692345},{"code":"141010760","name":"大東町","lat":35.504563,"lng":139.694933},{"code":"14101077001","name":"潮田町一丁目","lat":35.5044,"lng":139.68257},{"code":"14101077002","name":"潮田町二丁目","lat":35.503492,"lng":139.686265},{"code":"14101077003","name":"潮田町三丁目","lat":35.503204,"lng":139.689692},{"code":"14101077004","name":"潮田町四丁目","lat":35.50308,"lng":139.692777},{"code":"14101081001","name":"本町通一丁目","lat":35.502685,"lng":139.680418},{"code":"14101081002","name":"本町通二丁目","lat":35.502248,"lng":139.682777},{"code":"14101081003","name":"本町通三丁目","lat":35.501501,"lng":139.684016},{"code":"14101081004","name":"本町通四丁目","lat":35.499931,"lng":139.685309},{"code":"14101085001","name":"仲通一丁目","lat":35.501643,"lng":139.686317},{"code":"14101085002","name":"仲通二丁目","lat":35.501505,"lng":139.689006},{"code":"14101085003","name":"仲通三丁目","lat":35.50084,"lng":139.69144},{"code":"14101088001","name":"浜町一丁目","lat":35.501494,"lng":139.693364},{"code":"14101088002","name":"浜町二丁目","lat":35.50025,"lng":139.693898},{"code":"14101090001","name":"朝日町一丁目","lat":35.50214,"lng":139.696705},{"code":"14101090002","name":"朝日町二丁目","lat":35.504602,"lng":139.697398},{"code":"141010920","name":"寛政町","lat":35.501161,"lng":139.700138},{"code":"141010930","name":"弁天町","lat":35.497824,"lng":139.692054},{"code":"14101094001","name":"汐入町一丁目","lat":35.498178,"lng":139.686226},{"code":"14101094002","name":"汐入町二丁目","lat":35.499264,"lng":139.688016},{"code":"14101094003","name":"汐入町三丁目","lat":35.499459,"lng":139.690108},{"code":"14101097001","name":"下野谷町一丁目","lat":35.50078,"lng":139.67934},{"code":"14101097002","name":"下野谷町二丁目","lat":35.499644,"lng":139.680981},{"code":"14101097003","name":"下野谷町三丁目","lat":35.498937,"lng":139.681981},{"code":"14101097004","name":"下野谷町四丁目","lat":35.498357,"lng":139.683692},{"code":"141011010","name":"小野町","lat":35.496673,"lng":139.68246},{"code":"14101102001","name":"末広町一丁目","lat":35.487333,"lng":139.685411},{"code":"14101102002","name":"末広町二丁目","lat":35.491476,"lng":139.695764},{"code":"14101104001","name":"安善町一丁目","lat":35.497484,"lng":139.701949},{"code":"14101104002","name":"安善町二丁目","lat":35.491906,"lng":139.705747},{"code":"141011060","name":"扇島","lat":35.475279,"lng":139.713155},{"code":"14101107001","name":"元宮一丁目","lat":35.522293,"lng":139.682708},{"code":"14101107002","name":"元宮二丁目","lat":35.520392,"lng":139.678849},{"code":"14101109001","name":"東寺尾一丁目","lat":35.502803,"lng":139.649591},{"code":"14101109002","name":"東寺尾二丁目","lat":35.503041,"lng":139.655944},{"code":"14101109003","name":"東寺尾三丁目","lat":35.499582,"lng":139.656194},{"code":"14101109004","name":"東寺尾四丁目","lat":35.497736,"lng":139.659611},{"code":"14101109005","name":"東寺尾五丁目","lat":35.50248,"lng":139.659404},{"code":"14101109006","name":"東寺尾六丁目","lat":35.507579,"lng":139.660714},{"code":"141011150","name":"東寺尾東台","lat":35.503761,"lng":139.665133},{"code":"141011160","name":"東寺尾中台","lat":35.507986,"lng":139.664729},{"code":"141011170","name":"東寺尾北台","lat":35.51252,"lng":139.665265},{"code":"14101118001","name":"上の宮一丁目","lat":35.510993,"lng":139.639368},{"code":"14101118002","name":"上の宮二丁目","lat":35.514391,"lng":139.638584},{"code":"14101120001","name":"鶴見中央一丁目","lat":35.508616,"lng":139.677556},{"code":"14101120002","name":"鶴見中央二丁目","lat":35.51245,"lng":139.680168},{"code":"14101120003","name":"鶴見中央三丁目","lat":35.509638,"lng":139.684772},{"code":"14101120004","name":"鶴見中央四丁目","lat":35.506595,"lng":139.680412},{"code":"14101120005","name":"鶴見中央五丁目","lat":35.503384,"lng":139.676675},{"code":"141011240","name":"大黒ふ頭","lat":35.461048,"lng":139.687457}]}
