{"municipality":"14207","name":"茅ヶ崎市","prefecture":"神奈川県","source":{"dataset":"frogcat/japan-small-area","census":"平成27年国勢調査 小地域（e-Stat 統計LOD）","license":"MIT（リポジトリ）／政府統計の総合窓口(e-Stat)の利用規約（元データ・出典表記必要）","fetched":"2026-07-06"},"towns":[{"code":"14207001000","name":"茅ヶ崎","lat":35.339351,"lng":139.407938},{"code":"14207001001","name":"茅ヶ崎１丁目","lat":35.333621,"lng":139.40254},{"code":"14207001002","name":"茅ヶ崎２丁目","lat":35.335163,"lng":139.407347},{"code":"14207001003","name":"茅ヶ崎３丁目","lat":35.338243,"lng":139.404841},{"code":"14207005001","name":"本村１丁目","lat":35.334191,"lng":139.412896},{"code":"14207005002","name":"本村２丁目","lat":35.335733,"lng":139.418314},{"code":"14207005003","name":"本村３丁目","lat":35.338227,"lng":139.419042},{"code":"14207005004","name":"本村４丁目","lat":35.336989,"lng":139.411913},{"code":"14207005005","name":"本村５丁目","lat":35.339617,"lng":139.414419},{"code":"142070100","name":"元町","lat":35.332392,"lng":139.408302},{"code":"142070110","name":"若松町","lat":35.333181,"lng":139.418895},{"code":"142070120","name":"幸町","lat":35.33052,"lng":139.410315},{"code":"142070130","name":"新栄町","lat":35.330928,"lng":139.404113},{"code":"14207014001","name":"十間坂１丁目","lat":35.32978,"lng":139.400495},{"code":"14207014002","name":"十間坂２丁目","lat":35.328549,"lng":139.39674},{"code":"14207014003","name":"十間坂３丁目","lat":35.331246,"lng":139.397754},{"code":"14207017001","name":"共恵１丁目","lat":35.327964,"lng":139.402524},{"code":"14207017002","name":"共恵２丁目","lat":35.325765,"lng":139.400871},{"code":"14207019001","name":"南湖１丁目","lat":35.328743,"lng":139.392103},{"code":"14207019002","name":"南湖２丁目","lat":35.326336,"lng":139.391613},{"code":"14207019003","name":"南湖３丁目","lat":35.325761,"lng":139.396318},{"code":"14207019004","name":"南湖４丁目","lat":35.320973,"lng":139.395768},{"code":"14207019005","name":"南湖５丁目","lat":35.322234,"lng":139.39067},{"code":"14207019006","name":"南湖６丁目","lat":35.318469,"lng":139.393188},{"code":"14207019007","name":"南湖７丁目","lat":35.318427,"lng":139.388674},{"code":"14207026001","name":"中海岸１丁目","lat":35.32575,"lng":139.40406},{"code":"14207026002","name":"中海岸２丁目","lat":35.323072,"lng":139.402894},{"code":"14207026003","name":"中海岸３丁目","lat":35.319754,"lng":139.402848},{"code":"14207026004","name":"中海岸４丁目","lat":35.321666,"lng":139.398657},{"code":"14207030001","name":"東海岸北１丁目","lat":35.326141,"lng":139.406831},{"code":"14207030002","name":"東海岸北２丁目","lat":35.32626,"lng":139.411246},{"code":"14207030003","name":"東海岸北３丁目","lat":35.328874,"lng":139.41241},{"code":"14207030004","name":"東海岸北４丁目","lat":35.330116,"lng":139.417416},{"code":"14207030005","name":"東海岸北５丁目","lat":35.326642,"lng":139.417906},{"code":"14207035001","name":"東海岸南１丁目","lat":35.321551,"lng":139.406987},{"code":"14207035002","name":"東海岸南２丁目","lat":35.323598,"lng":139.411945},{"code":"14207035003","name":"東海岸南３丁目","lat":35.320016,"lng":139.409626},{"code":"14207035004","name":"東海岸南４丁目","lat":35.319689,"lng":139.413186},{"code":"14207035005","name":"東海岸南５丁目","lat":35.323573,"lng":139.41721},{"code":"14207035006","name":"東海岸南６丁目","lat":35.31979,"lng":139.417061},{"code":"142070410","name":"萩園","lat":35.345105,"lng":139.379667},{"code":"142070420","name":"平太夫新田","lat":35.341633,"lng":139.371578},{"code":"142070430","name":"西久保","lat":35.348349,"lng":139.394421},{"code":"14207044000","name":"円蔵","lat":35.345477,"lng":139.400499},{"code":"14207044001","name":"円蔵１丁目","lat":35.343934,"lng":139.409158},{"code":"14207044002","name":"円蔵２丁目","lat":35.345246,"lng":139.40594},{"code":"142070470","name":"鶴が台","lat":35.348465,"lng":139.407281},{"code":"142070480","name":"矢畑","lat":35.338218,"lng":139.397644},{"code":"142070490","name":"浜之郷","lat":35.337967,"lng":139.391443},{"code":"14207050001","name":"下町屋１丁目","lat":35.330433,"lng":139.386198},{"code":"14207050002","name":"下町屋２丁目","lat":35.332903,"lng":139.388097},{"code":"14207050003","name":"下町屋３丁目","lat":35.335663,"lng":139.388448},{"code":"142070530","name":"今宿","lat":35.335425,"lng":139.381433},{"code":"142070540","name":"中島","lat":35.328884,"lng":139.374823},{"code":"142070550","name":"松尾","lat":35.326812,"lng":139.386046},{"code":"14207058000","name":"柳島","lat":35.319464,"lng":139.377949},{"code":"14207058001","name":"柳島１丁目","lat":35.325725,"lng":139.383648},{"code":"14207058002","name":"柳島２丁目","lat":35.325067,"lng":139.380835},{"code":"142070590","name":"柳島海岸","lat":35.319045,"lng":139.3841},{"code":"142070600","name":"浜見平","lat":35.323135,"lng":139.386754},{"code":"14207061100","name":"香川","lat":35.360554,"lng":139.407311},{"code":"14207061101","name":"香川１丁目","lat":35.352284,"lng":139.406098},{"code":"14207061102","name":"香川２丁目","lat":35.356104,"lng":139.406008},{"code":"14207061103","name":"香川３丁目","lat":35.353757,"lng":139.402064},{"code":"14207061104","name":"香川４丁目","lat":35.353743,"lng":139.398302},{"code":"14207061105","name":"香川５丁目","lat":35.358218,"lng":139.397906},{"code":"14207061106","name":"香川６丁目","lat":35.357911,"lng":139.401204},{"code":"14207061107","name":"香川７丁目","lat":35.360712,"lng":139.402462},{"code":"142070620","name":"松風台","lat":35.356516,"lng":139.409294},{"code":"142070630","name":"甘沼","lat":35.354287,"lng":139.417117},{"code":"142070640","name":"赤羽根","lat":35.351509,"lng":139.430271},{"code":"14207065001","name":"高田１丁目","lat":35.347659,"lng":139.416315},{"code":"14207065002","name":"高田２丁目","lat":35.345856,"lng":139.416359},{"code":"14207065003","name":"高田３丁目","lat":35.342796,"lng":139.416484},{"code":"14207065004","name":"高田４丁目","lat":35.343001,"lng":139.413529},{"code":"14207065005","name":"高田５丁目","lat":35.343925,"lng":139.411422},{"code":"14207070001","name":"室田１丁目","lat":35.345325,"lng":139.422065},{"code":"14207070002","name":"室田２丁目","lat":35.343113,"lng":139.419804},{"code":"14207070003","name":"室田３丁目","lat":35.340972,"lng":139.420837},{"code":"14207073001","name":"小和田１丁目","lat":35.339208,"lng":139.429763},{"code":"14207073002","name":"小和田２丁目","lat":35.340226,"lng":139.434173},{"code":"14207073003","name":"小和田３丁目","lat":35.344252,"lng":139.439247},{"code":"14207076001","name":"菱沼１丁目","lat":35.344994,"lng":139.430456},{"code":"14207076002","name":"菱沼２丁目","lat":35.342363,"lng":139.43125},{"code":"14207076003","name":"菱沼３丁目","lat":35.343987,"lng":139.435523},{"code":"14207079001","name":"松林１丁目","lat":35.338757,"lng":139.425119},{"code":"14207079002","name":"松林２丁目","lat":35.341439,"lng":139.425463},{"code":"14207079003","name":"松林３丁目","lat":35.344529,"lng":139.425234},{"code":"142070820","name":"小桜町","lat":35.336648,"lng":139.426955},{"code":"142070830","name":"代官町","lat":35.337604,"lng":139.435205},{"code":"142070840","name":"本宿町","lat":35.338398,"lng":139.439071},{"code":"142070850","name":"赤松町","lat":35.340796,"lng":139.441578},{"code":"14207086001","name":"浜竹１丁目","lat":35.334597,"lng":139.434748},{"code":"14207086002","name":"浜竹２丁目","lat":35.334846,"lng":139.438661},{"code":"14207086003","name":"浜竹３丁目","lat":35.334017,"lng":139.44152},{"code":"14207086004","name":"浜竹４丁目","lat":35.329943,"lng":139.440199},{"code":"142070900","name":"出口町","lat":35.33436,"lng":139.43002},{"code":"142070910","name":"ひばりが丘","lat":35.334419,"lng":139.424858},{"code":"142070920","name":"旭が丘","lat":35.331488,"lng":139.423074},{"code":"142070930","name":"美住町","lat":35.330821,"lng":139.429151},{"code":"14207094001","name":"松浪１丁目","lat":35.331568,"lng":139.435137},{"code":"14207094002","name":"松浪２丁目","lat":35.328971,"lng":139.435111},{"code":"142070960","name":"常盤町","lat":35.325726,"lng":139.438904},{"code":"142070970","name":"富士見町","lat":35.325972,"lng":139.434174},{"code":"142070980","name":"平和町","lat":35.32696,"lng":139.428701},{"code":"14207099001","name":"松が丘１丁目","lat":35.326908,"lng":139.421573},{"code":"14207099002","name":"松が丘２丁目","lat":35.327111,"lng":139.424978},{"code":"142071010","name":"菱沼海岸","lat":35.32058,"lng":139.420428},{"code":"142071020","name":"白浜町","lat":35.321015,"lng":139.425149},{"code":"142071030","name":"浜須賀","lat":35.322717,"lng":139.430121},{"code":"142071040","name":"緑が浜","lat":35.322946,"lng":139.43434},{"code":"142071050","name":"汐見台","lat":35.321237,"lng":139.436516},{"code":"142071060","name":"行谷","lat":35.370835,"lng":139.411225},{"code":"142071070","name":"芹沢","lat":35.377759,"lng":139.419529},{"code":"142071080","name":"堤","lat":35.363926,"lng":139.424903},{"code":"142071090","name":"下寺尾","lat":35.365231,"lng":139.405061},{"code":"14207110001","name":"みずき１丁目","lat":35.361404,"lng":139.399185},{"code":"14207110002","name":"みずき２丁目","lat":35.363083,"lng":139.402575},{"code":"14207110003","name":"みずき３丁目","lat":35.363576,"lng":139.405632},{"code":"14207110004","name":"みずき４丁目","lat":35.359145,"lng":139.405048}]}
