{"municipality":"14216","name":"座間市","prefecture":"神奈川県","source":{"dataset":"frogcat/japan-small-area","census":"平成27年国勢調査 小地域（e-Stat 統計LOD）","license":"MIT（リポジトリ）／政府統計の総合窓口(e-Stat)の利用規約（元データ・出典表記必要）","fetched":"2026-07-06"},"towns":[{"code":"14216030101","name":"栗原中央１丁目","lat":35.48744,"lng":139.41452},{"code":"14216030102","name":"栗原中央２丁目","lat":35.48369,"lng":139.413986},{"code":"14216030103","name":"栗原中央３丁目","lat":35.481232,"lng":139.415566},{"code":"14216030104","name":"栗原中央４丁目","lat":35.478661,"lng":139.415669},{"code":"14216030105","name":"栗原中央５丁目","lat":35.480612,"lng":139.420509},{"code":"14216030106","name":"栗原中央６丁目","lat":35.484376,"lng":139.417313},{"code":"14216030201","name":"西栗原１丁目","lat":35.476025,"lng":139.413176},{"code":"14216030202","name":"西栗原２丁目","lat":35.473404,"lng":139.410492},{"code":"14216030300","name":"栗原","lat":35.491394,"lng":139.419859},{"code":"14216030301","name":"栗原","lat":35.491488,"lng":139.42027},{"code":"14216040001","name":"相模が丘１丁目","lat":35.511422,"lng":139.417702},{"code":"14216040002","name":"相模が丘２丁目","lat":35.509904,"lng":139.419603},{"code":"14216040003","name":"相模が丘３丁目","lat":35.507837,"lng":139.421625},{"code":"14216040004","name":"相模が丘４丁目","lat":35.504509,"lng":139.424497},{"code":"14216040005","name":"相模が丘５丁目","lat":35.511068,"lng":139.425118},{"code":"14216040006","name":"相模が丘６丁目","lat":35.505264,"lng":139.428397},{"code":"142160500","name":"四ツ谷","lat":35.473545,"lng":139.385986},{"code":"142160600","name":"新田宿","lat":35.482975,"lng":139.379933},{"code":"14216070001","name":"立野台１丁目","lat":35.483179,"lng":139.411018},{"code":"14216070002","name":"立野台２丁目","lat":35.480984,"lng":139.409546},{"code":"14216070003","name":"立野台３丁目","lat":35.476964,"lng":139.409988},{"code":"14216080001","name":"緑ケ丘１丁目","lat":35.487479,"lng":139.409005},{"code":"14216080002","name":"緑ケ丘２丁目","lat":35.489657,"lng":139.410071},{"code":"14216080003","name":"緑ケ丘３丁目","lat":35.494422,"lng":139.411248},{"code":"14216080004","name":"緑ケ丘４丁目","lat":35.494544,"lng":139.407824},{"code":"14216080005","name":"緑ケ丘５丁目","lat":35.493052,"lng":139.405207},{"code":"14216080006","name":"緑ケ丘６丁目","lat":35.49487,"lng":139.403364},{"code":"142160900","name":"明王","lat":35.491196,"lng":139.402984},{"code":"14216100001","name":"広野台１丁目","lat":35.505087,"lng":139.417795},{"code":"14216100002","name":"広野台２丁目","lat":35.498997,"lng":139.422717},{"code":"14216110001","name":"小松原１丁目","lat":35.498685,"lng":139.428734},{"code":"14216110002","name":"小松原２丁目","lat":35.494378,"lng":139.430714},{"code":"14216120001","name":"座間１丁目","lat":35.490086,"lng":139.388299},{"code":"14216120002","name":"座間２丁目","lat":35.483707,"lng":139.388717},{"code":"14216130001","name":"相武台１丁目","lat":35.501303,"lng":139.40892},{"code":"14216130002","name":"相武台２丁目","lat":35.503357,"lng":139.414112},{"code":"14216130003","name":"相武台３丁目","lat":35.50038,"lng":139.414085},{"code":"14216130004","name":"相武台４丁目","lat":35.497876,"lng":139.41143},{"code":"14216140001","name":"入谷１丁目","lat":35.48496,"lng":139.395006},{"code":"14216140002","name":"入谷２丁目","lat":35.476882,"lng":139.394238},{"code":"14216140003","name":"入谷３丁目","lat":35.486987,"lng":139.402065},{"code":"14216140004","name":"入谷４丁目","lat":35.481789,"lng":139.404945},{"code":"14216140005","name":"入谷５丁目","lat":35.476923,"lng":139.402041},{"code":"14216150001","name":"ひばりが丘１丁目","lat":35.489506,"lng":139.433787},{"code":"14216150002","name":"ひばりが丘２丁目","lat":35.485411,"lng":139.433604},{"code":"14216150003","name":"ひばりが丘３丁目","lat":35.481578,"lng":139.436018},{"code":"14216150004","name":"ひばりが丘４丁目","lat":35.480396,"lng":139.431166},{"code":"14216150005","name":"ひばりが丘５丁目","lat":35.48871,"lng":139.429219},{"code":"14216160001","name":"東原１丁目","lat":35.48341,"lng":139.425112},{"code":"14216160002","name":"東原２丁目","lat":35.480357,"lng":139.425263},{"code":"14216160003","name":"東原３丁目","lat":35.476358,"lng":139.424061},{"code":"14216160004","name":"東原４丁目","lat":35.476332,"lng":139.426782},{"code":"14216160005","name":"東原５丁目","lat":35.476497,"lng":139.429621},{"code":"14216170001","name":"さがみ野１丁目","lat":35.472255,"lng":139.423694},{"code":"14216170002","name":"さがみ野２丁目","lat":35.473092,"lng":139.426827},{"code":"14216170003","name":"さがみ野３丁目","lat":35.469867,"lng":139.422866},{"code":"14216180001","name":"南栗原１丁目","lat":35.476311,"lng":139.417743},{"code":"14216180002","name":"南栗原２丁目","lat":35.478018,"lng":139.421437},{"code":"14216180003","name":"南栗原３丁目","lat":35.475458,"lng":139.420634},{"code":"14216180004","name":"南栗原４丁目","lat":35.471369,"lng":139.420214},{"code":"14216180005","name":"南栗原５丁目","lat":35.472508,"lng":139.417751},{"code":"14216180006","name":"南栗原６丁目","lat":35.473257,"lng":139.414669},{"code":"14216990001","name":"座間","lat":35.495628,"lng":139.393224},{"code":"14216990002","name":"座間","lat":35.493491,"lng":139.397257}]}
