{"municipality":"14401","name":"愛甲郡愛川町","prefecture":"神奈川県","source":{"dataset":"frogcat/japan-small-area","census":"平成27年国勢調査 小地域（e-Stat 統計LOD）","license":"MIT（リポジトリ）／政府統計の総合窓口(e-Stat)の利用規約（元データ・出典表記必要）","fetched":"2026-07-06"},"towns":[{"code":"144010010","name":"半原","lat":35.532799,"lng":139.265215},{"code":"144010020","name":"田代","lat":35.522864,"lng":139.284784},{"code":"144010030","name":"角田","lat":35.529872,"lng":139.315991},{"code":"144010040","name":"三増","lat":35.543477,"lng":139.297345},{"code":"14401005001","name":"春日台１丁目","lat":35.523633,"lng":139.334278},{"code":"14401005002","name":"春日台２丁目","lat":35.52439,"lng":139.329797},{"code":"14401005003","name":"春日台３丁目","lat":35.525426,"lng":139.331737},{"code":"14401005004","name":"春日台４丁目","lat":35.526374,"lng":139.332905},{"code":"14401005005","name":"春日台５丁目","lat":35.527152,"lng":139.328393},{"code":"14401006001","name":"中津","lat":35.516056,"lng":139.331331},{"code":"14401006002","name":"中津","lat":35.519001,"lng":139.343205},{"code":"144010070","name":"八菅山","lat":35.512824,"lng":139.32093},{"code":"144010080","name":"棚沢","lat":35.508558,"lng":139.328617}]}
