{"municipality":"15209","name":"加茂市","prefecture":"新潟県","source":{"dataset":"frogcat/japan-small-area","census":"平成27年国勢調査 小地域（e-Stat 統計LOD）","license":"MIT（リポジトリ）／政府統計の総合窓口(e-Stat)の利用規約（元データ・出典表記必要）","fetched":"2026-07-06"},"towns":[{"code":"152090010","name":"大字加茂","lat":37.657338,"lng":139.053084},{"code":"152090020","name":"大字上条","lat":37.633336,"lng":139.059362},{"code":"15209003000","name":"大字狭口","lat":37.662246,"lng":139.088534},{"code":"15209003001","name":"大字狭口（１区）","lat":37.642912,"lng":139.089339},{"code":"15209003002","name":"大字狭口（２区）","lat":37.652436,"lng":139.082019},{"code":"15209003003","name":"大字狭口（上３区）","lat":37.649914,"lng":139.081889},{"code":"15209004000","name":"大字加茂新田","lat":37.668525,"lng":139.024613},{"code":"15209004001","name":"大字加茂新田（２３区）","lat":37.680959,"lng":139.034699},{"code":"15209004002","name":"大字加茂新田（２４区）","lat":37.680175,"lng":139.01434},{"code":"152090050","name":"大字山島新田（２５区）","lat":37.682145,"lng":139.003551},{"code":"152090061","name":"芝野","lat":37.657156,"lng":139.035853},{"code":"152090062","name":"横江","lat":37.652484,"lng":139.033781},{"code":"15209006301","name":"大字下条（中興野）","lat":37.651874,"lng":139.030372},{"code":"15209006302","name":"大字下条（下興野）","lat":37.657302,"lng":139.027849},{"code":"15209006303","name":"大字下条（福島）","lat":37.647785,"lng":139.035206},{"code":"15209006304","name":"大字下条（下興屋向）","lat":37.650541,"lng":139.03871},{"code":"15209006305","name":"大字下条（上興屋向）","lat":37.649773,"lng":139.043435},{"code":"15209006306","name":"大字下条（旱田）","lat":37.649785,"lng":139.045927},{"code":"15209006307","name":"大字下条（上下条）","lat":37.649821,"lng":139.050341},{"code":"15209006308","name":"大字下条（長福寺）","lat":37.645073,"lng":139.057535},{"code":"15209006310","name":"大字下条（柳町）","lat":37.653648,"lng":139.038553},{"code":"15209006312","name":"大字下条（中村）","lat":37.653063,"lng":139.039468},{"code":"152090070","name":"大字天神林（天神林）","lat":37.668697,"lng":139.012894},{"code":"15209008001","name":"大字黒水（東区）","lat":37.63253,"lng":139.097803},{"code":"15209008002","name":"大字黒水（北区）","lat":37.631422,"lng":139.094313},{"code":"15209008003","name":"大字黒水（西区）","lat":37.627639,"lng":139.09553},{"code":"15209008004","name":"大字黒水（中区）","lat":37.628187,"lng":139.098411},{"code":"15209008005","name":"大字黒水（南区）","lat":37.625954,"lng":139.100633},{"code":"15209008006","name":"大字黒水（上黒水）","lat":37.620781,"lng":139.092361},{"code":"152090090","name":"大字長谷（長谷）","lat":37.640367,"lng":139.113184},{"code":"15209010000","name":"大字下土倉","lat":37.647246,"lng":139.115501},{"code":"15209010001","name":"大字下土倉（下土倉）","lat":37.643417,"lng":139.125559},{"code":"152090110","name":"大字上土倉（上土倉）","lat":37.629402,"lng":139.121011},{"code":"15209012000","name":"大字上大谷","lat":37.615152,"lng":139.130636},{"code":"15209012001","name":"大字上大谷（上大谷）","lat":37.617851,"lng":139.134263},{"code":"152090130","name":"大字中大谷（中大谷）","lat":37.615166,"lng":139.126963},{"code":"152090140","name":"大字下大谷（下大谷）","lat":37.615141,"lng":139.114261},{"code":"152090150","name":"大字下高柳（下高柳）","lat":37.608345,"lng":139.109198},{"code":"152090160","name":"大字上高柳（上高柳）","lat":37.605386,"lng":139.125607},{"code":"15209017000","name":"大字宮寄上","lat":37.580147,"lng":139.186749},{"code":"15209017001","name":"大字宮寄上（小乙）","lat":37.596235,"lng":139.121769},{"code":"15209017002","name":"大字宮寄上（岩野）","lat":37.586996,"lng":139.1307},{"code":"15209018000","name":"大字西山","lat":37.604377,"lng":139.099219},{"code":"15209018001","name":"大字西山（西山）","lat":37.60003,"lng":139.09449},{"code":"15209019000","name":"大字田中新田","lat":37.699835,"lng":139.008077},{"code":"15209019001","name":"大字田中新田（田中新田）","lat":37.691905,"lng":138.993893},{"code":"15209020001","name":"大字鵜森（上鵜森）","lat":37.68412,"lng":138.993261},{"code":"15209020002","name":"大字鵜森（中鵜森）","lat":37.686773,"lng":138.998779},{"code":"15209020003","name":"大字鵜森（下鵜森）","lat":37.688687,"lng":139.004058},{"code":"152090210","name":"大字砂押新田（砂押新田）","lat":37.691411,"lng":139.007258},{"code":"152090220","name":"大字前須田（前須田）","lat":37.688265,"lng":139.010869},{"code":"15209023001","name":"大字後須田（第１）","lat":37.689983,"lng":139.014442},{"code":"15209023002","name":"大字後須田（第２）","lat":37.690481,"lng":139.017195},{"code":"15209023003","name":"大字後須田（第３）","lat":37.692073,"lng":139.018697},{"code":"15209023004","name":"大字後須田（第４）","lat":37.696022,"lng":139.020199},{"code":"152090240","name":"大字北潟（北潟）","lat":37.70203,"lng":139.021879},{"code":"152090250","name":"大字五反田（五反田）","lat":37.691654,"lng":139.026227},{"code":"152090260","name":"矢立","lat":37.653177,"lng":139.049361},{"code":"152090270","name":"石川","lat":37.670641,"lng":139.044308},{"code":"152091380","name":"番田","lat":37.661616,"lng":139.048851},{"code":"15209139001","name":"幸町１丁目","lat":37.664126,"lng":139.045674},{"code":"15209139002","name":"幸町２丁目","lat":37.66615,"lng":139.041814},{"code":"152091410","name":"寿町","lat":37.658943,"lng":139.046436},{"code":"152091420","name":"旭町","lat":37.66062,"lng":139.043614},{"code":"152091430","name":"栄町","lat":37.66193,"lng":139.041521},{"code":"152091440","name":"新栄町","lat":37.663468,"lng":139.039114},{"code":"15209145001","name":"石川１丁目","lat":37.667431,"lng":139.046999},{"code":"15209145002","name":"石川２丁目","lat":37.66847,"lng":139.044088},{"code":"15209147001","name":"大郷町１丁目","lat":37.656614,"lng":139.043686},{"code":"15209147002","name":"大郷町２丁目","lat":37.658014,"lng":139.041024},{"code":"15209149001","name":"高須町１丁目","lat":37.659335,"lng":139.038947},{"code":"15209149002","name":"高須町２丁目","lat":37.660834,"lng":139.036521},{"code":"15209151001","name":"八幡１丁目","lat":37.656658,"lng":139.070667},{"code":"15209151002","name":"八幡２丁目","lat":37.657782,"lng":139.067474},{"code":"15209151003","name":"八幡３丁目","lat":37.658975,"lng":139.069692},{"code":"152091540","name":"上条","lat":37.659109,"lng":139.063102},{"code":"152091550","name":"皆川","lat":37.662423,"lng":139.06403},{"code":"15209156001","name":"神明町１丁目","lat":37.660577,"lng":139.060795},{"code":"15209156002","name":"神明町２丁目","lat":37.662302,"lng":139.058711},{"code":"15209158001","name":"青海町１丁目","lat":37.662891,"lng":139.055661},{"code":"15209158002","name":"青海町２丁目","lat":37.663104,"lng":139.053484},{"code":"15209160001","name":"千刈１丁目","lat":37.664308,"lng":139.050389},{"code":"15209160002","name":"千刈２丁目","lat":37.666511,"lng":139.051764},{"code":"15209160003","name":"千刈３丁目","lat":37.670046,"lng":139.049428},{"code":"152091630","name":"陣ケ峰","lat":37.669572,"lng":139.053608},{"code":"152091640","name":"赤谷","lat":37.667084,"lng":139.058696},{"code":"152091650","name":"学校町","lat":37.670885,"lng":139.057485},{"code":"152091660","name":"都ケ丘","lat":37.669937,"lng":139.060575},{"code":"152091670","name":"希望ケ丘","lat":37.672924,"lng":139.065309},{"code":"152091680","name":"本町","lat":37.659034,"lng":139.054402},{"code":"152091690","name":"仲町","lat":37.658425,"lng":139.055897},{"code":"152091700","name":"上町","lat":37.65787,"lng":139.057906},{"code":"152091710","name":"五番町","lat":37.656188,"lng":139.059053},{"code":"15209172001","name":"新町１丁目","lat":37.654863,"lng":139.061031},{"code":"15209172002","name":"新町２丁目","lat":37.655909,"lng":139.062529},{"code":"15209174001","name":"若宮町１丁目","lat":37.654656,"lng":139.066437},{"code":"15209174002","name":"若宮町２丁目","lat":37.651371,"lng":139.066922},{"code":"152091760","name":"秋房","lat":37.654247,"lng":139.071047},{"code":"152091770","name":"桜沢","lat":37.652262,"lng":139.075543},{"code":"152091780","name":"穀町","lat":37.659472,"lng":139.052466},{"code":"152091790","name":"駅前","lat":37.659332,"lng":139.050355},{"code":"152091800","name":"松坂町","lat":37.656623,"lng":139.05073},{"code":"152091810","name":"岡ノ町","lat":37.656993,"lng":139.048891},{"code":"152091820","name":"矢立","lat":37.654474,"lng":139.046951},{"code":"15209212001","name":"柳町１丁目","lat":37.654899,"lng":139.040985},{"code":"15209212002","name":"柳町２丁目","lat":37.655667,"lng":139.038687},{"code":"152092150","name":"中村","lat":37.653535,"lng":139.041637},{"code":"15209216001","name":"小橋１丁目","lat":37.653159,"lng":139.043607},{"code":"15209216002","name":"小橋２丁目","lat":37.651932,"lng":139.045646}]}
