{"municipality":"15210","name":"十日町市","prefecture":"新潟県","source":{"dataset":"frogcat/japan-small-area","census":"平成27年国勢調査 小地域（e-Stat 統計LOD）","license":"MIT（リポジトリ）／政府統計の総合窓口(e-Stat)の利用規約（元データ・出典表記必要）","fetched":"2026-07-06"},"towns":[{"code":"152100010","name":"山際","lat":37.184181,"lng":138.783573},{"code":"152100020","name":"下条栄町","lat":37.191037,"lng":138.779393},{"code":"152100030","name":"岩野","lat":37.1967,"lng":138.779028},{"code":"152100040","name":"下組","lat":37.20333,"lng":138.775391},{"code":"152100050","name":"新光寺","lat":37.210122,"lng":138.780549},{"code":"152100060","name":"東下組","lat":37.193691,"lng":138.810542},{"code":"152100070","name":"新座","lat":37.134588,"lng":138.82613},{"code":"152100080","name":"四日町新田","lat":37.145657,"lng":138.76539},{"code":"152100090","name":"四日町中原","lat":37.149613,"lng":138.764295},{"code":"152100100","name":"尾崎","lat":37.15009,"lng":138.770553},{"code":"152100110","name":"中条","lat":37.152438,"lng":138.809352},{"code":"152100130","name":"西寺町","lat":37.132326,"lng":138.754392},{"code":"152100140","name":"稲荷町","lat":37.135424,"lng":138.752905},{"code":"152100150","name":"西本町","lat":37.146833,"lng":138.751643},{"code":"152100160","name":"本町","lat":37.135561,"lng":138.764626},{"code":"152100170","name":"学校町","lat":37.130006,"lng":138.765272},{"code":"152100180","name":"江道","lat":37.116142,"lng":138.809363},{"code":"152100190","name":"本町","lat":37.137197,"lng":138.759866},{"code":"152100200","name":"妻有町西","lat":37.118517,"lng":138.747459},{"code":"152100210","name":"北新田","lat":37.123961,"lng":138.745755},{"code":"152100220","name":"塚原町","lat":37.120416,"lng":138.73999},{"code":"152100230","name":"高田町","lat":37.133513,"lng":138.74365},{"code":"152100240","name":"春日町","lat":37.130882,"lng":138.750419},{"code":"152100250","name":"錦町","lat":37.128794,"lng":138.749278},{"code":"152100260","name":"美雪町","lat":37.127987,"lng":138.751081},{"code":"152100270","name":"寿町","lat":37.127908,"lng":138.753599},{"code":"152100280","name":"千歳町","lat":37.126268,"lng":138.755029},{"code":"152100290","name":"山本町","lat":37.122893,"lng":138.757106},{"code":"152100300","name":"河内町","lat":37.124416,"lng":138.752566},{"code":"152100310","name":"八箇","lat":37.094618,"lng":138.791798},{"code":"152100320","name":"中村","lat":37.064222,"lng":138.779629},{"code":"152100330","name":"稲葉","lat":37.152967,"lng":138.732093},{"code":"152100340","name":"吉田山谷","lat":37.148621,"lng":138.730462},{"code":"152100350","name":"小泉","lat":37.142,"lng":138.728546},{"code":"152100360","name":"樽沢","lat":37.136923,"lng":138.701078},{"code":"152100370","name":"北鐙坂","lat":37.132454,"lng":138.718848},{"code":"152100380","name":"南鐙坂","lat":37.126225,"lng":138.728359},{"code":"152100390","name":"高島","lat":37.116847,"lng":138.716578},{"code":"152100400","name":"鉢","lat":37.104441,"lng":138.691774},{"code":"152100410","name":"南雲","lat":37.054019,"lng":138.747619},{"code":"152100420","name":"新宮","lat":37.099805,"lng":138.724408},{"code":"152100430","name":"鍬柄沢","lat":37.07358,"lng":138.758527},{"code":"152100440","name":"大黒沢","lat":37.108835,"lng":138.734666},{"code":"152100450","name":"姿","lat":37.095584,"lng":138.714397},{"code":"152100460","name":"下川原町","lat":37.14198,"lng":138.760239},{"code":"152100470","name":"中屋敷","lat":37.165126,"lng":138.719753},{"code":"152100480","name":"水口沢","lat":37.154592,"lng":138.744808},{"code":"152100490","name":"東善寺","lat":37.15894,"lng":138.73236},{"code":"152100500","name":"山野田","lat":37.156728,"lng":138.740106},{"code":"152100510","name":"中仙田","lat":37.212425,"lng":138.678352},{"code":"152100520","name":"小白倉","lat":37.223771,"lng":138.70742},{"code":"152100530","name":"大倉","lat":37.208422,"lng":138.711042},{"code":"152100540","name":"岩瀬子","lat":37.210134,"lng":138.697673},{"code":"152100550","name":"赤谷癸","lat":37.202412,"lng":138.6982},{"code":"152100560","name":"中仙田甲","lat":37.194991,"lng":138.68701},{"code":"152100570","name":"田戸辛","lat":37.189291,"lng":138.702345},{"code":"152100580","name":"室島乙","lat":37.174563,"lng":138.682633},{"code":"152100590","name":"小脇丁","lat":37.157512,"lng":138.670283},{"code":"152100600","name":"高倉戊","lat":37.155265,"lng":138.686718},{"code":"152100610","name":"野口","lat":37.210582,"lng":138.743891},{"code":"152100620","name":"仁田","lat":37.200494,"lng":138.751151},{"code":"152100630","name":"寺ケ崎","lat":37.195459,"lng":138.760446},{"code":"152100640","name":"木落","lat":37.188352,"lng":138.766394},{"code":"152100650","name":"上野","lat":37.190022,"lng":138.732862},{"code":"152100660","name":"新町新田","lat":37.191327,"lng":138.751768},{"code":"152100670","name":"下平新田","lat":37.183447,"lng":138.756454},{"code":"152100680","name":"三領","lat":37.181568,"lng":138.76471},{"code":"152100690","name":"小根岸","lat":37.17633,"lng":138.761851},{"code":"152100700","name":"坪山","lat":37.177621,"lng":138.720601},{"code":"152100710","name":"鶴吉","lat":37.17862,"lng":138.739399},{"code":"152100720","name":"霜条","lat":37.174453,"lng":138.739734},{"code":"152100730","name":"高原田","lat":37.169506,"lng":138.740905},{"code":"152100740","name":"伊勢平治","lat":37.170602,"lng":138.749806},{"code":"152100760","name":"沖立","lat":37.165041,"lng":138.753251},{"code":"152100770","name":"上山","lat":37.04508,"lng":138.706575},{"code":"152100780","name":"通り山","lat":37.041077,"lng":138.701551},{"code":"152100790","name":"芋川新田","lat":37.038953,"lng":138.69447},{"code":"152100800","name":"桔梗原","lat":37.034054,"lng":138.699605},{"code":"152100810","name":"高道山","lat":37.032926,"lng":138.709725},{"code":"152100820","name":"芋川","lat":37.02881,"lng":138.696472},{"code":"152100830","name":"原町","lat":37.026493,"lng":138.688723},{"code":"152100840","name":"新里","lat":37.017229,"lng":138.687958},{"code":"152100850","name":"倉俣","lat":37.017223,"lng":138.700657},{"code":"152100860","name":"重地","lat":37.009743,"lng":138.709591},{"code":"152100870","name":"新屋敷","lat":37.08298,"lng":138.707028},{"code":"152100880","name":"本屋敷","lat":37.081094,"lng":138.690465},{"code":"152100890","name":"宮中","lat":37.069549,"lng":138.685871},{"code":"152100900","name":"堀之内","lat":37.07365,"lng":138.707377},{"code":"152100910","name":"芋沢","lat":37.066285,"lng":138.716404},{"code":"152100920","name":"田沢本村","lat":37.058992,"lng":138.710952},{"code":"15210093004","name":"如来寺","lat":37.053814,"lng":138.704899},{"code":"15210093005","name":"豊里","lat":37.039907,"lng":138.721398},{"code":"152100940","name":"桂","lat":37.060067,"lng":138.701454},{"code":"152100950","name":"小原","lat":37.063238,"lng":138.697519},{"code":"152100960","name":"干溝","lat":37.056241,"lng":138.689818},{"code":"152100970","name":"田中","lat":37.054947,"lng":138.695845},{"code":"152100980","name":"山崎","lat":37.050198,"lng":138.695277},{"code":"152100990","name":"荒屋","lat":37.047269,"lng":138.689858},{"code":"152101000","name":"東田沢","lat":37.046465,"lng":138.724456},{"code":"152101010","name":"鷹羽","lat":37.029351,"lng":138.734836},{"code":"152101020","name":"市之越","lat":37.019516,"lng":138.744972},{"code":"152101030","name":"朴木沢","lat":37.028229,"lng":138.71146},{"code":"152101040","name":"宮沢","lat":37.025994,"lng":138.715283},{"code":"152101050","name":"白羽毛","lat":37.018595,"lng":138.720957},{"code":"152101060","name":"程島","lat":37.011559,"lng":138.731888},{"code":"152101070","name":"西田尻","lat":36.996724,"lng":138.722173},{"code":"152101080","name":"西方","lat":36.988962,"lng":138.731073},{"code":"152101090","name":"東田尻","lat":37.004059,"lng":138.737759},{"code":"152101100","name":"土倉","lat":36.999498,"lng":138.761561},{"code":"152101110","name":"倉下","lat":36.993783,"lng":138.768615},{"code":"152101120","name":"角間","lat":36.99662,"lng":138.747183},{"code":"152101130","name":"葎沢","lat":36.966931,"lng":138.760658},{"code":"152101140","name":"小出","lat":36.979887,"lng":138.742661},{"code":"152101150","name":"中里下山","lat":36.997095,"lng":138.705563},{"code":"152101160","name":"清田山","lat":36.992834,"lng":138.714029},{"code":"152101170","name":"田代","lat":36.926353,"lng":138.708674},{"code":"152101180","name":"松代","lat":37.131009,"lng":138.611044},{"code":"152101190","name":"小荒戸","lat":37.13137,"lng":138.624134},{"code":"15210120000","name":"太平","lat":37.138983,"lng":138.623864},{"code":"15210120001","name":"太平","lat":37.13638,"lng":138.619466},{"code":"152101210","name":"菅刈","lat":37.144504,"lng":138.628808},{"code":"152101220","name":"松代田沢","lat":37.134619,"lng":138.635973},{"code":"152101230","name":"小屋丸","lat":37.11226,"lng":138.62312},{"code":"152101240","name":"池之畑","lat":37.123308,"lng":138.632524},{"code":"152101250","name":"松代下山","lat":37.120423,"lng":138.642656},{"code":"152101260","name":"千年","lat":37.125253,"lng":138.601698},{"code":"152101270","name":"池尻","lat":37.125242,"lng":138.585955},{"code":"152101280","name":"会沢","lat":37.156116,"lng":138.624805},{"code":"152101290","name":"清水","lat":37.169656,"lng":138.62877},{"code":"152101300","name":"桐山","lat":37.172009,"lng":138.653347},{"code":"152101310","name":"蓬平","lat":37.153824,"lng":138.60949},{"code":"152101320","name":"松代東山","lat":37.09648,"lng":138.661539},{"code":"152101330","name":"海老","lat":37.114794,"lng":138.652666},{"code":"152101340","name":"犬伏","lat":37.143396,"lng":138.650477},{"code":"152101350","name":"孟地","lat":37.139106,"lng":138.660673},{"code":"152101360","name":"片桐山","lat":37.137985,"lng":138.671241},{"code":"152101370","name":"滝沢","lat":37.146399,"lng":138.679959},{"code":"152101380","name":"中子","lat":37.149498,"lng":138.666348},{"code":"152101390","name":"苧島","lat":37.14776,"lng":138.659244},{"code":"152101400","name":"田野倉","lat":37.147164,"lng":138.587131},{"code":"152101410","name":"仙納","lat":37.152261,"lng":138.593888},{"code":"152101420","name":"莇平","lat":37.162036,"lng":138.5843},{"code":"152101430","name":"寺田","lat":37.151837,"lng":138.56526},{"code":"152101440","name":"小池","lat":37.138755,"lng":138.574603},{"code":"152101450","name":"名平","lat":37.14445,"lng":138.578119},{"code":"152101460","name":"蒲生","lat":37.13341,"lng":138.585867},{"code":"152101470","name":"儀明","lat":37.13794,"lng":138.55814},{"code":"152101480","name":"奈良立","lat":37.106779,"lng":138.571438},{"code":"152101490","name":"福島","lat":37.100216,"lng":138.566535},{"code":"15210150000","name":"室野","lat":37.118256,"lng":138.571222},{"code":"15210150001","name":"室野","lat":37.108527,"lng":138.545805},{"code":"152101510","name":"峠","lat":37.127705,"lng":138.533249},{"code":"152101520","name":"木和田原","lat":37.133259,"lng":138.543336},{"code":"15210153001","name":"松之山","lat":37.085383,"lng":138.608949},{"code":"15210153002","name":"松之山","lat":37.080764,"lng":138.59497},{"code":"152101540","name":"松之山光間","lat":37.094778,"lng":138.612292},{"code":"152101550","name":"松之山新山","lat":37.093751,"lng":138.604666},{"code":"152101560","name":"松之山水梨","lat":37.109528,"lng":138.591697},{"code":"152101570","name":"松之山小谷","lat":37.097427,"lng":138.606023},{"code":"152101580","name":"松之山大荒戸","lat":37.106548,"lng":138.607692},{"code":"152101590","name":"松之山松口","lat":37.09589,"lng":138.62164},{"code":"152101600","name":"松之山三桶","lat":37.092556,"lng":138.629553},{"code":"152101610","name":"松之山沢口","lat":37.091315,"lng":138.624585},{"code":"152101620","name":"松之山猪之名","lat":37.087563,"lng":138.626207},{"code":"152101630","name":"松之山藤内名","lat":37.084246,"lng":138.625204},{"code":"152101640","name":"松之山橋詰","lat":37.080985,"lng":138.623998},{"code":"152101650","name":"松之山坂下","lat":37.083894,"lng":138.621698},{"code":"152101660","name":"松之山観音寺","lat":37.087201,"lng":138.619808},{"code":"152101670","name":"松之山古戸","lat":37.088907,"lng":138.623806},{"code":"152101680","name":"松之山湯山","lat":37.077401,"lng":138.610422},{"code":"152101690","name":"松之山湯本","lat":37.070325,"lng":138.600304},{"code":"152101700","name":"松之山天水越","lat":37.046147,"lng":138.595584},{"code":"15210171001","name":"松之山天水島","lat":37.059277,"lng":138.604304},{"code":"15210171002","name":"松之山天水島","lat":37.063948,"lng":138.614141},{"code":"152101720","name":"松之山藤倉","lat":37.068002,"lng":138.625807},{"code":"152101730","name":"松之山中尾","lat":37.061391,"lng":138.632334},{"code":"152101740","name":"松之山東川","lat":37.072275,"lng":138.633296},{"code":"152101750","name":"松之山上鰕池","lat":37.072491,"lng":138.642577},{"code":"152101760","name":"松之山下鰕池","lat":37.078528,"lng":138.635764},{"code":"152101770","name":"松之山五十子平","lat":37.086153,"lng":138.637598},{"code":"152101780","name":"松之山坪野","lat":37.093686,"lng":138.637617},{"code":"152101790","name":"松之山赤倉","lat":37.101766,"lng":138.643549},{"code":"152101800","name":"松之山東山","lat":37.076884,"lng":138.654889},{"code":"15210181001","name":"浦田字藤原","lat":37.092391,"lng":138.562925},{"code":"15210181002","name":"浦田字曽根","lat":37.081181,"lng":138.575455},{"code":"15210181003","name":"浦田字新田","lat":37.074459,"lng":138.571133},{"code":"15210181004","name":"浦田字上の山","lat":37.081529,"lng":138.560803},{"code":"15210181005","name":"浦田字湯之島","lat":37.075447,"lng":138.561652},{"code":"15210181006","name":"浦田字中立山","lat":37.053808,"lng":138.558463},{"code":"15210181007","name":"浦田字中原","lat":37.038556,"lng":138.544723},{"code":"15210181008","name":"浦田字田麦立","lat":37.050198,"lng":138.549647},{"code":"15210181009","name":"浦田字月池","lat":37.068903,"lng":138.54393},{"code":"15210181010","name":"浦田字坂中","lat":37.061738,"lng":138.562558},{"code":"15210181011","name":"浦田","lat":37.074697,"lng":138.553633},{"code":"15210181012","name":"浦田","lat":37.069958,"lng":138.559378},{"code":"15210181013","name":"浦田字北浦田","lat":37.079086,"lng":138.555527},{"code":"15210181014","name":"浦田字西之前","lat":37.083781,"lng":138.550447},{"code":"152101820","name":"松之山黒倉","lat":37.09422,"lng":138.57884},{"code":"152101830","name":"南新田町","lat":37.145677,"lng":138.759999},{"code":"152101840","name":"小黒沢","lat":37.111785,"lng":138.735275},{"code":"152101850","name":"安養寺","lat":37.08883,"lng":138.711419},{"code":"152101860","name":"高田町三丁目","lat":37.132726,"lng":138.754112},{"code":"152101870","name":"稲荷町三丁目南","lat":37.135999,"lng":138.755707},{"code":"152101880","name":"丸山町","lat":37.134176,"lng":138.75466},{"code":"152101890","name":"本町一丁目上","lat":37.127698,"lng":138.758995},{"code":"152101900","name":"本町一丁目下","lat":37.129114,"lng":138.760152},{"code":"152101910","name":"本町東一丁目","lat":37.128558,"lng":138.761228},{"code":"152101920","name":"本町西一丁目","lat":37.129146,"lng":138.757784},{"code":"152101930","name":"本町二丁目","lat":37.131005,"lng":138.760558},{"code":"152101940","name":"本町三丁目","lat":37.132964,"lng":138.761032},{"code":"152101950","name":"袋町西","lat":37.130578,"lng":138.757895},{"code":"152101960","name":"袋町中","lat":37.130426,"lng":138.758825},{"code":"152101970","name":"袋町東","lat":37.130179,"lng":138.759492},{"code":"152101980","name":"十日町栄町","lat":37.13098,"lng":138.755248},{"code":"152101990","name":"昭和町一丁目","lat":37.130389,"lng":138.756326},{"code":"152102000","name":"諏訪町","lat":37.130961,"lng":138.761885},{"code":"152102010","name":"神明町","lat":37.132033,"lng":138.762012},{"code":"152102020","name":"水野町","lat":37.132619,"lng":138.762256},{"code":"152102030","name":"若宮町","lat":37.133184,"lng":138.762172},{"code":"152102040","name":"宮下町西","lat":37.130089,"lng":138.761318},{"code":"152102050","name":"宮下町東","lat":37.129357,"lng":138.762403},{"code":"152102060","name":"関口樋口町","lat":37.133103,"lng":138.759995}]}
