{"municipality":"15405","name":"三島郡出雲崎町","prefecture":"新潟県","source":{"dataset":"frogcat/japan-small-area","census":"平成27年国勢調査 小地域（e-Stat 統計LOD）","license":"MIT（リポジトリ）／政府統計の総合窓口(e-Stat)の利用規約（元データ・出典表記必要）","fetched":"2026-07-06"},"towns":[{"code":"154050010","name":"大字沢田","lat":37.54437,"lng":138.725384},{"code":"154050020","name":"大字藤巻","lat":37.546642,"lng":138.734702},{"code":"154050030","name":"大字神条","lat":37.528211,"lng":138.733129},{"code":"154050040","name":"大字吉川","lat":37.52408,"lng":138.744393},{"code":"154050050","name":"大字滝谷","lat":37.531831,"lng":138.745423},{"code":"154050060","name":"大字柿木","lat":37.537634,"lng":138.749162},{"code":"154050070","name":"大字馬草","lat":37.555707,"lng":138.737353},{"code":"154050080","name":"大字乙茂","lat":37.558657,"lng":138.727298},{"code":"154050090","name":"大字大寺","lat":37.559558,"lng":138.74078},{"code":"154050100","name":"大字久田","lat":37.565429,"lng":138.719659},{"code":"154050110","name":"大字上中条","lat":37.548945,"lng":138.718775},{"code":"154050120","name":"大字大門","lat":37.533321,"lng":138.719048},{"code":"154050130","name":"大字川西","lat":37.525912,"lng":138.708999},{"code":"154050140","name":"大字松本","lat":37.529071,"lng":138.721488},{"code":"154050150","name":"大字山谷","lat":37.524482,"lng":138.718633},{"code":"154050160","name":"大字大釜谷","lat":37.516109,"lng":138.730789},{"code":"154050170","name":"大字小釜谷","lat":37.519584,"lng":138.732448},{"code":"154050180","name":"大字別ケ谷","lat":37.521856,"lng":138.7157},{"code":"154050190","name":"大字桂沢","lat":37.513934,"lng":138.719001},{"code":"154050200","name":"大字吉水","lat":37.512122,"lng":138.724141},{"code":"154050210","name":"大字立石","lat":37.53171,"lng":138.705085},{"code":"154050220","name":"大字中山","lat":37.534353,"lng":138.689004},{"code":"154050230","name":"大字米田","lat":37.540371,"lng":138.70192},{"code":"154050240","name":"大字小竹","lat":37.536645,"lng":138.702531},{"code":"154050250","name":"大字上野山","lat":37.547015,"lng":138.702391},{"code":"154050260","name":"大字船橋","lat":37.510989,"lng":138.695564},{"code":"154050270","name":"大字稲川","lat":37.520077,"lng":138.688581},{"code":"154050280","name":"大字田中","lat":37.503545,"lng":138.682148},{"code":"154050290","name":"大字市野坪","lat":37.498481,"lng":138.707203},{"code":"154050300","name":"大字豊橋","lat":37.501782,"lng":138.707945},{"code":"154050310","name":"大字常楽寺","lat":37.501438,"lng":138.717414},{"code":"154050320","name":"大字小木","lat":37.51312,"lng":138.706006},{"code":"154050330","name":"大字相田","lat":37.501724,"lng":138.727424},{"code":"154050340","name":"大字勝見","lat":37.527484,"lng":138.670774},{"code":"154050350","name":"大字尼瀬","lat":37.536224,"lng":138.679658},{"code":"154050360","name":"大字住吉町","lat":37.542203,"lng":138.686551},{"code":"154050370","name":"大字石井町","lat":37.543835,"lng":138.688738},{"code":"154050380","name":"大字羽黒町","lat":37.545377,"lng":138.69288},{"code":"154050390","name":"大字鳴滝町","lat":37.547542,"lng":138.696333},{"code":"154050400","name":"大字木折町","lat":37.549171,"lng":138.698112},{"code":"154050410","name":"大字井鼻","lat":37.55322,"lng":138.706989}]}
