{"municipality":"16202","name":"高岡市","prefecture":"富山県","source":{"dataset":"frogcat/japan-small-area","census":"平成27年国勢調査 小地域（e-Stat 統計LOD）","license":"MIT（リポジトリ）／政府統計の総合窓口(e-Stat)の利用規約（元データ・出典表記必要）","fetched":"2026-07-06"},"towns":[{"code":"162020010","name":"赤祖父","lat":36.730967,"lng":137.021714},{"code":"162020030","name":"明園町","lat":36.741591,"lng":137.028578},{"code":"162020040","name":"明野町","lat":36.756615,"lng":137.016916},{"code":"16202006001","name":"麻生谷","lat":36.742031,"lng":136.948857},{"code":"16202006002","name":"麻生谷新生園","lat":36.745628,"lng":136.93951},{"code":"162020070","name":"荒見崎","lat":36.712074,"lng":136.978587},{"code":"162020080","name":"荒屋敷","lat":36.742208,"lng":136.964645},{"code":"162020090","name":"あわら町","lat":36.755897,"lng":137.021503},{"code":"162020100","name":"五十辺","lat":36.754793,"lng":136.950801},{"code":"16202011001","name":"五十里","lat":36.776213,"lng":136.984076},{"code":"16202011002","name":"五十里板屋","lat":36.770286,"lng":136.980843},{"code":"16202011003","name":"五十里道重","lat":36.776426,"lng":136.989635},{"code":"16202011004","name":"五十里百橋","lat":36.770249,"lng":136.989063},{"code":"162020120","name":"五十里西町","lat":36.777947,"lng":136.99013},{"code":"162020130","name":"五十里東町","lat":36.773064,"lng":136.992076},{"code":"16202014001","name":"井口本江","lat":36.735285,"lng":137.028908},{"code":"16202014002","name":"井口本江高園町","lat":36.738698,"lng":137.031905},{"code":"162020150","name":"池田","lat":36.736189,"lng":136.960339},{"code":"16202016001","name":"石瀬上石瀬","lat":36.749812,"lng":137.044493},{"code":"16202016002","name":"石瀬下石瀬","lat":36.756715,"lng":137.047344},{"code":"16202016003","name":"石瀬美原町","lat":36.756313,"lng":137.043398},{"code":"16202016004","name":"石瀬石瀬東町","lat":36.754137,"lng":137.044344},{"code":"16202016005","name":"石瀬石瀬中町","lat":36.752404,"lng":137.042268},{"code":"16202016006","name":"石瀬石瀬本町","lat":36.746775,"lng":137.042601},{"code":"162020170","name":"石堤","lat":36.749215,"lng":136.936447},{"code":"162020180","name":"石塚","lat":36.732718,"lng":136.978716},{"code":"162020190","name":"石丸","lat":36.767063,"lng":137.094422},{"code":"16202020001","name":"泉が丘泉が丘一区","lat":36.728791,"lng":136.99157},{"code":"16202020002","name":"泉が丘泉が丘二区","lat":36.729926,"lng":136.990043},{"code":"16202020003","name":"泉が丘泉が丘三区","lat":36.727589,"lng":136.988309},{"code":"16202020004","name":"泉が丘泉が丘四区","lat":36.726611,"lng":136.990007},{"code":"162020210","name":"泉町","lat":36.735463,"lng":137.004506},{"code":"162020220","name":"一番町","lat":36.745876,"lng":137.01023},{"code":"162020230","name":"今泉","lat":36.670244,"lng":137.026905},{"code":"162020240","name":"今泉新","lat":36.670701,"lng":137.032357},{"code":"162020250","name":"三ケ","lat":36.702079,"lng":136.964387},{"code":"162020260","name":"岩坪","lat":36.76531,"lng":136.970921},{"code":"16202027001","name":"内島","lat":36.734229,"lng":136.966244},{"code":"16202027002","name":"内島西園町","lat":36.739194,"lng":136.969458},{"code":"162020280","name":"永楽町","lat":36.743747,"lng":136.997563},{"code":"16202029001","name":"駅南１丁目","lat":36.739552,"lng":137.01776},{"code":"16202029002","name":"駅南２丁目","lat":36.738969,"lng":137.021055},{"code":"16202029003","name":"駅南３丁目","lat":36.737477,"lng":137.017703},{"code":"16202029004","name":"駅南４丁目","lat":36.737423,"lng":137.013636},{"code":"16202029005","name":"駅南５丁目","lat":36.73959,"lng":137.013682},{"code":"162020301","name":"江尻白山町","lat":36.764059,"lng":137.026983},{"code":"16202030201","name":"江尻","lat":36.761345,"lng":137.029323},{"code":"16202030202","name":"江尻春日丘","lat":36.764723,"lng":137.029273},{"code":"16202030203","name":"江尻鶴寄町","lat":36.757916,"lng":137.02939},{"code":"16202030204","name":"江尻青葉町","lat":36.761498,"lng":137.033839},{"code":"16202030205","name":"江尻旭ケ丘","lat":36.763933,"lng":137.034825},{"code":"16202030206","name":"江尻高伏町","lat":36.764972,"lng":137.031422},{"code":"16202030207","name":"江尻江尻新町","lat":36.760817,"lng":137.030464},{"code":"16202032001","name":"扇町１丁目","lat":36.744674,"lng":136.993747},{"code":"16202032002","name":"扇町２丁目","lat":36.745379,"lng":136.991923},{"code":"16202033001","name":"太田太田伊勢領","lat":36.823225,"lng":137.017021},{"code":"16202033002","name":"太田太田中村東部","lat":36.821942,"lng":137.0222},{"code":"16202033003","name":"太田太田中村西部","lat":36.819779,"lng":137.021897},{"code":"16202033004","name":"太田太田渋谷","lat":36.820692,"lng":137.029029},{"code":"16202033005","name":"太田太田辰ノ口西部","lat":36.818371,"lng":137.025781},{"code":"16202033006","name":"太田太田辰ノ口北部","lat":36.819536,"lng":137.030748},{"code":"16202033007","name":"太田太田旦保","lat":36.815451,"lng":137.028792},{"code":"16202033008","name":"太田太田山岸","lat":36.816053,"lng":137.019308},{"code":"16202033009","name":"太田太田辰ノ口東部第一","lat":36.818834,"lng":137.032679},{"code":"16202033010","name":"太田太田辰ノ口東部第二","lat":36.817787,"lng":137.034919},{"code":"16202033011","name":"太田太田辰ノ口南部","lat":36.816,"lng":137.033639},{"code":"16202033012","name":"太田雨晴西部","lat":36.816473,"lng":137.036652},{"code":"16202033013","name":"太田雨晴中部","lat":36.8153,"lng":137.037655},{"code":"16202033014","name":"太田雨晴東部","lat":36.812648,"lng":137.044386},{"code":"16202033015","name":"太田太田辰ノ口中部","lat":36.817544,"lng":137.031103},{"code":"16202033016","name":"太田谷内","lat":36.810528,"lng":137.010907},{"code":"16202035001","name":"大坪町１丁目","lat":36.753567,"lng":137.016957},{"code":"16202035002","name":"大坪町２丁目","lat":36.755942,"lng":137.018485},{"code":"16202035003","name":"大坪町３丁目","lat":36.758889,"lng":137.019386},{"code":"16202035004","name":"大坪町４丁目","lat":36.758167,"lng":137.022493},{"code":"162020360","name":"大手町","lat":36.746172,"lng":137.018031},{"code":"16202037001","name":"大野","lat":36.739447,"lng":137.02763},{"code":"16202037002","name":"大野南田町","lat":36.7345,"lng":137.019403},{"code":"16202037003","name":"大野前田町","lat":36.738995,"lng":137.024581},{"code":"162020380","name":"大町","lat":36.75165,"lng":137.011883},{"code":"162020390","name":"大鋸屋町","lat":36.740037,"lng":137.009188},{"code":"162020400","name":"荻布","lat":36.769751,"lng":137.036113},{"code":"162020410","name":"荻布新町","lat":36.766507,"lng":137.032345},{"code":"16202042001","name":"御旅屋町御旅屋町","lat":36.745576,"lng":137.014548},{"code":"16202042006","name":"御旅屋町桐木町","lat":36.743982,"lng":137.015801},{"code":"16202042007","name":"御旅屋町大福院","lat":36.745924,"lng":137.013891},{"code":"162020430","name":"小竹","lat":36.711624,"lng":136.966311},{"code":"162020440","name":"御馬出町","lat":36.745511,"lng":137.008828},{"code":"162020451","name":"開発本町","lat":36.764129,"lng":137.015143},{"code":"162020452","name":"開発本町","lat":36.76089,"lng":137.01413},{"code":"162020480","name":"片原中島町","lat":36.747531,"lng":137.014223},{"code":"16202049001","name":"片原町片原町","lat":36.746415,"lng":137.013117},{"code":"16202049002","name":"片原町高片原町","lat":36.746233,"lng":137.013921},{"code":"162020500","name":"片原横町","lat":36.745727,"lng":137.011291},{"code":"162020510","name":"金屋","lat":36.765107,"lng":137.084772},{"code":"162020520","name":"金屋本町","lat":36.75165,"lng":137.006611},{"code":"162020530","name":"金屋町","lat":36.75019,"lng":137.004922},{"code":"162020540","name":"鐘紡町","lat":36.732088,"lng":137.005115},{"code":"162020550","name":"上麻生","lat":36.679881,"lng":137.008838},{"code":"162020560","name":"上開発","lat":36.705959,"lng":136.956476},{"code":"16202058001","name":"上黒田","lat":36.721626,"lng":137.007004},{"code":"16202058002","name":"上黒田黒田新町","lat":36.722108,"lng":137.004188},{"code":"16202060001","name":"上関","lat":36.737165,"lng":137.00745},{"code":"16202060002","name":"上関上関二区","lat":36.73146,"lng":137.009599},{"code":"162020610","name":"上関町","lat":36.735202,"lng":137.008114},{"code":"162020630","name":"上伏間江","lat":36.716381,"lng":137.022836},{"code":"16202064001","name":"上牧野","lat":36.771692,"lng":137.064574},{"code":"16202064002","name":"上牧野若葉町","lat":36.773001,"lng":137.071198},{"code":"162020650","name":"上四屋","lat":36.758526,"lng":137.004124},{"code":"162020660","name":"上渡","lat":36.73077,"lng":136.955582},{"code":"16202068001","name":"鴨島町","lat":36.744425,"lng":137.007431},{"code":"16202068002","name":"鴨島町鴨島町一区","lat":36.743622,"lng":137.007274},{"code":"162020690","name":"川原本町","lat":36.748166,"lng":137.007556},{"code":"162020700","name":"川原町","lat":36.749832,"lng":137.009889},{"code":"162020710","name":"神田新町","lat":36.731004,"lng":137.011181},{"code":"162020720","name":"神主町","lat":36.732405,"lng":137.01182},{"code":"16202073000","name":"京田","lat":36.732241,"lng":137.016474},{"code":"16202073001","name":"京田","lat":36.729317,"lng":137.014713},{"code":"162020740","name":"京町","lat":36.754499,"lng":137.013908},{"code":"162020750","name":"北蔵新","lat":36.71055,"lng":136.992002},{"code":"16202076001","name":"北島","lat":36.745329,"lng":136.981745},{"code":"16202076002","name":"北島松原町","lat":36.74349,"lng":136.988768},{"code":"16202076003","name":"北島若富町","lat":36.741793,"lng":136.984648},{"code":"16202076004","name":"北島上北島","lat":36.737671,"lng":136.980793},{"code":"16202077001","name":"木津","lat":36.740042,"lng":136.99865},{"code":"16202077002","name":"木津木津新","lat":36.731296,"lng":136.999416},{"code":"16202077003","name":"木津南星町","lat":36.736944,"lng":136.998619},{"code":"16202077004","name":"木津木津仲町","lat":36.741326,"lng":136.993797},{"code":"16202077005","name":"木津若木町","lat":36.741593,"lng":136.998042},{"code":"16202077006","name":"木津東木津","lat":36.7323,"lng":136.993999},{"code":"16202077007","name":"木津第一木津","lat":36.734845,"lng":136.990507},{"code":"16202077008","name":"木津第二木津","lat":36.739454,"lng":136.994292},{"code":"16202077009","name":"木津木津の庄","lat":36.735891,"lng":136.990313},{"code":"162020780","name":"木舟町","lat":36.747425,"lng":137.010998},{"code":"162020791","name":"木町","lat":36.762735,"lng":137.01209},{"code":"162020792","name":"木町","lat":36.760923,"lng":137.012752},{"code":"16202080001","name":"国吉","lat":36.753719,"lng":136.966276},{"code":"16202080002","name":"国吉手洗野","lat":36.761135,"lng":136.96484},{"code":"16202080003","name":"国吉上八ケ新","lat":36.753341,"lng":136.969021},{"code":"162020810","name":"熊野町","lat":36.762149,"lng":137.017656},{"code":"162020820","name":"蔵野町","lat":36.718674,"lng":136.974989},{"code":"162020830","name":"源平町","lat":36.747536,"lng":137.013011},{"code":"162020840","name":"小泉新","lat":36.675524,"lng":137.035162},{"code":"162020850","name":"高陵町","lat":36.741858,"lng":137.024561},{"code":"162020860","name":"古城","lat":36.748749,"lng":137.021683},{"code":"162020870","name":"駒方","lat":36.714316,"lng":136.959637},{"code":"162020890","name":"小馬出町","lat":36.748501,"lng":137.012942},{"code":"162020900","name":"五福町","lat":36.758332,"lng":137.014222},{"code":"162020920","name":"西田","lat":36.809134,"lng":137.018857},{"code":"162020930","name":"境","lat":36.757582,"lng":136.93891},{"code":"162020940","name":"坂下町","lat":36.74798,"lng":137.0149},{"code":"16202095001","name":"佐加野","lat":36.754511,"lng":136.978433},{"code":"16202095002","name":"佐加野佐加野新町","lat":36.752043,"lng":136.978793},{"code":"16202096001","name":"笹川笹川第八","lat":36.71827,"lng":136.950156},{"code":"16202096002","name":"笹川笹川第九","lat":36.71222,"lng":136.950693},{"code":"16202096003","name":"笹川","lat":36.727916,"lng":136.952338},{"code":"162020970","name":"笹八口","lat":36.755194,"lng":136.950964},{"code":"16202098001","name":"佐野水沢町","lat":36.71983,"lng":136.997302},{"code":"16202098002","name":"佐野若水町","lat":36.721421,"lng":136.997821},{"code":"16202098003","name":"佐野上佐野","lat":36.717907,"lng":136.987294},{"code":"16202098004","name":"佐野諏訪佐野","lat":36.722436,"lng":136.988912},{"code":"16202098005","name":"佐野下佐野","lat":36.726988,"lng":136.994775},{"code":"16202098006","name":"佐野西佐野","lat":36.729571,"lng":136.986962},{"code":"16202098007","name":"佐野佐野新町","lat":36.725802,"lng":137.000212},{"code":"16202098008","name":"佐野美川町","lat":36.717687,"lng":136.995128},{"code":"16202098009","name":"佐野佐野本町","lat":36.721375,"lng":136.994486},{"code":"16202098010","name":"佐野佐野本町二区","lat":36.720548,"lng":136.991355},{"code":"16202098011","name":"佐野","lat":36.729837,"lng":136.992882},{"code":"162020990","name":"山下","lat":36.674557,"lng":137.038472},{"code":"162021000","name":"今市","lat":36.706087,"lng":136.963442},{"code":"162021010","name":"三番町","lat":36.74663,"lng":137.01152},{"code":"162021020","name":"三女子","lat":36.741463,"lng":137.042256},{"code":"16202104001","name":"守護町１丁目","lat":36.767183,"lng":137.00941},{"code":"16202104002","name":"守護町２丁目","lat":36.768751,"lng":137.014073},{"code":"16202106001","name":"昭和町１丁目","lat":36.753697,"lng":137.003273},{"code":"16202106002","name":"昭和町２丁目","lat":36.755075,"lng":137.000648},{"code":"16202106003","name":"昭和町３丁目","lat":36.752755,"lng":137.001786},{"code":"16202108001","name":"柴野","lat":36.747718,"lng":136.949224},{"code":"16202108002","name":"柴野十日市","lat":36.743442,"lng":136.954321},{"code":"16202109001","name":"柴野内島","lat":36.730308,"lng":136.966512},{"code":"16202109002","name":"柴野内島柴園町","lat":36.730637,"lng":136.968179},{"code":"162021110","name":"島崎","lat":36.757319,"lng":136.973199},{"code":"162021120","name":"島新","lat":36.670486,"lng":137.0408},{"code":"16202113001","name":"清水町１丁目","lat":36.741018,"lng":137.002939},{"code":"16202113002","name":"清水町２丁目","lat":36.740174,"lng":137.006522},{"code":"16202113003","name":"清水町３丁目","lat":36.738021,"lng":137.004578},{"code":"16202114001","name":"下麻生","lat":36.68414,"lng":137.022601},{"code":"16202114002","name":"下麻生下代","lat":36.690155,"lng":137.011935},{"code":"16202114003","name":"下麻生麻生","lat":36.689858,"lng":137.021066},{"code":"16202115001","name":"下麻生伸町中田団地一区","lat":36.697361,"lng":137.013483},{"code":"16202115002","name":"下麻生伸町中田団地二区","lat":36.695696,"lng":137.016987},{"code":"16202115003","name":"下麻生伸町中田団地三区","lat":36.694994,"lng":137.019101},{"code":"16202115004","name":"下麻生伸町中田団地四区","lat":36.694286,"lng":137.02116},{"code":"16202119001","name":"下黒田","lat":36.725349,"lng":137.009886},{"code":"16202119002","name":"下黒田市場通り","lat":36.72836,"lng":137.005662},{"code":"162021200","name":"下島町","lat":36.717001,"lng":136.998502},{"code":"162021220","name":"下関町","lat":36.741635,"lng":137.015891},{"code":"16202125000","name":"下伏間江","lat":36.722696,"lng":137.025191},{"code":"16202125001","name":"下伏間江","lat":36.724214,"lng":137.016793},{"code":"16202125002","name":"下伏間江明和町","lat":36.72362,"lng":137.028332},{"code":"16202126001","name":"下牧野下牧野第一","lat":36.777677,"lng":137.063211},{"code":"16202126002","name":"下牧野下牧野第二","lat":36.781725,"lng":137.07014},{"code":"16202126003","name":"下牧野下牧野第三","lat":36.777994,"lng":137.070189},{"code":"16202126004","name":"下牧野下牧野第四","lat":36.777495,"lng":137.073202},{"code":"162021270","name":"下山田","lat":36.662833,"lng":137.04079},{"code":"162021280","name":"白銀町","lat":36.744247,"lng":137.008916},{"code":"162021290","name":"白金町","lat":36.742683,"lng":137.008856},{"code":"162021300","name":"新成町","lat":36.760295,"lng":137.016466},{"code":"162021310","name":"新寺町","lat":36.733548,"lng":137.010986},{"code":"162021320","name":"新横町","lat":36.744527,"lng":137.016735},{"code":"162021330","name":"十二町島","lat":36.705123,"lng":136.98929},{"code":"162021340","name":"城光寺","lat":36.781942,"lng":137.034799},{"code":"162021350","name":"定塚","lat":36.755063,"lng":137.031418},{"code":"16202136001","name":"定塚町","lat":36.743045,"lng":137.020834},{"code":"16202136002","name":"定塚町定塚町１丁目","lat":36.745656,"lng":137.016574},{"code":"16202136003","name":"定塚町大仏町","lat":36.744639,"lng":137.017249},{"code":"16202137001","name":"城東１丁目","lat":36.746341,"lng":137.03112},{"code":"16202137002","name":"城東２丁目","lat":36.743859,"lng":137.029645},{"code":"162021380","name":"地子木町","lat":36.760732,"lng":137.011378},{"code":"16202139001","name":"末広町","lat":36.743603,"lng":137.012106},{"code":"16202139002","name":"末広町末広町一区","lat":36.745348,"lng":137.013028},{"code":"16202139003","name":"末広町末広町二区","lat":36.743809,"lng":137.014562},{"code":"162021400","name":"須田","lat":36.774894,"lng":136.994622},{"code":"162021410","name":"関","lat":36.737642,"lng":137.023106},{"code":"162021420","name":"関大町","lat":36.740081,"lng":137.010995},{"code":"162021430","name":"関本町","lat":36.736011,"lng":137.011069},{"code":"162021440","name":"関町","lat":36.738326,"lng":137.009718},{"code":"162021450","name":"千木屋町","lat":36.748947,"lng":137.012411},{"code":"162021460","name":"千石町","lat":36.746538,"lng":136.995891},{"code":"162021490","name":"高辻","lat":36.753393,"lng":136.959325},{"code":"162021500","name":"高美町","lat":36.78282,"lng":137.037921},{"code":"162021510","name":"宝町","lat":36.756188,"lng":137.027306},{"code":"162021520","name":"滝","lat":36.680835,"lng":137.030396},{"code":"162021530","name":"滝新","lat":36.676493,"lng":137.03254},{"code":"16202154101","name":"立野美鳥町１丁目","lat":36.725054,"lng":136.962378},{"code":"16202154102","name":"立野美鳥町２丁目","lat":36.724294,"lng":136.959453},{"code":"16202154103","name":"立野美鳥町３丁目","lat":36.723274,"lng":136.956654},{"code":"162021542","name":"平成町","lat":36.722491,"lng":136.954794},{"code":"16202154301","name":"立野天目町","lat":36.724134,"lng":136.955211},{"code":"16202154302","name":"立野立野寺町","lat":36.725575,"lng":136.957663},{"code":"16202154303","name":"立野御宝町","lat":36.726296,"lng":136.958666},{"code":"16202154304","name":"立野橋番町","lat":36.727084,"lng":136.959719},{"code":"16202154305","name":"立野平和町","lat":36.728994,"lng":136.959846},{"code":"16202154306","name":"立野高札町","lat":36.727125,"lng":136.960775},{"code":"16202154307","name":"立野御蔵町","lat":36.727458,"lng":136.96159},{"code":"16202154308","name":"立野舘町","lat":36.72874,"lng":136.962451},{"code":"16202154309","name":"立野鍛冶屋町","lat":36.726897,"lng":136.962865},{"code":"16202154310","name":"立野八軒町","lat":36.727695,"lng":136.963576},{"code":"16202154311","name":"立野栄町","lat":36.727525,"lng":136.965623},{"code":"16202154312","name":"立野高池町","lat":36.725435,"lng":136.96515},{"code":"16202154313","name":"立野","lat":36.721019,"lng":136.959967},{"code":"162021570","name":"大工中町","lat":36.741211,"lng":137.009668},{"code":"16202159001","name":"大源寺","lat":36.746041,"lng":136.971314},{"code":"16202159002","name":"大源寺大源寺新町","lat":36.742157,"lng":136.970233},{"code":"16202160001","name":"醍醐醍醐横越上","lat":36.682465,"lng":136.955363},{"code":"16202160002","name":"醍醐醍醐横越下","lat":36.689662,"lng":136.95711},{"code":"16202160003","name":"醍醐醍醐油屋","lat":36.686002,"lng":136.963667},{"code":"16202160004","name":"醍醐醍醐後正寺","lat":36.697436,"lng":136.959581},{"code":"16202160005","name":"醍醐醍醐今庄","lat":36.695423,"lng":136.96481},{"code":"16202160006","name":"醍醐醍醐須田","lat":36.69754,"lng":136.953565},{"code":"16202160007","name":"醍醐醍醐夏住","lat":36.685573,"lng":136.947835},{"code":"162021610","name":"長慶寺","lat":36.767515,"lng":136.997347},{"code":"162021620","name":"千鳥丘町","lat":36.716783,"lng":136.954896},{"code":"162021630","name":"月野谷","lat":36.758064,"lng":136.957812},{"code":"162021640","name":"辻","lat":36.725488,"lng":136.978214},{"code":"162021650","name":"常国","lat":36.687656,"lng":137.030105},{"code":"162021661","name":"能町駅南","lat":36.765401,"lng":137.038196},{"code":"16202166201","name":"角","lat":36.760691,"lng":137.036015},{"code":"16202166202","name":"角東野","lat":36.758705,"lng":137.035712},{"code":"16202166203","name":"角城北町","lat":36.759325,"lng":137.035138},{"code":"162021670","name":"頭川","lat":36.778587,"lng":136.976102},{"code":"162021680","name":"角三島","lat":36.764702,"lng":137.040713},{"code":"162021690","name":"寺町","lat":36.734781,"lng":137.012275},{"code":"16202170001","name":"出来田","lat":36.730563,"lng":137.033617},{"code":"16202170002","name":"出来田出来田新町","lat":36.727166,"lng":137.032926},{"code":"162021710","name":"戸出","lat":36.678709,"lng":136.982572},{"code":"162021721","name":"戸出町７丁目","lat":36.692946,"lng":136.968791},{"code":"162021722","name":"戸出伊勢領","lat":36.693463,"lng":136.972449},{"code":"16202173001","name":"戸出市野瀬","lat":36.698181,"lng":136.98207},{"code":"16202173002","name":"戸出市野瀬戸出池田町","lat":36.691553,"lng":136.980933},{"code":"162021740","name":"戸出市野瀬新","lat":36.691422,"lng":136.985166},{"code":"162021750","name":"戸出狼","lat":36.689421,"lng":136.978695},{"code":"162021760","name":"戸出大清水","lat":36.684513,"lng":136.995016},{"code":"162021770","name":"戸出岡御所","lat":36.668589,"lng":136.96706},{"code":"162021780","name":"戸出春日","lat":36.691392,"lng":136.998744},{"code":"16202179001","name":"戸出光明寺","lat":36.674333,"lng":136.972851},{"code":"16202179002","name":"戸出光明寺戸出青園町","lat":36.673136,"lng":136.980471},{"code":"16202179003","name":"戸出光明寺戸出葵町","lat":36.674599,"lng":136.980216},{"code":"162021800","name":"戸出石代","lat":36.673274,"lng":137.000719},{"code":"162021810","name":"戸出栄町","lat":36.692214,"lng":136.990195},{"code":"162021820","name":"戸出竹","lat":36.677179,"lng":136.961309},{"code":"162021840","name":"戸出徳市","lat":36.69483,"lng":137.005124},{"code":"162021850","name":"戸出西部金屋","lat":36.663355,"lng":136.997497},{"code":"162021870","name":"戸出古戸出","lat":36.673697,"lng":136.975387},{"code":"162021880","name":"戸出放寺","lat":36.668186,"lng":136.960205},{"code":"16202190001","name":"戸出町１丁目","lat":36.682796,"lng":136.985284},{"code":"16202190002","name":"戸出町２丁目","lat":36.682902,"lng":136.981501},{"code":"16202190003","name":"戸出町３丁目","lat":36.682056,"lng":136.978182},{"code":"16202190004","name":"戸出町４丁目","lat":36.681823,"lng":136.97492},{"code":"16202190005","name":"戸出町５丁目","lat":36.682645,"lng":136.970007},{"code":"16202190006","name":"戸出町６丁目","lat":36.688722,"lng":136.96938},{"code":"162021910","name":"戸出行兼","lat":36.667925,"lng":136.973078},{"code":"162021920","name":"戸出吉住","lat":36.677605,"lng":136.993132},{"code":"162021930","name":"戸出吉住新","lat":36.671728,"lng":136.986919},{"code":"162021940","name":"戸出六十歩","lat":36.662046,"lng":136.961111},{"code":"162021950","name":"答野島","lat":36.753384,"lng":136.966346},{"code":"162021970","name":"通町","lat":36.745727,"lng":137.007033},{"code":"162021980","name":"利屋町","lat":36.74697,"lng":137.008563},{"code":"162021990","name":"富岡町","lat":36.783353,"lng":137.061176},{"code":"162022000","name":"問屋町","lat":36.729747,"lng":137.026767},{"code":"16202202001","name":"内免１丁目","lat":36.752672,"lng":137.007118},{"code":"16202202002","name":"内免２丁目","lat":36.754915,"lng":137.009152},{"code":"16202202003","name":"内免３丁目","lat":36.758438,"lng":137.009875},{"code":"16202202004","name":"内免４丁目","lat":36.7564,"lng":137.006501},{"code":"16202202005","name":"内免５丁目","lat":36.755194,"lng":137.004532},{"code":"162022040","name":"中川１丁目","lat":36.751817,"lng":137.026436},{"code":"162022050","name":"中川上町","lat":36.745374,"lng":137.023479},{"code":"162022060","name":"中川栄町","lat":36.74448,"lng":137.026565},{"code":"162022070","name":"中川園町","lat":36.750804,"lng":137.029757},{"code":"162022080","name":"中川本町","lat":36.747761,"lng":137.025528},{"code":"162022090","name":"中川町","lat":36.743865,"lng":137.021964},{"code":"162022100","name":"中島町","lat":36.747662,"lng":137.004647},{"code":"16202211001","name":"中曾根","lat":36.767379,"lng":137.076158},{"code":"16202211002","name":"中曽根中曾根第二","lat":36.772293,"lng":137.077764},{"code":"16202212001","name":"中田中田東町","lat":36.682041,"lng":137.022839},{"code":"16202212002","name":"中田中田本町","lat":36.68416,"lng":137.020611},{"code":"16202212003","name":"中田中田中町","lat":36.684267,"lng":137.019795},{"code":"16202212004","name":"中田中田西中町","lat":36.684238,"lng":137.01873},{"code":"16202212005","name":"中田中田西町","lat":36.681899,"lng":137.014938},{"code":"16202212006","name":"中田中田宮町","lat":36.68165,"lng":137.01767},{"code":"16202212007","name":"中田中田十軒町","lat":36.683558,"lng":137.019598},{"code":"16202212008","name":"中田中田南町","lat":36.680865,"lng":137.020021},{"code":"16202212009","name":"中田中田反保島","lat":36.675327,"lng":137.017187},{"code":"16202213001","name":"中保","lat":36.720859,"lng":136.966966},{"code":"16202213002","name":"中保西高町","lat":36.725899,"lng":136.967824},{"code":"16202213003","name":"中保若保町","lat":36.72608,"lng":136.969874},{"code":"162022140","name":"長江","lat":36.762434,"lng":136.984761},{"code":"16202215001","name":"西海老坂","lat":36.779024,"lng":136.9982},{"code":"16202215002","name":"西海老坂香住町","lat":36.781673,"lng":136.99685},{"code":"16202216001","name":"西藤平蔵","lat":36.711432,"lng":136.986667},{"code":"16202216002","name":"西藤平蔵紅屋","lat":36.704928,"lng":136.980812},{"code":"16202216003","name":"西藤平蔵柳島","lat":36.702224,"lng":136.985166},{"code":"16202216004","name":"西藤平蔵佐野緑町","lat":36.710439,"lng":136.987588},{"code":"162022170","name":"西広上","lat":36.712242,"lng":137.019063},{"code":"162022180","name":"西広谷","lat":36.759177,"lng":136.916501},{"code":"162022190","name":"西町","lat":36.749681,"lng":136.997842},{"code":"162022210","name":"二番町","lat":36.744996,"lng":137.008194},{"code":"16202222001","name":"能町","lat":36.771767,"lng":137.046947},{"code":"16202222002","name":"能町角","lat":36.769132,"lng":137.042121},{"code":"162022230","name":"勝木原","lat":36.769696,"lng":136.896257},{"code":"16202224002","name":"野村新和町","lat":36.75659,"lng":137.036304},{"code":"16202224003","name":"野村野村第三","lat":36.748145,"lng":137.038509},{"code":"16202224004","name":"野村野村第四","lat":36.752863,"lng":137.038694},{"code":"16202224005","name":"野村野村第五","lat":36.759752,"lng":137.042115},{"code":"16202224006","name":"野村野村第二","lat":36.745567,"lng":137.037092},{"code":"16202224007","name":"野村長和里","lat":36.756375,"lng":137.038445},{"code":"16202224008","name":"野村寿町１丁目","lat":36.749244,"lng":137.0344},{"code":"16202224009","name":"野村寿町２丁目","lat":36.752756,"lng":137.035492},{"code":"16202224010","name":"野村野村東町","lat":36.746856,"lng":137.033842},{"code":"16202224011","name":"野村深田町","lat":36.749076,"lng":137.03425},{"code":"16202224012","name":"野村富田町","lat":36.746605,"lng":137.032794},{"code":"16202224013","name":"野村玉兎ケ丘","lat":36.743969,"lng":137.037389},{"code":"16202224014","name":"野村双葉町","lat":36.742599,"lng":137.035149},{"code":"16202224015","name":"野村野村第一","lat":36.742154,"lng":137.032715},{"code":"16202224016","name":"野村野村新宿","lat":36.740685,"lng":137.030342},{"code":"16202224017","name":"野村二枚橋","lat":36.738605,"lng":137.02893},{"code":"16202225001","name":"能町南１丁目","lat":36.762291,"lng":137.039951},{"code":"16202225002","name":"能町南２丁目","lat":36.764753,"lng":137.043491},{"code":"16202225003","name":"能町南３丁目","lat":36.766824,"lng":137.043603},{"code":"162022260","name":"能町東","lat":36.764413,"lng":137.046234},{"code":"162022280","name":"波岡","lat":36.758336,"lng":136.99074},{"code":"162022290","name":"蓮美町","lat":36.737773,"lng":137.00787},{"code":"162022300","name":"旅籠町","lat":36.745943,"lng":137.005631},{"code":"162022310","name":"蜂ケ島","lat":36.737368,"lng":136.968272},{"code":"16202233101","name":"羽広１丁目","lat":36.740501,"lng":136.989507},{"code":"16202233102","name":"羽広２丁目","lat":36.7431,"lng":136.992166},{"code":"16202233201","name":"羽広（字）","lat":36.741203,"lng":136.992716},{"code":"16202233202","name":"羽広１丁目","lat":36.738921,"lng":136.99102},{"code":"162022340","name":"早川","lat":36.750183,"lng":136.988195},{"code":"162022360","name":"博労本町","lat":36.744206,"lng":137.002411},{"code":"162022370","name":"博労町","lat":36.744657,"lng":137.005187},{"code":"162022390","name":"東石堤","lat":36.732482,"lng":136.959843},{"code":"162022400","name":"東海老坂","lat":36.783957,"lng":136.998849},{"code":"16202241001","name":"東上関","lat":36.734292,"lng":137.016563},{"code":"16202241002","name":"東上関南田町","lat":36.733975,"lng":137.016343},{"code":"16202241003","name":"東上関八丁道","lat":36.734985,"lng":137.014378},{"code":"16202242001","name":"東藤平蔵","lat":36.709951,"lng":136.999132},{"code":"16202242002","name":"東藤平蔵大林","lat":36.704414,"lng":136.992933},{"code":"16202242003","name":"東藤平蔵林","lat":36.701933,"lng":136.999166},{"code":"162022430","name":"東中川町","lat":36.747349,"lng":137.028474},{"code":"162022450","name":"東保新","lat":36.66526,"lng":137.034343},{"code":"16202246001","name":"樋詰","lat":36.728321,"lng":136.970893},{"code":"16202246002","name":"樋詰柴園町","lat":36.730431,"lng":136.970086},{"code":"16202247001","name":"姫野姫野第一","lat":36.76877,"lng":137.086619},{"code":"16202247002","name":"姫野姫野第二","lat":36.771538,"lng":137.096261},{"code":"16202247003","name":"姫野姫野第三","lat":36.774176,"lng":137.08844},{"code":"16202247004","name":"姫野姫野第四","lat":36.772752,"lng":137.084276},{"code":"16202247005","name":"姫野姫野第五","lat":36.774673,"lng":137.083457},{"code":"162022490","name":"広小路","lat":36.753906,"lng":137.024312},{"code":"16202250001","name":"深沢","lat":36.725522,"lng":137.030882},{"code":"16202250002","name":"深沢明和町","lat":36.725157,"lng":137.029856},{"code":"16202252001","name":"福田六家","lat":36.740662,"lng":136.974655},{"code":"16202252002","name":"福田六家西園町","lat":36.738836,"lng":136.970268},{"code":"16202252003","name":"福田六家福栄町","lat":36.739504,"lng":136.970991},{"code":"16202253001","name":"伏木１丁目","lat":36.788469,"lng":137.054475},{"code":"16202253002","name":"伏木２丁目","lat":36.783045,"lng":137.047893},{"code":"162022540","name":"伏木磯町","lat":36.79752,"lng":137.061676},{"code":"16202256101","name":"伏木一宮１丁目","lat":36.79647,"lng":137.047287},{"code":"16202256102","name":"伏木一宮２丁目","lat":36.800154,"lng":137.049026},{"code":"16202256201","name":"伏木一宮住外","lat":36.798902,"lng":137.033204},{"code":"16202256202","name":"伏木一宮伏木一宮若草","lat":36.793941,"lng":137.044156},{"code":"162022581","name":"伏木万葉ふ頭","lat":36.800333,"lng":137.064823},{"code":"16202259101","name":"伏木国分１丁目","lat":36.801908,"lng":137.053837},{"code":"16202259102","name":"伏木国分２丁目","lat":36.804609,"lng":137.05019},{"code":"16202259202","name":"伏木国分住外","lat":36.806316,"lng":137.047616},{"code":"16202261101","name":"伏木古府１丁目","lat":36.788404,"lng":137.051095},{"code":"16202261102","name":"伏木古府２丁目","lat":36.791377,"lng":137.051783},{"code":"16202261103","name":"伏木古府３丁目","lat":36.792786,"lng":137.04739},{"code":"162022612","name":"伏木古府","lat":36.79355,"lng":137.041264},{"code":"162022620","name":"伏木古府元町","lat":36.790505,"lng":137.044869},{"code":"162022630","name":"伏木中央町","lat":36.797157,"lng":137.060303},{"code":"162022640","name":"伏木錦町","lat":36.794453,"lng":137.059765},{"code":"162022650","name":"伏木東一宮","lat":36.796109,"lng":137.053442},{"code":"162022670","name":"伏木古国府","lat":36.792463,"lng":137.055894},{"code":"162022680","name":"伏木本町","lat":36.798366,"lng":137.056733},{"code":"162022690","name":"伏木湊町","lat":36.795666,"lng":137.062813},{"code":"162022701","name":"伏木矢田","lat":36.784735,"lng":137.043693},{"code":"16202270201","name":"伏木矢田伏木矢田南台","lat":36.786732,"lng":137.039924},{"code":"16202270202","name":"伏木矢田万葉台","lat":36.784886,"lng":137.037626},{"code":"16202270203","name":"伏木矢田高美町","lat":36.783297,"lng":137.04002},{"code":"162022710","name":"伏木矢田上町","lat":36.786699,"lng":137.047246},{"code":"162022720","name":"伏木矢田新町","lat":36.789338,"lng":137.042185},{"code":"16202273001","name":"二上上二上","lat":36.777062,"lng":137.009956},{"code":"16202273002","name":"二上二上谷内","lat":36.777859,"lng":137.017707},{"code":"16202273003","name":"二上下二上","lat":36.773962,"lng":137.018634},{"code":"16202273004","name":"二上山園町","lat":36.777844,"lng":137.024222},{"code":"16202273006","name":"二上二上院内","lat":36.777218,"lng":137.028886},{"code":"16202273007","name":"二上","lat":36.777501,"lng":137.02867},{"code":"16202273008","name":"二上","lat":36.776525,"lng":137.003848},{"code":"162022740","name":"二上新","lat":36.770504,"lng":137.021991},{"code":"162022750","name":"二上町","lat":36.773963,"lng":137.015196},{"code":"16202276001","name":"二塚二塚","lat":36.719784,"lng":137.015522},{"code":"16202276002","name":"二塚東二塚第一","lat":36.708807,"lng":137.013503},{"code":"16202276003","name":"二塚東二塚第二","lat":36.713922,"lng":137.013267},{"code":"16202276004","name":"二塚東二塚第三","lat":36.715705,"lng":137.014504},{"code":"16202276005","name":"二塚東二塚第四","lat":36.714276,"lng":137.010159},{"code":"16202276006","name":"二塚二塚南部","lat":36.70052,"lng":137.005427},{"code":"16202276007","name":"二塚二塚西部","lat":36.708275,"lng":137.003938},{"code":"16202276008","name":"二塚鎧","lat":36.714366,"lng":137.007228},{"code":"16202276009","name":"二塚二塚東部","lat":36.704698,"lng":137.008272},{"code":"16202276010","name":"二塚二塚南部","lat":36.701037,"lng":136.994341},{"code":"162022780","name":"古定塚","lat":36.752746,"lng":137.032512},{"code":"162022790","name":"風呂屋町","lat":36.746375,"lng":137.006555},{"code":"162022800","name":"放生津","lat":36.769764,"lng":137.082932},{"code":"162022810","name":"細池","lat":36.759823,"lng":136.971607},{"code":"162022830","name":"堀上町","lat":36.745139,"lng":137.010244},{"code":"16202284001","name":"本郷１丁目","lat":36.757411,"lng":137.002168},{"code":"16202284002","name":"本郷２丁目","lat":36.75833,"lng":136.998642},{"code":"162022850","name":"本保","lat":36.708999,"lng":136.972068},{"code":"162022860","name":"本町","lat":36.749811,"lng":137.015925},{"code":"162022870","name":"本丸町","lat":36.750539,"lng":137.019756},{"code":"162022880","name":"丸の内","lat":36.752455,"lng":137.018731},{"code":"162022890","name":"瑞穂町","lat":36.75186,"lng":136.995007},{"code":"162022900","name":"南幸町","lat":36.742849,"lng":137.00571},{"code":"162022930","name":"宮田町","lat":36.748354,"lng":136.993295},{"code":"16202296001","name":"美幸町１丁目","lat":36.756011,"lng":136.996962},{"code":"16202296002","name":"美幸町２丁目","lat":36.754276,"lng":136.995747},{"code":"162022970","name":"向野本町","lat":36.767017,"lng":137.024159},{"code":"162022980","name":"江尻向野町","lat":36.761755,"lng":137.02567},{"code":"16202299001","name":"向野町１丁目","lat":36.757059,"lng":137.023904},{"code":"16202299003","name":"向野町３丁目","lat":36.759006,"lng":137.025435},{"code":"16202299004","name":"向野町４丁目","lat":36.758302,"lng":137.024126},{"code":"16202299005","name":"向野町５丁目","lat":36.759878,"lng":137.022783},{"code":"16202299006","name":"向野町６丁目","lat":36.761479,"lng":137.023668},{"code":"16202299007","name":"向野町７丁目","lat":36.76272,"lng":137.024585},{"code":"16202302002","name":"守山守山一区","lat":36.775351,"lng":136.998324},{"code":"16202302003","name":"守山守山二区","lat":36.776885,"lng":137.001545},{"code":"16202302004","name":"守山守山三区","lat":36.775258,"lng":137.00358},{"code":"162023030","name":"守山町","lat":36.746475,"lng":137.009684},{"code":"162023040","name":"八口","lat":36.750531,"lng":136.956174},{"code":"162023050","name":"山川","lat":36.767927,"lng":136.926875},{"code":"162023060","name":"四日市","lat":36.746665,"lng":136.958812},{"code":"162023070","name":"横田","lat":36.760945,"lng":136.997776},{"code":"162023080","name":"横田本町","lat":36.751882,"lng":136.99939},{"code":"16202309001","name":"横田町１丁目","lat":36.748295,"lng":137.00256},{"code":"16202309002","name":"横田町２丁目","lat":36.747138,"lng":136.999417},{"code":"16202309003","name":"横田町３丁目","lat":36.750407,"lng":137.001859},{"code":"162023100","name":"芳野","lat":36.736097,"lng":137.021808},{"code":"16202312001","name":"吉久１丁目","lat":36.780837,"lng":137.054406},{"code":"16202312002","name":"吉久２丁目","lat":36.777047,"lng":137.055357},{"code":"16202312003","name":"吉久３丁目","lat":36.780719,"lng":137.058933},{"code":"162023130","name":"四屋","lat":36.763244,"lng":137.004621},{"code":"16202314001","name":"米島","lat":36.776249,"lng":137.038616},{"code":"16202314002","name":"米島新能町","lat":36.77143,"lng":137.036402},{"code":"16202315001","name":"蓮花寺","lat":36.74023,"lng":137.036857},{"code":"16202315002","name":"蓮花寺蓮花寺新町","lat":36.742528,"lng":137.038835},{"code":"16202315003","name":"蓮花寺蓮花寺中部","lat":36.735927,"lng":137.037169},{"code":"16202315004","name":"蓮花寺蓮花寺西部","lat":36.736639,"lng":137.034287},{"code":"16202315005","name":"蓮花寺蓮花寺東部","lat":36.736663,"lng":137.03931},{"code":"16202315006","name":"蓮花寺","lat":36.745451,"lng":137.043978},{"code":"162023160","name":"六家","lat":36.735489,"lng":136.97353},{"code":"16202318001","name":"若杉","lat":36.682316,"lng":137.03503},{"code":"16202318002","name":"若杉長生寮","lat":36.678012,"lng":137.030466},{"code":"162023200","name":"鷲北新","lat":36.768239,"lng":137.038685},{"code":"16202321001","name":"和田","lat":36.737102,"lng":136.987362},{"code":"16202321002","name":"和田和田西町","lat":36.741193,"lng":136.987239},{"code":"16202321003","name":"和田和田上町","lat":36.735712,"lng":136.984692},{"code":"16202321004","name":"和田和田中町","lat":36.739642,"lng":136.986529},{"code":"16202321005","name":"和田若生町","lat":36.736344,"lng":136.984518},{"code":"16202321006","name":"和田石名瀬","lat":36.727443,"lng":136.98317},{"code":"162023220","name":"宝来町","lat":36.724165,"lng":136.948099},{"code":"162023230","name":"東下関","lat":36.742649,"lng":137.019304},{"code":"162023240","name":"オフィスパーク","lat":36.669894,"lng":136.998963},{"code":"162023250","name":"中央町","lat":36.746586,"lng":137.015055},{"code":"162023260","name":"福岡","lat":36.711077,"lng":136.931197},{"code":"162023270","name":"下蓑新","lat":36.708122,"lng":136.934637},{"code":"162023280","name":"大野","lat":36.718331,"lng":136.936069},{"code":"162023290","name":"下老子","lat":36.711665,"lng":136.944086},{"code":"162023300","name":"一歩二歩","lat":36.703703,"lng":136.94658},{"code":"162023310","name":"小伊勢領","lat":36.693488,"lng":136.945198},{"code":"162023320","name":"江尻","lat":36.699267,"lng":136.939165},{"code":"162023330","name":"上蓑","lat":36.703182,"lng":136.932348},{"code":"162023340","name":"蓑島","lat":36.698373,"lng":136.929525},{"code":"162023350","name":"矢部","lat":36.690234,"lng":136.93579},{"code":"162023360","name":"開ほつ","lat":36.688726,"lng":136.924742},{"code":"162023370","name":"木舟","lat":36.691852,"lng":136.914095},{"code":"162023380","name":"大滝","lat":36.699479,"lng":136.922504},{"code":"162023390","name":"本領","lat":36.699337,"lng":136.911376},{"code":"162023400","name":"荒屋敷","lat":36.707046,"lng":136.91822},{"code":"162023410","name":"上野","lat":36.70544,"lng":136.892717},{"code":"162023420","name":"上向田","lat":36.708368,"lng":136.904057},{"code":"162023430","name":"下向田","lat":36.713481,"lng":136.909925},{"code":"162023440","name":"土屋","lat":36.717157,"lng":136.91772},{"code":"162023450","name":"鳥倉","lat":36.724464,"lng":136.915106},{"code":"162023460","name":"加茂","lat":36.731071,"lng":136.915375},{"code":"162023470","name":"馬場","lat":36.733592,"lng":136.921919},{"code":"162023480","name":"三日市","lat":36.724132,"lng":136.932421},{"code":"162023490","name":"西明寺","lat":36.718681,"lng":136.894698},{"code":"162023500","name":"栃丘","lat":36.730891,"lng":136.898612},{"code":"162023510","name":"小野","lat":36.732715,"lng":136.867183},{"code":"162023520","name":"五位","lat":36.749823,"lng":136.87916},{"code":"162023530","name":"沢川","lat":36.765724,"lng":136.859921},{"code":"162023540","name":"赤丸","lat":36.741639,"lng":136.926036},{"code":"162023550","name":"舞谷","lat":36.740391,"lng":136.924556},{"code":"162023560","name":"花尾","lat":36.743636,"lng":136.902128},{"code":"162023570","name":"福岡新","lat":36.713135,"lng":136.931677},{"code":"162023580","name":"下蓑","lat":36.71014,"lng":136.932841},{"code":"162023590","name":"西川原島","lat":36.692749,"lng":136.952039},{"code":"162023600","name":"西","lat":36.725578,"lng":136.926578},{"code":"162023610","name":"荻布四つ葉町","lat":36.766006,"lng":137.035923},{"code":"162023620","name":"宮脇町","lat":36.744936,"lng":137.013715},{"code":"162023630","name":"戸出延島","lat":36.678138,"lng":136.9528},{"code":"162023640","name":"戸出竹北","lat":36.675007,"lng":136.95437},{"code":"162023650","name":"戸出放寺新","lat":36.671817,"lng":136.954636},{"code":"162023660","name":"林新","lat":36.717735,"lng":137.004742},{"code":"16202367001","name":"八ケ","lat":36.771827,"lng":137.023699},{"code":"16202367002","name":"八ケ二上新","lat":36.769297,"lng":137.01849},{"code":"162023680","name":"袋町","lat":36.751009,"lng":137.013796},{"code":"162023690","name":"平米町","lat":36.751262,"lng":137.015112}]}
