{"municipality":"17205","name":"珠洲市","prefecture":"石川県","source":{"dataset":"frogcat/japan-small-area","census":"平成27年国勢調査 小地域（e-Stat 統計LOD）","license":"MIT（リポジトリ）／政府統計の総合窓口(e-Stat)の利用規約（元データ・出典表記必要）","fetched":"2026-07-06"},"towns":[{"code":"172050010","name":"宝立町","lat":37.392656,"lng":137.189523},{"code":"172050020","name":"上戸町","lat":37.431826,"lng":137.218654},{"code":"172050030","name":"飯田町","lat":37.439615,"lng":137.263097},{"code":"172050040","name":"若山町","lat":37.457774,"lng":137.197134},{"code":"172050050","name":"野々江町","lat":37.446503,"lng":137.274362},{"code":"172050060","name":"岩坂町","lat":37.472713,"lng":137.259064},{"code":"172050070","name":"熊谷町","lat":37.450566,"lng":137.283584},{"code":"172050080","name":"正院町","lat":37.468767,"lng":137.283009},{"code":"172050090","name":"蛸島町","lat":37.445103,"lng":137.31911},{"code":"172050100","name":"三崎町","lat":37.478778,"lng":137.32632},{"code":"172050110","name":"狼煙町","lat":37.517903,"lng":137.317429},{"code":"172050120","name":"川浦町","lat":37.516159,"lng":137.298274},{"code":"172050130","name":"折戸町","lat":37.519307,"lng":137.271898},{"code":"172050140","name":"東山中町","lat":37.497566,"lng":137.284702},{"code":"172050150","name":"唐笠町","lat":37.49924,"lng":137.264203},{"code":"172050160","name":"真浦町","lat":37.463557,"lng":137.100277},{"code":"172050170","name":"仁江町","lat":37.473317,"lng":137.110102},{"code":"172050180","name":"清水町","lat":37.475647,"lng":137.125602},{"code":"172050190","name":"片岩町","lat":37.48961,"lng":137.138825},{"code":"172050200","name":"長橋町","lat":37.495859,"lng":137.156904},{"code":"172050210","name":"大谷町","lat":37.482037,"lng":137.16606},{"code":"172050220","name":"馬緤町","lat":37.49592,"lng":137.210563},{"code":"172050230","name":"笹波町","lat":37.502061,"lng":137.233411},{"code":"172050240","name":"石神町","lat":37.495149,"lng":137.227206},{"code":"172050250","name":"高屋町","lat":37.509491,"lng":137.245758}]}
