{"municipality":"17361","name":"河北郡津幡町","prefecture":"石川県","source":{"dataset":"frogcat/japan-small-area","census":"平成27年国勢調査 小地域（e-Stat 統計LOD）","license":"MIT（リポジトリ）／政府統計の総合窓口(e-Stat)の利用規約（元データ・出典表記必要）","fetched":"2026-07-06"},"towns":[{"code":"17361101001","name":"字津幡（津幡小学校校下）","lat":36.671406,"lng":136.735901},{"code":"17361101002","name":"字津幡（太白台小学校校下）","lat":36.675713,"lng":136.745396},{"code":"17361102001","name":"字清水（津幡小学校校下）","lat":36.677086,"lng":136.737207},{"code":"17361102002","name":"字清水（太白台小学校校下）","lat":36.673842,"lng":136.737391},{"code":"173611030","name":"字庄","lat":36.67869,"lng":136.72941},{"code":"17361104001","name":"字加賀爪（津幡小学校校下）","lat":36.66982,"lng":136.731674},{"code":"17361104002","name":"字加賀爪（太白台小学校校下）","lat":36.668012,"lng":136.740598},{"code":"173611860","name":"字緑が丘","lat":36.681519,"lng":136.746955},{"code":"173612050","name":"字南中条","lat":36.65773,"lng":136.725755},{"code":"173612060","name":"字北中条","lat":36.659593,"lng":136.732644},{"code":"17361207003","name":"字太田（中条小学校校下）","lat":36.652579,"lng":136.727952},{"code":"17361207010","name":"字太田（条南小学校校下）","lat":36.650017,"lng":136.723694},{"code":"17361208003","name":"字潟端（中条小学校校下）","lat":36.659116,"lng":136.715965},{"code":"17361208010","name":"字潟端（条南小学校校下）","lat":36.651112,"lng":136.711326},{"code":"173612090","name":"字浅田","lat":36.664052,"lng":136.741676},{"code":"173612100","name":"字浅谷","lat":36.644817,"lng":136.741763},{"code":"173613110","name":"字杉瀬","lat":36.666974,"lng":136.754919},{"code":"173613120","name":"字倉見","lat":36.676093,"lng":136.764653},{"code":"173613130","name":"字田屋","lat":36.681082,"lng":136.77913},{"code":"173613140","name":"字岩崎","lat":36.676728,"lng":136.777663},{"code":"173613150","name":"字七黒","lat":36.688217,"lng":136.772639},{"code":"173613160","name":"字鳥越","lat":36.690416,"lng":136.775565},{"code":"173613170","name":"字山北","lat":36.695154,"lng":136.78008},{"code":"173613180","name":"字蓮花寺","lat":36.691961,"lng":136.783056},{"code":"173613190","name":"字宮田","lat":36.685176,"lng":136.784808},{"code":"173613200","name":"字鳥屋尾","lat":36.693781,"lng":136.791057},{"code":"173613210","name":"字篭月","lat":36.687937,"lng":136.793988},{"code":"173613220","name":"字大畠","lat":36.683584,"lng":136.801588},{"code":"173613230","name":"字莇谷","lat":36.690907,"lng":136.807108},{"code":"173613240","name":"字笠池ケ原","lat":36.697955,"lng":136.806907},{"code":"173613250","name":"字彦太郎畠","lat":36.698265,"lng":136.799606},{"code":"173613260","name":"字吉倉","lat":36.70156,"lng":136.777407},{"code":"173613270","name":"字八ノ谷","lat":36.711763,"lng":136.79033},{"code":"173613280","name":"字市谷","lat":36.704732,"lng":136.795127},{"code":"173613290","name":"字大熊","lat":36.708617,"lng":136.776532},{"code":"173614300","name":"字川尻","lat":36.674539,"lng":136.716968},{"code":"173614310","name":"字中橋","lat":36.672148,"lng":136.723251},{"code":"173614320","name":"字五反田","lat":36.66639,"lng":136.717172},{"code":"173614330","name":"字中須加","lat":36.669309,"lng":136.725906},{"code":"173614340","name":"字横浜","lat":36.666253,"lng":136.730154},{"code":"17361489001","name":"井上の荘（１丁目）","lat":36.670693,"lng":136.720368},{"code":"17361489002","name":"井上の荘（２丁目）","lat":36.669944,"lng":136.715232},{"code":"17361489003","name":"井上の荘（３丁目）","lat":36.671279,"lng":136.716955},{"code":"17361489004","name":"井上の荘（４丁目）","lat":36.671434,"lng":136.713492},{"code":"17361489005","name":"井上の荘（５丁目）","lat":36.672744,"lng":136.715156},{"code":"173615350","name":"字舟橋","lat":36.683063,"lng":136.719462},{"code":"173615360","name":"字加茂","lat":36.687752,"lng":136.725415},{"code":"173615370","name":"字能瀬","lat":36.691969,"lng":136.717627},{"code":"173615380","name":"字領家","lat":36.697715,"lng":136.716886},{"code":"173615390","name":"字谷内","lat":36.695693,"lng":136.738842},{"code":"173615400","name":"字御門","lat":36.699808,"lng":136.736337},{"code":"173615410","name":"字御門","lat":36.69562,"lng":136.725973},{"code":"173615420","name":"字下矢田","lat":36.705377,"lng":136.742461},{"code":"173615430","name":"字上矢田","lat":36.709704,"lng":136.747133},{"code":"173615440","name":"字中山","lat":36.71626,"lng":136.751133},{"code":"173615450","name":"字種","lat":36.723791,"lng":136.761251},{"code":"173615460","name":"字小熊","lat":36.716614,"lng":136.770057},{"code":"173615470","name":"字池ケ原","lat":36.719152,"lng":136.783412},{"code":"173615480","name":"字興津","lat":36.730907,"lng":136.7779},{"code":"173615490","name":"字菩提寺","lat":36.733555,"lng":136.766093},{"code":"173615500","name":"字平野","lat":36.723829,"lng":136.775391},{"code":"173616510","name":"字上大田","lat":36.749694,"lng":136.778697},{"code":"173616520","name":"字下河合","lat":36.737953,"lng":136.790072},{"code":"173616530","name":"字上河合","lat":36.736694,"lng":136.800993},{"code":"173616540","name":"字瓜生","lat":36.759236,"lng":136.812726},{"code":"173616550","name":"字牛首","lat":36.734355,"lng":136.813225},{"code":"173616560","name":"字牛首","lat":36.751132,"lng":136.826565},{"code":"173617570","name":"字竹橋","lat":36.663728,"lng":136.772111},{"code":"173617580","name":"字富田","lat":36.670681,"lng":136.778568},{"code":"173617590","name":"字刈安","lat":36.673797,"lng":136.786524},{"code":"173617600","name":"字越中坂","lat":36.666684,"lng":136.791416},{"code":"173617610","name":"字坂戸","lat":36.669722,"lng":136.797606},{"code":"173617620","name":"字上野","lat":36.679048,"lng":136.792258},{"code":"173617630","name":"字河内","lat":36.673299,"lng":136.804854},{"code":"173617640","name":"字九折","lat":36.677311,"lng":136.81531},{"code":"173617650","name":"字倶利伽羅","lat":36.66348,"lng":136.811838},{"code":"173617660","name":"字山森","lat":36.660565,"lng":136.801784},{"code":"173617670","name":"字原","lat":36.662852,"lng":136.786444},{"code":"173617680","name":"字七野","lat":36.657339,"lng":136.767735},{"code":"173617690","name":"字東荒屋","lat":36.661283,"lng":136.754647},{"code":"173617700","name":"字明神","lat":36.657524,"lng":136.744377},{"code":"173617710","name":"字井野河内","lat":36.649068,"lng":136.747641},{"code":"173617720","name":"字大坪","lat":36.650136,"lng":136.755044},{"code":"173617730","name":"字別所","lat":36.652321,"lng":136.764214},{"code":"173617740","name":"字下藤又","lat":36.649203,"lng":136.766862},{"code":"173617750","name":"字仮生","lat":36.644614,"lng":136.764152},{"code":"173617760","name":"字材木","lat":36.63875,"lng":136.769123},{"code":"173617770","name":"字下中","lat":36.653633,"lng":136.778576},{"code":"173617780","name":"字朝日畑","lat":36.645763,"lng":136.779013},{"code":"173617790","name":"字相窪","lat":36.645762,"lng":136.787304},{"code":"173617800","name":"字南横根","lat":36.639013,"lng":136.795152},{"code":"173617810","name":"字北横根","lat":36.644332,"lng":136.797371},{"code":"173617820","name":"字大窪","lat":36.649585,"lng":136.802623},{"code":"173617830","name":"字上藤又","lat":36.654371,"lng":136.794443},{"code":"173617840","name":"字常徳","lat":36.63577,"lng":136.790031},{"code":"173617850","name":"字常徳","lat":36.634561,"lng":136.781483},{"code":"173617880","name":"字旭山","lat":36.657059,"lng":136.751556},{"code":"173618870","name":"字湖東","lat":36.674105,"lng":136.70209},{"code":"173619990","name":"字加茂","lat":36.695797,"lng":136.755743}]}
