{"municipality":"17461","name":"鳳珠郡穴水町","prefecture":"石川県","source":{"dataset":"frogcat/japan-small-area","census":"平成27年国勢調査 小地域（e-Stat 統計LOD）","license":"MIT（リポジトリ）／政府統計の総合窓口(e-Stat)の利用規約（元データ・出典表記必要）","fetched":"2026-07-06"},"towns":[{"code":"174615000","name":"別所岳","lat":37.191702,"lng":136.878816},{"code":"174615010","name":"字曽福","lat":37.175076,"lng":136.890235},{"code":"174615020","name":"字鹿島","lat":37.184985,"lng":136.897733},{"code":"174615030","name":"字根木","lat":37.193982,"lng":136.90386},{"code":"174615040","name":"字志ケ浦","lat":37.203843,"lng":136.907533},{"code":"174615050","name":"字新崎","lat":37.207867,"lng":136.923674},{"code":"174615070","name":"字乙ケ崎","lat":37.215685,"lng":136.908077},{"code":"174615080","name":"字鵜島","lat":37.223265,"lng":136.908605},{"code":"174615090","name":"字大町","lat":37.229603,"lng":136.901417},{"code":"174615100","name":"字川島","lat":37.232888,"lng":136.908034},{"code":"174615110","name":"字由比ケ丘","lat":37.230342,"lng":136.920366},{"code":"174615120","name":"字天神谷","lat":37.236863,"lng":136.892289},{"code":"174615130","name":"字越の原","lat":37.210943,"lng":136.882521},{"code":"174615140","name":"字鹿路","lat":37.213144,"lng":136.871086},{"code":"174615150","name":"字宇留地","lat":37.229119,"lng":136.882645},{"code":"174615160","name":"字河内","lat":37.215519,"lng":136.846087},{"code":"174615180","name":"字越渡","lat":37.228055,"lng":136.812675},{"code":"174615190","name":"字上中","lat":37.240053,"lng":136.810945},{"code":"174615200","name":"字桂谷","lat":37.24049,"lng":136.822282},{"code":"174615210","name":"字大角間","lat":37.248471,"lng":136.823831},{"code":"174615220","name":"字上唐川","lat":37.237487,"lng":136.867539},{"code":"174615230","name":"字下唐川","lat":37.244228,"lng":136.85235},{"code":"174615240","name":"字挾石","lat":37.256114,"lng":136.870234},{"code":"174615250","name":"字小又","lat":37.26745,"lng":136.878799},{"code":"174615260","name":"字平野","lat":37.252529,"lng":136.891335},{"code":"174615270","name":"字地蔵坊","lat":37.245804,"lng":136.885794},{"code":"174615280","name":"字上野","lat":37.240605,"lng":136.89638},{"code":"174615290","name":"字此木","lat":37.248505,"lng":136.899698},{"code":"174615300","name":"字七海","lat":37.249597,"lng":136.916975},{"code":"174615310","name":"字北七海","lat":37.264241,"lng":136.915672},{"code":"174615320","name":"字麦ケ浦","lat":37.245803,"lng":136.927412},{"code":"174615330","name":"字内浦","lat":37.222772,"lng":136.923904},{"code":"174615340","name":"字緑ケ丘","lat":37.209828,"lng":136.910566},{"code":"174616010","name":"字中居","lat":37.233747,"lng":136.940205},{"code":"174616020","name":"字中居南","lat":37.227592,"lng":136.944079},{"code":"174616030","name":"字瑞鳳","lat":37.248458,"lng":136.961463},{"code":"174616040","name":"字梶","lat":37.248324,"lng":136.945799},{"code":"174616050","name":"字波志借","lat":37.267448,"lng":136.941715},{"code":"174616060","name":"字藤巻","lat":37.26786,"lng":136.951928},{"code":"174616070","name":"字木原","lat":37.281451,"lng":136.965029},{"code":"174616080","name":"字樟谷","lat":37.300041,"lng":136.98555},{"code":"174616090","name":"字菅谷","lat":37.291283,"lng":136.984431},{"code":"174616100","name":"字伊久留","lat":37.2701,"lng":136.981965},{"code":"174616110","name":"字比良","lat":37.237955,"lng":136.966496},{"code":"174616120","name":"字川尻","lat":37.233133,"lng":136.969894},{"code":"174616130","name":"字曽山","lat":37.253233,"lng":136.994575},{"code":"174616140","name":"字東中谷","lat":37.24677,"lng":137.003551},{"code":"174616150","name":"字岩車","lat":37.217195,"lng":136.962842},{"code":"174616160","name":"字旭ケ丘","lat":37.223479,"lng":136.98298},{"code":"174617010","name":"字鹿波","lat":37.211289,"lng":137.00209},{"code":"174617020","name":"字鹿上","lat":37.220647,"lng":137.000846},{"code":"174617030","name":"字曽良","lat":37.193612,"lng":137.018166},{"code":"174617040","name":"字大郷","lat":37.199357,"lng":137.003444},{"code":"174617050","name":"字甲","lat":37.208243,"lng":137.025514},{"code":"174617060","name":"字山中","lat":37.235531,"lng":137.022138},{"code":"174618000","name":"諸橋","lat":37.242996,"lng":137.050068},{"code":"174618010","name":"字沖波","lat":37.215641,"lng":137.04598},{"code":"174618020","name":"字前波","lat":37.22249,"lng":137.058527},{"code":"174618030","name":"字宇加川","lat":37.225965,"lng":137.065686},{"code":"174618040","name":"字明千寺","lat":37.229564,"lng":137.060619},{"code":"174618050","name":"字花園","lat":37.235885,"lng":137.061171},{"code":"174618060","name":"字古君","lat":37.24227,"lng":137.066785},{"code":"174618070","name":"字竹太","lat":37.250339,"lng":137.069502}]}
