{"municipality":"20204","name":"岡谷市","prefecture":"長野県","source":{"dataset":"frogcat/japan-small-area","census":"平成27年国勢調査 小地域（e-Stat 統計LOD）","license":"MIT（リポジトリ）／政府統計の総合窓口(e-Stat)の利用規約（元データ・出典表記必要）","fetched":"2026-07-06"},"towns":[{"code":"20204001001","name":"天竜町１丁目","lat":36.055477,"lng":138.044737},{"code":"20204001002","name":"天竜町２丁目","lat":36.056189,"lng":138.047807},{"code":"20204001003","name":"天竜町３丁目","lat":36.056487,"lng":138.05084},{"code":"20204002001","name":"湖畔１丁目","lat":36.055849,"lng":138.054383},{"code":"20204002002","name":"湖畔２丁目","lat":36.056693,"lng":138.056952},{"code":"20204002003","name":"湖畔３丁目","lat":36.057437,"lng":138.059502},{"code":"20204002004","name":"湖畔４丁目","lat":36.058572,"lng":138.063324},{"code":"20204003001","name":"田中町１丁目","lat":36.059553,"lng":138.053113},{"code":"20204003002","name":"田中町２丁目","lat":36.060533,"lng":138.055834},{"code":"20204003003","name":"田中町３丁目","lat":36.060889,"lng":138.058595},{"code":"20204004001","name":"成田町１丁目","lat":36.058009,"lng":138.039573},{"code":"20204004002","name":"成田町２丁目","lat":36.055372,"lng":138.03667},{"code":"202040050","name":"御倉町","lat":36.055373,"lng":138.040431},{"code":"20204006001","name":"本町１丁目","lat":36.057915,"lng":138.042967},{"code":"20204006002","name":"本町２丁目","lat":36.060224,"lng":138.043512},{"code":"20204006003","name":"本町３丁目","lat":36.062838,"lng":138.044857},{"code":"20204006004","name":"本町４丁目","lat":36.064593,"lng":138.047769},{"code":"20204007001","name":"中央町１丁目","lat":36.059379,"lng":138.04657},{"code":"20204007002","name":"中央町２丁目","lat":36.060399,"lng":138.049677},{"code":"20204007003","name":"中央町３丁目","lat":36.062611,"lng":138.049878},{"code":"202040080","name":"幸町","lat":36.066144,"lng":138.050088},{"code":"20204009001","name":"銀座１丁目","lat":36.067027,"lng":138.052089},{"code":"20204009002","name":"銀座２丁目","lat":36.068355,"lng":138.054171},{"code":"20204010001","name":"塚間町１丁目","lat":36.062238,"lng":138.052133},{"code":"20204010002","name":"塚間町２丁目","lat":36.063874,"lng":138.054057},{"code":"20204011001","name":"山手町１丁目","lat":36.062534,"lng":138.039946},{"code":"20204011002","name":"山手町２丁目","lat":36.068092,"lng":138.040514},{"code":"20204011003","name":"山手町３丁目","lat":36.068564,"lng":138.036559},{"code":"20204012001","name":"山下町１丁目","lat":36.066482,"lng":138.045118},{"code":"20204012002","name":"山下町２丁目","lat":36.070945,"lng":138.042912},{"code":"20204013001","name":"神明町１丁目","lat":36.074868,"lng":138.042226},{"code":"20204013002","name":"神明町２丁目","lat":36.075677,"lng":138.046436},{"code":"20204013003","name":"神明町３丁目","lat":36.080429,"lng":138.045057},{"code":"20204013004","name":"神明町４丁目","lat":36.080537,"lng":138.041153},{"code":"20204014001","name":"郷田１丁目","lat":36.069639,"lng":138.049134},{"code":"20204014002","name":"郷田２丁目","lat":36.072397,"lng":138.048091},{"code":"20204015001","name":"加茂町１丁目","lat":36.07114,"lng":138.052605},{"code":"20204015002","name":"加茂町２丁目","lat":36.073502,"lng":138.051376},{"code":"20204015003","name":"加茂町３丁目","lat":36.073288,"lng":138.054498},{"code":"20204015004","name":"加茂町４丁目","lat":36.074359,"lng":138.056746},{"code":"20204016001","name":"東銀座１丁目","lat":36.069203,"lng":138.057068},{"code":"20204016002","name":"東銀座２丁目","lat":36.07086,"lng":138.059384},{"code":"20204017001","name":"大栄町１丁目","lat":36.064655,"lng":138.056501},{"code":"20204017002","name":"大栄町２丁目","lat":36.06585,"lng":138.058923},{"code":"20204018001","name":"堀ノ内１丁目","lat":36.067875,"lng":138.063219},{"code":"20204018002","name":"堀ノ内２丁目","lat":36.070281,"lng":138.062306},{"code":"20204019001","name":"赤羽１丁目","lat":36.077073,"lng":138.050258},{"code":"20204019002","name":"赤羽２丁目","lat":36.080399,"lng":138.049485},{"code":"20204019003","name":"赤羽３丁目","lat":36.078103,"lng":138.053496},{"code":"20204020001","name":"若宮１丁目","lat":36.06347,"lng":138.060583},{"code":"20204020002","name":"若宮２丁目","lat":36.061045,"lng":138.061705},{"code":"20204021001","name":"南宮１丁目","lat":36.065373,"lng":138.064352},{"code":"20204021002","name":"南宮２丁目","lat":36.062316,"lng":138.065131},{"code":"20204021003","name":"南宮３丁目","lat":36.059206,"lng":138.066501},{"code":"20204022001","name":"今井","lat":36.087388,"lng":138.046987},{"code":"20204022002","name":"間下","lat":36.121099,"lng":138.056331},{"code":"20204022003","name":"岡谷","lat":36.041554,"lng":138.01083},{"code":"20204022004","name":"下浜","lat":36.047051,"lng":138.071739},{"code":"20204022005","name":"小井川","lat":36.082779,"lng":138.051433},{"code":"20204023101","name":"湊１丁目","lat":36.052161,"lng":138.0501},{"code":"20204023102","name":"湊２丁目","lat":36.046422,"lng":138.05636},{"code":"20204023103","name":"湊３丁目","lat":36.040621,"lng":138.061797},{"code":"20204023104","name":"湊４丁目","lat":36.035129,"lng":138.067531},{"code":"20204023105","name":"湊５丁目","lat":36.030739,"lng":138.073689},{"code":"202040232","name":"湊西山","lat":36.030086,"lng":138.042768},{"code":"20204024001","name":"川岸上１丁目","lat":36.051339,"lng":138.031783},{"code":"20204024002","name":"川岸上２丁目","lat":36.054726,"lng":138.029546},{"code":"20204024003","name":"川岸上３丁目","lat":36.048678,"lng":138.02659},{"code":"20204024004","name":"川岸上４丁目","lat":36.051714,"lng":138.022168},{"code":"20204025001","name":"川岸中１丁目","lat":36.0466,"lng":138.022214},{"code":"20204025002","name":"川岸中２丁目","lat":36.042061,"lng":138.025008},{"code":"20204025003","name":"川岸中３丁目","lat":36.039055,"lng":138.022653},{"code":"20204026001","name":"川岸西１丁目","lat":36.034956,"lng":138.020085},{"code":"20204026002","name":"川岸西２丁目","lat":36.02999,"lng":138.016249},{"code":"20204027001","name":"川岸東１丁目","lat":36.052553,"lng":138.0388},{"code":"20204027002","name":"川岸東２丁目","lat":36.04715,"lng":138.030649},{"code":"20204027003","name":"川岸東３丁目","lat":36.036179,"lng":138.024994},{"code":"20204027004","name":"川岸東４丁目","lat":36.027061,"lng":138.018655},{"code":"20204027005","name":"川岸東５丁目","lat":36.0183,"lng":138.013408},{"code":"20204028101","name":"長地出早１丁目","lat":36.086685,"lng":138.052689},{"code":"20204028102","name":"長地出早２丁目","lat":36.091503,"lng":138.05412},{"code":"20204028103","name":"長地出早３丁目","lat":36.087765,"lng":138.056475},{"code":"20204028201","name":"長地小萩１丁目","lat":36.082403,"lng":138.055691},{"code":"20204028202","name":"長地小萩２丁目","lat":36.084177,"lng":138.058817},{"code":"20204028203","name":"長地小萩３丁目","lat":36.080421,"lng":138.062112},{"code":"20204028301","name":"長地梨久保１丁目","lat":36.082906,"lng":138.062593},{"code":"20204028302","name":"長地梨久保２丁目","lat":36.086299,"lng":138.062483},{"code":"20204028401","name":"長地鎮１丁目","lat":36.0815,"lng":138.06833},{"code":"20204028402","name":"長地鎮２丁目","lat":36.084073,"lng":138.06837},{"code":"20204028501","name":"長地源１丁目","lat":36.079438,"lng":138.067373},{"code":"20204028502","name":"長地源２丁目","lat":36.078569,"lng":138.071441},{"code":"20204028601","name":"長地片間町１丁目","lat":36.075571,"lng":138.059359},{"code":"20204028602","name":"長地片間町２丁目","lat":36.078918,"lng":138.057328},{"code":"20204028701","name":"長地柴宮１丁目","lat":36.073162,"lng":138.064571},{"code":"20204028702","name":"長地柴宮２丁目","lat":36.076866,"lng":138.062424},{"code":"20204028703","name":"長地柴宮３丁目","lat":36.076118,"lng":138.068527},{"code":"20204028801","name":"長地御所１丁目","lat":36.070806,"lng":138.067546},{"code":"20204028802","name":"長地御所２丁目","lat":36.073066,"lng":138.071513},{"code":"20204028901","name":"長地権現町１丁目","lat":36.066959,"lng":138.068263},{"code":"20204028902","name":"長地権現町２丁目","lat":36.069068,"lng":138.072252},{"code":"20204028903","name":"長地権現町３丁目","lat":36.063353,"lng":138.072774},{"code":"20204028904","name":"長地権現町４丁目","lat":36.062439,"lng":138.068964}]}
