{"municipality":"20206","name":"諏訪市","prefecture":"長野県","source":{"dataset":"frogcat/japan-small-area","census":"平成27年国勢調査 小地域（e-Stat 統計LOD）","license":"MIT（リポジトリ）／政府統計の総合窓口(e-Stat)の利用規約（元データ・出典表記必要）","fetched":"2026-07-06"},"towns":[{"code":"20206001001","name":"大和１丁目","lat":36.060025,"lng":138.113273},{"code":"20206001002","name":"大和２丁目","lat":36.058011,"lng":138.115626},{"code":"20206001003","name":"大和３丁目","lat":36.054883,"lng":138.1165},{"code":"20206002001","name":"湯の脇１丁目","lat":36.051939,"lng":138.118294},{"code":"20206002002","name":"湯の脇２丁目","lat":36.050448,"lng":138.116541},{"code":"20206003001","name":"湖岸通り１丁目","lat":36.058261,"lng":138.11116},{"code":"20206003002","name":"湖岸通り２丁目","lat":36.053442,"lng":138.113397},{"code":"20206003003","name":"湖岸通り３丁目","lat":36.049827,"lng":138.114116},{"code":"20206003004","name":"湖岸通り４丁目","lat":36.047161,"lng":138.113622},{"code":"20206003005","name":"湖岸通り５丁目","lat":36.044071,"lng":138.110282},{"code":"20206004001","name":"諏訪１丁目","lat":36.046684,"lng":138.117832},{"code":"20206004002","name":"諏訪２丁目","lat":36.042855,"lng":138.120752},{"code":"20206005001","name":"岡村１丁目","lat":36.043181,"lng":138.12344},{"code":"20206005002","name":"岡村２丁目","lat":36.04456,"lng":138.126088},{"code":"202060060","name":"元町","lat":36.040192,"lng":138.125679},{"code":"20206007001","name":"清水１丁目","lat":36.038048,"lng":138.12432},{"code":"20206007002","name":"清水２丁目","lat":36.035577,"lng":138.123993},{"code":"20206007003","name":"清水３丁目","lat":36.033726,"lng":138.121294},{"code":"202060080","name":"赤羽根","lat":36.03335,"lng":138.125198},{"code":"202060090","name":"小和田","lat":36.039466,"lng":138.119965},{"code":"202060100","name":"末広","lat":36.042873,"lng":138.118078},{"code":"20206011001","name":"大手１丁目","lat":36.04496,"lng":138.115328},{"code":"20206011002","name":"大手２丁目","lat":36.042573,"lng":138.115893},{"code":"20206012001","name":"高島１丁目","lat":36.039259,"lng":138.112561},{"code":"20206012002","name":"高島２丁目","lat":36.041139,"lng":138.107812},{"code":"20206012003","name":"高島３丁目","lat":36.039088,"lng":138.106551},{"code":"20206012004","name":"高島４丁目","lat":36.035413,"lng":138.111647},{"code":"202060130","name":"小和田南","lat":36.038728,"lng":138.117099},{"code":"20206014001","name":"城南１丁目","lat":36.034807,"lng":138.116013},{"code":"20206014002","name":"城南２丁目","lat":36.032307,"lng":138.119108},{"code":"20206015001","name":"上川１丁目","lat":36.035786,"lng":138.105905},{"code":"20206015002","name":"上川２丁目","lat":36.031253,"lng":138.112215},{"code":"20206015003","name":"上川３丁目","lat":36.028969,"lng":138.117542},{"code":"202060160","name":"渋崎","lat":36.035988,"lng":138.100757},{"code":"202060170","name":"杉菜池","lat":36.029378,"lng":138.109701},{"code":"20206018001","name":"沖田町１丁目","lat":36.009728,"lng":138.133798},{"code":"20206018002","name":"沖田町２丁目","lat":36.005744,"lng":138.135138},{"code":"20206018003","name":"沖田町３丁目","lat":36.003572,"lng":138.133891},{"code":"20206018004","name":"沖田町４丁目","lat":36.007581,"lng":138.131622},{"code":"20206018005","name":"沖田町５丁目","lat":36.005574,"lng":138.129587},{"code":"202060190","name":"南町","lat":36.000328,"lng":138.130848},{"code":"20206020001","name":"大字上諏訪双葉ケ丘","lat":36.048773,"lng":138.12804},{"code":"20206020002","name":"大字上諏訪尾玉町","lat":36.046254,"lng":138.133061},{"code":"20206020003","name":"大字上諏訪金山","lat":36.055001,"lng":138.130464},{"code":"20206020004","name":"大字上諏訪角間新田","lat":36.06509,"lng":138.133818},{"code":"20206020005","name":"大字上諏訪茶臼山","lat":36.047637,"lng":138.120417},{"code":"20206020006","name":"大字上諏訪桜ケ丘","lat":36.045966,"lng":138.122813},{"code":"20206020007","name":"大字上諏訪立石町","lat":36.053028,"lng":138.124744},{"code":"20206020008","name":"大字上諏訪緑ケ丘","lat":36.051885,"lng":138.129197},{"code":"20206020009","name":"大字上諏訪強清水","lat":36.101432,"lng":138.171189},{"code":"20206020010","name":"大字上諏訪郊外","lat":36.066414,"lng":138.134341},{"code":"20206020011","name":"大字上諏訪舟渡川西","lat":36.028719,"lng":138.108376},{"code":"20206020012","name":"大字上諏訪北沢二区","lat":36.046331,"lng":138.126468},{"code":"20206020013","name":"大字上諏訪東榊町","lat":36.040749,"lng":138.131169},{"code":"20206020014","name":"大字上諏訪湯の脇一区","lat":36.049667,"lng":138.119209},{"code":"20206020015","name":"大字上諏訪くるみ台","lat":36.060946,"lng":138.131355},{"code":"20206021001","name":"大字豊田文出","lat":36.030418,"lng":138.10153},{"code":"20206021002","name":"大字豊田文出","lat":36.026635,"lng":138.101151},{"code":"20206021003","name":"大字豊田小川","lat":36.026965,"lng":138.093048},{"code":"20206021004","name":"大字豊田有賀","lat":36.022905,"lng":138.083677},{"code":"20206021005","name":"大字豊田上野","lat":36.012901,"lng":138.057202},{"code":"20206021006","name":"大字豊田覗石","lat":36.003029,"lng":138.059892},{"code":"20206022001","name":"大字四賀武津","lat":36.029331,"lng":138.123663},{"code":"20206022002","name":"大字四賀細久保","lat":36.02759,"lng":138.126387},{"code":"20206022003","name":"大字四賀普門寺","lat":36.02527,"lng":138.130269},{"code":"20206022004","name":"大字四賀桑原","lat":36.020887,"lng":138.134411},{"code":"20206022005","name":"大字四賀神戸","lat":36.014798,"lng":138.138621},{"code":"20206022006","name":"大字四賀神戸雇用促進住宅","lat":36.016739,"lng":138.139744},{"code":"20206022007","name":"大字四賀飯島","lat":36.013673,"lng":138.130231},{"code":"20206022008","name":"大字四賀赤沼","lat":36.020406,"lng":138.12563},{"code":"20206022009","name":"大字四賀開拓地","lat":36.062258,"lng":138.158393},{"code":"20206022010","name":"大字四賀郊外","lat":36.026661,"lng":138.145805},{"code":"20206023001","name":"大字中洲神宮寺","lat":36.000991,"lng":138.120574},{"code":"20206023002","name":"大字中洲上金子","lat":36.004707,"lng":138.124195},{"code":"20206023003","name":"大字中洲中金子","lat":36.011473,"lng":138.123819},{"code":"20206023004","name":"大字中洲下金子","lat":36.018093,"lng":138.112978},{"code":"20206023005","name":"大字中洲福島","lat":36.021301,"lng":138.117296},{"code":"20206023006","name":"大字中洲福島新町","lat":36.02227,"lng":138.11927},{"code":"20206023007","name":"大字中洲北福島","lat":36.024151,"lng":138.117973},{"code":"20206023008","name":"大字中洲中洲郊外","lat":35.982884,"lng":138.11243},{"code":"20206024001","name":"大字湖南田辺","lat":36.011642,"lng":138.111143},{"code":"20206024002","name":"大字湖南大熊","lat":36.004306,"lng":138.107999},{"code":"20206024003","name":"大字湖南南真志野","lat":36.010933,"lng":138.09953},{"code":"20206024004","name":"大字湖南北真志野","lat":36.015981,"lng":138.093252},{"code":"20206024005","name":"大字湖南後山","lat":35.969277,"lng":138.056874},{"code":"20206024006","name":"大字湖南板沢・青木沢","lat":35.983299,"lng":138.080761},{"code":"202060250","name":"諏訪湖","lat":36.04642,"lng":138.096789}]}
