{"municipality":"20210","name":"駒ヶ根市","prefecture":"長野県","source":{"dataset":"frogcat/japan-small-area","census":"平成27年国勢調査 小地域（e-Stat 統計LOD）","license":"MIT（リポジトリ）／政府統計の総合窓口(e-Stat)の利用規約（元データ・出典表記必要）","fetched":"2026-07-06"},"towns":[{"code":"20210010011","name":"赤穂南割","lat":35.731526,"lng":137.852632},{"code":"20210010012","name":"赤穂中割","lat":35.726933,"lng":137.908762},{"code":"20210010013","name":"赤穂北割２区","lat":35.733523,"lng":137.910954},{"code":"20210010014","name":"赤穂北割１区","lat":35.741561,"lng":137.907264},{"code":"20210010015","name":"赤穂小町屋","lat":35.723004,"lng":137.935535},{"code":"20210010016","name":"赤穂福岡","lat":35.708823,"lng":137.921223},{"code":"20210010017","name":"赤穂市場割","lat":35.71583,"lng":137.943741},{"code":"20210010018","name":"赤穂上赤須","lat":35.710201,"lng":137.954249},{"code":"20210010019","name":"赤穂下平","lat":35.734314,"lng":137.960051},{"code":"20210010022","name":"赤穂町２区","lat":35.730045,"lng":137.952149},{"code":"20210010024","name":"赤穂町４区","lat":35.746354,"lng":137.94349},{"code":"20210010025","name":"赤穂上穂町","lat":35.745846,"lng":137.932147},{"code":"20210020031","name":"大字中沢吉瀬","lat":35.693473,"lng":137.956818},{"code":"20210020032","name":"大字中沢永見山","lat":35.706075,"lng":137.98505},{"code":"20210020033","name":"大字中沢菅沼","lat":35.724624,"lng":137.974336},{"code":"20210020034","name":"大字中沢下割","lat":35.73237,"lng":137.978547},{"code":"20210020035","name":"大字中沢中割","lat":35.713529,"lng":137.992951},{"code":"20210020036","name":"大字中沢上割","lat":35.726561,"lng":138.029429},{"code":"20210020037","name":"大字中沢中山","lat":35.732011,"lng":138.023022},{"code":"20210020038","name":"大字中沢大曽倉","lat":35.750655,"lng":138.022988},{"code":"20210020039","name":"大字中沢中曽倉","lat":35.725417,"lng":138.004195},{"code":"20210020040","name":"大字中沢本曽倉","lat":35.729491,"lng":137.990546},{"code":"20210020041","name":"大字中沢原","lat":35.737446,"lng":137.981532},{"code":"20210020042","name":"大字中沢南入","lat":35.690235,"lng":138.005208},{"code":"20210030051","name":"大字東伊那伊那","lat":35.741509,"lng":137.979045},{"code":"20210030052","name":"大字東伊那栗林","lat":35.749762,"lng":137.977695},{"code":"20210030053","name":"大字東伊那火山","lat":35.765782,"lng":137.992319},{"code":"20210030054","name":"大字東伊那塩田","lat":35.758201,"lng":137.973056},{"code":"20210030055","name":"大字東伊那大久保","lat":35.759553,"lng":137.963154},{"code":"20210051021","name":"上穂南","lat":35.730479,"lng":137.932422},{"code":"20210051025","name":"上穂南","lat":35.733056,"lng":137.931594},{"code":"202100520","name":"上穂栄町","lat":35.73713,"lng":137.931452},{"code":"202100530","name":"上穂北","lat":35.741685,"lng":137.933258},{"code":"20210054015","name":"赤須町","lat":35.728758,"lng":137.933611},{"code":"20210054021","name":"赤須町","lat":35.731345,"lng":137.934511},{"code":"20210055022","name":"中央","lat":35.734762,"lng":137.934984},{"code":"20210055023","name":"中央","lat":35.736526,"lng":137.935272},{"code":"202100560","name":"北町","lat":35.741091,"lng":137.937062},{"code":"202100610","name":"赤須東","lat":35.7325,"lng":137.938216},{"code":"20210062022","name":"東町","lat":35.735091,"lng":137.938213},{"code":"20210062024","name":"東町","lat":35.738257,"lng":137.939217},{"code":"202100630","name":"経塚","lat":35.72973,"lng":137.942938},{"code":"202100640","name":"梨の木","lat":35.732805,"lng":137.943725},{"code":"20210065022","name":"飯坂１丁目","lat":35.73471,"lng":137.94145},{"code":"20210065023","name":"飯坂１丁目","lat":35.737421,"lng":137.9449},{"code":"20210065024","name":"飯坂１丁目","lat":35.737301,"lng":137.940839},{"code":"202100660","name":"飯坂２丁目","lat":35.73676,"lng":137.951487},{"code":"202100710","name":"南田","lat":35.729738,"lng":137.937996},{"code":"202100720","name":"下市場","lat":35.726247,"lng":137.937822}]}
