{"municipality":"20305","name":"南佐久郡南牧村","prefecture":"長野県","source":{"dataset":"frogcat/japan-small-area","census":"平成27年国勢調査 小地域（e-Stat 統計LOD）","license":"MIT（リポジトリ）／政府統計の総合窓口(e-Stat)の利用規約（元データ・出典表記必要）","fetched":"2026-07-06"},"towns":[{"code":"203050010","name":"大字海尻","lat":36.01787,"lng":138.425978},{"code":"20305002001","name":"大字海ノ口森下","lat":36.015453,"lng":138.475231},{"code":"20305002002","name":"大字海ノ口本村","lat":36.005625,"lng":138.489003},{"code":"20305002003","name":"大字海ノ口市場","lat":35.985025,"lng":138.428761},{"code":"20305003001","name":"大字広瀬広瀬","lat":36.013922,"lng":138.515652},{"code":"20305003002","name":"大字広瀬川平","lat":35.998057,"lng":138.531541},{"code":"203050040","name":"大字板橋","lat":35.97425,"lng":138.482087},{"code":"203050050","name":"大字平沢","lat":35.91754,"lng":138.471687},{"code":"203050060","name":"大字野辺山","lat":35.954616,"lng":138.460509}]}
