{"municipality":"20362","name":"諏訪郡富士見町","prefecture":"長野県","source":{"dataset":"frogcat/japan-small-area","census":"平成27年国勢調査 小地域（e-Stat 統計LOD）","license":"MIT（リポジトリ）／政府統計の総合窓口(e-Stat)の利用規約（元データ・出典表記必要）","fetched":"2026-07-06"},"towns":[{"code":"20362001001","name":"富士見御射山神戸","lat":35.928898,"lng":138.210062},{"code":"20362001002","name":"富士見栗生","lat":35.918633,"lng":138.207372},{"code":"20362001003","name":"富士見大平","lat":35.913973,"lng":138.214439},{"code":"20362001004","name":"富士見松目","lat":35.905616,"lng":138.210608},{"code":"20362001005","name":"富士見原ノ茶屋","lat":35.912523,"lng":138.22434},{"code":"20362001006","name":"富士見若宮","lat":35.903966,"lng":138.222787},{"code":"20362001007","name":"富士見木之間","lat":35.894353,"lng":138.220939},{"code":"20362001008","name":"富士見花場","lat":35.880409,"lng":138.222374},{"code":"20362001009","name":"富士見休戸","lat":35.885577,"lng":138.232689},{"code":"20362001010","name":"富士見横吹","lat":35.893539,"lng":138.2358},{"code":"20362001011","name":"富士見とちの木","lat":35.899749,"lng":138.235858},{"code":"20362001012","name":"富士見富士見","lat":35.912923,"lng":138.234066},{"code":"20362001013","name":"富士見南原山","lat":35.925449,"lng":138.231818},{"code":"20362001014","name":"富士見富原","lat":35.934941,"lng":138.223051},{"code":"20362001015","name":"富士見富士見ヶ丘","lat":35.912177,"lng":138.227726},{"code":"20362001016","name":"富士見塚平","lat":35.905627,"lng":138.231477},{"code":"20362001017","name":"富士見入笠山","lat":35.898297,"lng":138.191814},{"code":"20362001018","name":"富士見富ヶ丘","lat":35.925045,"lng":138.234448},{"code":"203620020","name":"乙事","lat":35.91249,"lng":138.266351},{"code":"20362003001","name":"立沢立沢","lat":35.937369,"lng":138.264443},{"code":"20362003002","name":"立沢広原","lat":35.943556,"lng":138.304276},{"code":"20362004001","name":"落合下蔦木","lat":35.865068,"lng":138.28439},{"code":"20362004002","name":"落合上蔦木","lat":35.871315,"lng":138.273513},{"code":"20362004003","name":"落合神代","lat":35.87988,"lng":138.263388},{"code":"20362004004","name":"落合烏帽子","lat":35.889566,"lng":138.268682},{"code":"20362004005","name":"落合平岡","lat":35.885939,"lng":138.259445},{"code":"20362004006","name":"落合机","lat":35.892848,"lng":138.254312},{"code":"20362004007","name":"落合先能","lat":35.886622,"lng":138.240402},{"code":"20362004008","name":"落合瀬沢","lat":35.897069,"lng":138.243773},{"code":"20362004009","name":"落合釡無","lat":35.83577,"lng":138.197478},{"code":"20362004010","name":"落合瀬沢新田","lat":35.919638,"lng":138.249685},{"code":"20362004011","name":"落合富里","lat":35.910283,"lng":138.240641},{"code":"20362004012","name":"落合富士見台","lat":35.904267,"lng":138.243345},{"code":"20362004013","name":"落合桜ヶ丘","lat":35.918097,"lng":138.24065},{"code":"20362005001","name":"境小六","lat":35.905477,"lng":138.279074},{"code":"20362005002","name":"境高森","lat":35.893051,"lng":138.283315},{"code":"20362005003","name":"境信濃境","lat":35.880554,"lng":138.27412},{"code":"20362005004","name":"境池袋","lat":35.878801,"lng":138.281821},{"code":"20362005005","name":"境田端","lat":35.873699,"lng":138.290538},{"code":"20362005006","name":"境先達","lat":35.88129,"lng":138.295449},{"code":"20362005007","name":"境葛窪","lat":35.891207,"lng":138.299618},{"code":"20362005008","name":"境広原","lat":35.923313,"lng":138.322926}]}
