{"municipality":"20383","name":"上伊那郡箕輪町","prefecture":"長野県","source":{"dataset":"frogcat/japan-small-area","census":"平成27年国勢調査 小地域（e-Stat 統計LOD）","license":"MIT（リポジトリ）／政府統計の総合窓口(e-Stat)の利用規約（元データ・出典表記必要）","fetched":"2026-07-06"},"towns":[{"code":"20383001001","name":"大字中箕輪沢","lat":35.940091,"lng":137.971423},{"code":"20383001002","name":"大字中箕輪大出","lat":35.932691,"lng":137.970119},{"code":"20383001003","name":"大字中箕輪八乙女","lat":35.930192,"lng":137.964479},{"code":"20383001004","name":"大字中箕輪下古田","lat":35.931821,"lng":137.947128},{"code":"20383001005","name":"大字中箕輪上古田","lat":35.922828,"lng":137.944209},{"code":"20383001006","name":"大字中箕輪中原","lat":35.920292,"lng":137.963818},{"code":"20383001007","name":"大字中箕輪松島","lat":35.916222,"lng":137.981933},{"code":"20383001008","name":"大字中箕輪木下","lat":35.906166,"lng":137.966335},{"code":"20383001009","name":"大字中箕輪富田","lat":35.929027,"lng":137.923257},{"code":"203830020","name":"大字中曽根","lat":35.906317,"lng":137.947863},{"code":"203830030","name":"大字三日町","lat":35.906134,"lng":138.013662},{"code":"203830040","name":"大字福与","lat":35.89392,"lng":138.015398},{"code":"20383005001","name":"大字東箕輪長岡","lat":35.934573,"lng":138.04132},{"code":"20383005002","name":"大字東箕輪南小河内","lat":35.932327,"lng":137.998297},{"code":"20383005003","name":"大字東箕輪北小河内","lat":35.943614,"lng":137.996658}]}
