{"municipality":"21303","name":"羽島郡笠松町","prefecture":"岐阜県","source":{"dataset":"frogcat/japan-small-area","census":"平成27年国勢調査 小地域（e-Stat 統計LOD）","license":"MIT（リポジトリ）／政府統計の総合窓口(e-Stat)の利用規約（元データ・出典表記必要）","fetched":"2026-07-06"},"towns":[{"code":"213030010","name":"上新町","lat":35.372335,"lng":136.761426},{"code":"213030020","name":"中新町","lat":35.371126,"lng":136.76062},{"code":"213030030","name":"下新町","lat":35.370014,"lng":136.760297},{"code":"213030040","name":"新町","lat":35.368521,"lng":136.761019},{"code":"213030050","name":"西宮町","lat":35.367811,"lng":136.760172},{"code":"213030060","name":"東宮町","lat":35.366378,"lng":136.760809},{"code":"213030070","name":"天王町","lat":35.369079,"lng":136.758732},{"code":"213030080","name":"西町","lat":35.365195,"lng":136.760367},{"code":"213030090","name":"柳原町","lat":35.363893,"lng":136.760707},{"code":"213030100","name":"下本町","lat":35.365711,"lng":136.761745},{"code":"213030110","name":"上本町","lat":35.367309,"lng":136.761981},{"code":"213030120","name":"司町","lat":35.366589,"lng":136.7629},{"code":"213030130","name":"港町","lat":35.364399,"lng":136.763537},{"code":"213030140","name":"相生町","lat":35.366595,"lng":136.765657},{"code":"213030150","name":"県町","lat":35.368305,"lng":136.763948},{"code":"213030160","name":"八幡町","lat":35.369615,"lng":136.763229},{"code":"213030170","name":"宮川町","lat":35.369947,"lng":136.762205},{"code":"213030180","name":"二見町","lat":35.371151,"lng":136.762999},{"code":"213030190","name":"奈良町","lat":35.372678,"lng":136.763864},{"code":"213030200","name":"西金池町","lat":35.374351,"lng":136.765843},{"code":"213030210","name":"東金池町","lat":35.3746,"lng":136.76858},{"code":"213030220","name":"若葉町","lat":35.370687,"lng":136.767375},{"code":"213030230","name":"上柳川町","lat":35.366861,"lng":136.759475},{"code":"213030240","name":"下柳川町","lat":35.365951,"lng":136.758576},{"code":"213030250","name":"門前町","lat":35.367432,"lng":136.757666},{"code":"213030260","name":"泉町","lat":35.364617,"lng":136.757153},{"code":"213030270","name":"清住町","lat":35.369825,"lng":136.757348},{"code":"213030280","name":"弥生町","lat":35.371369,"lng":136.758315},{"code":"213030290","name":"如月町","lat":35.372989,"lng":136.759379},{"code":"213030300","name":"大池町","lat":35.368211,"lng":136.756322},{"code":"213030310","name":"朝日町","lat":35.364703,"lng":136.759167},{"code":"21303032001","name":"美笠通１丁目","lat":35.374464,"lng":136.758903},{"code":"21303032002","name":"美笠通２丁目","lat":35.37166,"lng":136.75717},{"code":"21303032003","name":"美笠通３丁目","lat":35.36904,"lng":136.755504},{"code":"213030350","name":"中川町","lat":35.373616,"lng":136.757136},{"code":"213030360","name":"瓢町","lat":35.369757,"lng":136.754653},{"code":"213030370","name":"友楽町","lat":35.371445,"lng":136.755678},{"code":"213030380","name":"桜町","lat":35.371672,"lng":136.754255},{"code":"213030390","name":"羽衣町","lat":35.37555,"lng":136.757071},{"code":"213030400","name":"春日町","lat":35.374644,"lng":136.762167},{"code":"213030410","name":"常盤町","lat":35.374645,"lng":136.76077},{"code":"213030420","name":"東陽町","lat":35.374853,"lng":136.76334},{"code":"213030430","name":"松栄町","lat":35.376923,"lng":136.763754},{"code":"213030440","name":"緑町","lat":35.376527,"lng":136.759636},{"code":"213030450","name":"月美町","lat":35.377727,"lng":136.761145},{"code":"213030460","name":"田代","lat":35.362084,"lng":136.7527},{"code":"213030470","name":"長池","lat":35.356725,"lng":136.753412},{"code":"213030480","name":"北及","lat":35.350656,"lng":136.747185},{"code":"213030490","name":"門間","lat":35.354603,"lng":136.737347},{"code":"213030500","name":"円城寺","lat":35.374356,"lng":136.782354},{"code":"213030510","name":"中野","lat":35.373211,"lng":136.792993},{"code":"213030520","name":"無動寺","lat":35.370471,"lng":136.797946},{"code":"213030530","name":"江川","lat":35.375217,"lng":136.802511},{"code":"213030540","name":"米野","lat":35.378418,"lng":136.810834}]}
