{"municipality":"21383","name":"安八郡安八町","prefecture":"岐阜県","source":{"dataset":"frogcat/japan-small-area","census":"平成27年国勢調査 小地域（e-Stat 統計LOD）","license":"MIT（リポジトリ）／政府統計の総合窓口(e-Stat)の利用規約（元データ・出典表記必要）","fetched":"2026-07-06"},"towns":[{"code":"213830010","name":"大野","lat":35.326605,"lng":136.659709},{"code":"213830020","name":"大森","lat":35.327998,"lng":136.674134},{"code":"21383003001","name":"北今ケ渕青刈","lat":35.341328,"lng":136.659349},{"code":"21383003002","name":"北今ケ渕本村","lat":35.342804,"lng":136.666256},{"code":"21383003003","name":"北今ケ渕横堀","lat":35.343903,"lng":136.670831},{"code":"21383003004","name":"北今ケ渕杁ノ戸","lat":35.3473,"lng":136.673978},{"code":"213830040","name":"氷取","lat":35.3318,"lng":136.665146},{"code":"21383005001","name":"城１丁目","lat":35.332474,"lng":136.659695},{"code":"21383005002","name":"城２丁目","lat":35.331511,"lng":136.65916},{"code":"21383005003","name":"城３丁目","lat":35.330592,"lng":136.65853},{"code":"21383005004","name":"城４丁目","lat":35.333363,"lng":136.658097},{"code":"213830060","name":"善光","lat":35.323116,"lng":136.667874},{"code":"213830070","name":"外善光","lat":35.324391,"lng":136.652},{"code":"213830080","name":"大明神","lat":35.337241,"lng":136.659284},{"code":"213830090","name":"中","lat":35.312933,"lng":136.654574},{"code":"213830100","name":"中須","lat":35.333416,"lng":136.655007},{"code":"21383011001","name":"西結津村方","lat":35.377804,"lng":136.657715},{"code":"21383011002","name":"西結町屋","lat":35.371123,"lng":136.659763},{"code":"21383011003","name":"西結中組","lat":35.36286,"lng":136.660705},{"code":"21383011004","name":"西結西蚊塚","lat":35.35483,"lng":136.664507},{"code":"21383011005","name":"西結五和野","lat":35.348708,"lng":136.667456},{"code":"21383011006","name":"西結領家","lat":35.348592,"lng":136.659866},{"code":"21383011007","name":"西結板屋島","lat":35.346031,"lng":136.663},{"code":"21383012001","name":"東結上村","lat":35.366444,"lng":136.665001},{"code":"21383012002","name":"東結入方","lat":35.36386,"lng":136.671237},{"code":"21383012003","name":"東結芝原","lat":35.359763,"lng":136.66614},{"code":"21383012004","name":"東結東蚊塚","lat":35.354994,"lng":136.670618},{"code":"213830130","name":"牧","lat":35.326605,"lng":136.644921},{"code":"213830140","name":"南今ケ渕","lat":35.338441,"lng":136.668645},{"code":"213830150","name":"南條","lat":35.31868,"lng":136.661121},{"code":"21383016001","name":"森部山之神","lat":35.343422,"lng":136.679097},{"code":"21383016002","name":"森部一色","lat":35.343225,"lng":136.68367},{"code":"21383016003","name":"森部表寺内","lat":35.341177,"lng":136.685261},{"code":"21383016004","name":"森部下屋敷","lat":35.33829,"lng":136.680576},{"code":"21383016005","name":"森部下河原","lat":35.331919,"lng":136.681502},{"code":"21383016006","name":"森部八幡","lat":35.334873,"lng":136.680234},{"code":"213830170","name":"西結","lat":35.37048,"lng":136.665077}]}
