{"municipality":"22103","name":"静岡市清水区","prefecture":"静岡県","source":{"dataset":"frogcat/japan-small-area","census":"平成27年国勢調査 小地域（e-Stat 統計LOD）","license":"MIT（リポジトリ）／政府統計の総合窓口(e-Stat)の利用規約（元データ・出典表記必要）","fetched":"2026-07-06"},"towns":[{"code":"221030010","name":"秋吉町","lat":35.030188,"lng":138.480479},{"code":"22103002001","name":"辻１丁目","lat":35.027337,"lng":138.488841},{"code":"22103002002","name":"辻２丁目","lat":35.027149,"lng":138.486971},{"code":"22103002003","name":"辻３丁目","lat":35.0303,"lng":138.488011},{"code":"22103002004","name":"辻４丁目","lat":35.027909,"lng":138.485221},{"code":"22103002005","name":"辻５丁目","lat":35.029811,"lng":138.483539},{"code":"221030030","name":"宮下町","lat":35.03222,"lng":138.486275},{"code":"221030040","name":"矢倉町","lat":35.030935,"lng":138.485152},{"code":"221030050","name":"真砂町","lat":35.021712,"lng":138.488027},{"code":"221030060","name":"愛染町","lat":35.028924,"lng":138.490313},{"code":"221030070","name":"田町","lat":35.033304,"lng":138.487734},{"code":"221030080","name":"永楽町","lat":35.025201,"lng":138.474893},{"code":"22103009001","name":"天神１丁目","lat":35.025994,"lng":138.480332},{"code":"22103009002","name":"天神２丁目","lat":35.026048,"lng":138.478917},{"code":"221030100","name":"江尻台町","lat":35.023259,"lng":138.475637},{"code":"22103011001","name":"大手１丁目","lat":35.025078,"lng":138.481839},{"code":"22103011002","name":"大手２丁目","lat":35.027175,"lng":138.481869},{"code":"22103011003","name":"大手３丁目","lat":35.028635,"lng":138.481739},{"code":"221030120","name":"宮代町","lat":35.026106,"lng":138.483421},{"code":"221030130","name":"本郷町","lat":35.024548,"lng":138.485695},{"code":"221030140","name":"二の丸町","lat":35.022275,"lng":138.479472},{"code":"221030150","name":"江尻町","lat":35.020174,"lng":138.481603},{"code":"221030160","name":"小芝町","lat":35.023017,"lng":138.482491},{"code":"221030170","name":"宝町","lat":35.021644,"lng":138.482524},{"code":"22103018001","name":"江尻東１丁目","lat":35.022923,"lng":138.485593},{"code":"22103018002","name":"江尻東２丁目","lat":35.021615,"lng":138.485536},{"code":"22103018003","name":"江尻東３丁目","lat":35.020182,"lng":138.485759},{"code":"221030190","name":"銀座","lat":35.018616,"lng":138.485388},{"code":"221030200","name":"高橋南町","lat":35.027218,"lng":138.476278},{"code":"221030210","name":"恵比寿町","lat":35.015583,"lng":138.467961},{"code":"221030220","name":"桜橋町","lat":35.014399,"lng":138.476241},{"code":"221030230","name":"淡島町","lat":35.014573,"lng":138.47882},{"code":"22103024001","name":"入江１丁目","lat":35.018385,"lng":138.481184},{"code":"22103024002","name":"入江２丁目","lat":35.017754,"lng":138.479113},{"code":"22103024003","name":"入江３丁目","lat":35.017485,"lng":138.476774},{"code":"221030250","name":"入江南町","lat":35.016042,"lng":138.47889},{"code":"22103026001","name":"追分１丁目","lat":35.015871,"lng":138.473846},{"code":"22103026002","name":"追分２丁目","lat":35.013584,"lng":138.47285},{"code":"22103026003","name":"追分３丁目","lat":35.014675,"lng":138.470324},{"code":"22103026004","name":"追分４丁目","lat":35.013473,"lng":138.467067},{"code":"221030270","name":"新富町","lat":35.016307,"lng":138.481785},{"code":"221030280","name":"鶴舞町","lat":35.017103,"lng":138.473066},{"code":"221030290","name":"西大曲町","lat":35.020058,"lng":138.472368},{"code":"221030300","name":"東大曲町","lat":35.020972,"lng":138.474645},{"code":"221030310","name":"元城町","lat":35.019595,"lng":138.476964},{"code":"22103032000","name":"渋川","lat":35.016572,"lng":138.467225},{"code":"22103032001","name":"渋川１丁目","lat":35.022662,"lng":138.470374},{"code":"22103032002","name":"渋川２丁目","lat":35.019677,"lng":138.469666},{"code":"22103032003","name":"渋川３丁目","lat":35.019114,"lng":138.467444},{"code":"221030330","name":"北脇新田","lat":35.023127,"lng":138.463923},{"code":"221030340","name":"相生町","lat":35.016256,"lng":138.488353},{"code":"221030350","name":"旭町","lat":35.01613,"lng":138.489446},{"code":"221030360","name":"島崎町","lat":35.018082,"lng":138.491317},{"code":"221030370","name":"巴町","lat":35.01602,"lng":138.486974},{"code":"221030380","name":"千歳町","lat":35.014703,"lng":138.485009},{"code":"22103039001","name":"上１丁目","lat":35.011412,"lng":138.485508},{"code":"22103039002","name":"上２丁目","lat":35.00987,"lng":138.486357},{"code":"22103040001","name":"万世町１丁目","lat":35.012465,"lng":138.487407},{"code":"22103040002","name":"万世町２丁目","lat":35.012559,"lng":138.489055},{"code":"221030410","name":"入江岡町","lat":35.012927,"lng":138.480034},{"code":"221030420","name":"浜田町","lat":35.014023,"lng":138.4825},{"code":"221030430","name":"松原町","lat":35.012565,"lng":138.490914},{"code":"221030440","name":"上清水町","lat":35.010942,"lng":138.482152},{"code":"221030450","name":"新港町","lat":35.013448,"lng":138.494099},{"code":"221030460","name":"青葉町","lat":35.008739,"lng":138.475739},{"code":"221030470","name":"桜が丘町","lat":35.01074,"lng":138.47782},{"code":"221030480","name":"西高町","lat":35.007876,"lng":138.472993},{"code":"221030490","name":"梅田町","lat":35.00677,"lng":138.487284},{"code":"221030500","name":"梅が岡","lat":35.00467,"lng":138.482944},{"code":"221030510","name":"岡町","lat":35.008074,"lng":138.484393},{"code":"221030520","name":"下清水町","lat":35.007845,"lng":138.482137},{"code":"221030530","name":"南岡町","lat":35.005468,"lng":138.485368},{"code":"221030540","name":"神田町","lat":35.006093,"lng":138.479706},{"code":"221030550","name":"月見町","lat":35.002951,"lng":138.480184},{"code":"221030560","name":"大沢町","lat":35.003513,"lng":138.475192},{"code":"221030570","name":"川原町","lat":35.000814,"lng":138.476539},{"code":"221030580","name":"中矢部町","lat":34.999957,"lng":138.478971},{"code":"22103059001","name":"春日１丁目","lat":35.012071,"lng":138.473819},{"code":"22103059002","name":"春日２丁目","lat":35.010583,"lng":138.472944},{"code":"22103060001","name":"堂林１丁目","lat":35.007671,"lng":138.477325},{"code":"22103060002","name":"堂林２丁目","lat":35.005835,"lng":138.477199},{"code":"221030610","name":"木の下町","lat":35.004288,"lng":138.469209},{"code":"221030620","name":"船越","lat":34.996992,"lng":138.467148},{"code":"22103063001","name":"船越１丁目","lat":35.001949,"lng":138.466639},{"code":"22103063002","name":"船越２丁目","lat":35.000514,"lng":138.468273},{"code":"22103063003","name":"船越３丁目","lat":34.999084,"lng":138.470636},{"code":"221030640","name":"北矢部","lat":34.991397,"lng":138.468318},{"code":"221030650","name":"船越南町","lat":35.001121,"lng":138.472041},{"code":"221030660","name":"船越東町","lat":35.002932,"lng":138.473058},{"code":"22103067001","name":"船原１丁目","lat":35.007496,"lng":138.469305},{"code":"22103067002","name":"船原２丁目","lat":35.005976,"lng":138.47164},{"code":"22103068001","name":"大坪１丁目","lat":35.011556,"lng":138.468375},{"code":"22103068002","name":"大坪２丁目","lat":35.009934,"lng":138.469209},{"code":"221030690","name":"南矢部","lat":34.996197,"lng":138.475355},{"code":"221030700","name":"今泉","lat":35.003843,"lng":138.463948},{"code":"221030710","name":"清水町","lat":35.0065,"lng":138.489717},{"code":"221030720","name":"本町","lat":35.00843,"lng":138.488335},{"code":"221030730","name":"松井町","lat":35.002981,"lng":138.491389},{"code":"22103074001","name":"港町１丁目","lat":35.00901,"lng":138.492998},{"code":"22103074002","name":"港町２丁目","lat":35.007611,"lng":138.492855},{"code":"221030750","name":"美濃輪町","lat":35.005128,"lng":138.490874},{"code":"221030760","name":"八千代町","lat":35.00328,"lng":138.488863},{"code":"22103077001","name":"北矢部町１丁目","lat":35.002589,"lng":138.483851},{"code":"22103077002","name":"北矢部町２丁目","lat":35.000769,"lng":138.484453},{"code":"221030780","name":"幸町","lat":35.000685,"lng":138.492614},{"code":"221030790","name":"三光町","lat":35.002646,"lng":138.487054},{"code":"221030800","name":"富士見町","lat":35.01,"lng":138.489191},{"code":"221030810","name":"入船町","lat":35.010205,"lng":138.491752},{"code":"221030820","name":"築地町","lat":35.004759,"lng":138.493565},{"code":"221030830","name":"日の出町","lat":35.00619,"lng":138.49619},{"code":"221030840","name":"庄福町","lat":34.998957,"lng":138.479889},{"code":"221030850","name":"清水村松地先新田","lat":34.992477,"lng":138.495786},{"code":"221030860","name":"新緑町","lat":34.994187,"lng":138.489218},{"code":"221030870","name":"沼田町","lat":34.997035,"lng":138.483875},{"code":"221030880","name":"日立町","lat":34.995053,"lng":138.484862},{"code":"221030890","name":"緑が丘町","lat":34.992503,"lng":138.486468},{"code":"221030900","name":"宮加三","lat":34.983362,"lng":138.487392},{"code":"22103091000","name":"村松","lat":34.985769,"lng":138.478418},{"code":"22103091001","name":"村松１丁目","lat":34.996262,"lng":138.491072},{"code":"22103092001","name":"村松原１丁目","lat":34.999628,"lng":138.488877},{"code":"22103092002","name":"村松原２丁目","lat":34.998985,"lng":138.486576},{"code":"22103092003","name":"村松原３丁目","lat":34.996874,"lng":138.488145},{"code":"221030930","name":"向田町","lat":34.998741,"lng":138.483382},{"code":"221030940","name":"上力町","lat":34.997473,"lng":138.480787},{"code":"22103095001","name":"清開１丁目","lat":34.998855,"lng":138.496228},{"code":"22103095002","name":"清開２丁目","lat":34.997061,"lng":138.49339},{"code":"22103095003","name":"清開３丁目","lat":34.993081,"lng":138.498867},{"code":"221030960","name":"駒越","lat":34.974105,"lng":138.481325},{"code":"221030970","name":"増","lat":34.969183,"lng":138.484885},{"code":"221030980","name":"蛇塚","lat":34.967128,"lng":138.476558},{"code":"221030990","name":"駒越北町","lat":34.983539,"lng":138.498204},{"code":"221031000","name":"駒越東町","lat":34.982145,"lng":138.502963},{"code":"221031010","name":"駒越南町","lat":34.979907,"lng":138.505874},{"code":"22103102001","name":"駒越中１丁目","lat":34.978116,"lng":138.501266},{"code":"22103102002","name":"駒越中２丁目","lat":34.979196,"lng":138.49604},{"code":"22103103001","name":"駒越西１丁目","lat":34.975417,"lng":138.498571},{"code":"22103103002","name":"駒越西２丁目","lat":34.973045,"lng":138.493953},{"code":"221031040","name":"港南町","lat":34.975921,"lng":138.491711},{"code":"22103105001","name":"殿沢１丁目","lat":34.980204,"lng":138.490089},{"code":"22103105002","name":"殿沢２丁目","lat":34.978927,"lng":138.491522},{"code":"221031060","name":"迎山町","lat":34.977392,"lng":138.490729},{"code":"22103107000","name":"折戸","lat":34.99636,"lng":138.513093},{"code":"22103107001","name":"折戸１丁目","lat":34.983208,"lng":138.508626},{"code":"22103107002","name":"折戸２丁目","lat":34.987962,"lng":138.510788},{"code":"22103107003","name":"折戸３丁目","lat":34.986237,"lng":138.514184},{"code":"22103107004","name":"折戸４丁目","lat":34.992257,"lng":138.512979},{"code":"22103107005","name":"折戸５丁目","lat":34.99119,"lng":138.518082},{"code":"221031080","name":"三保","lat":35.006491,"lng":138.518343},{"code":"221031090","name":"石川本町","lat":35.033022,"lng":138.460665},{"code":"221031100","name":"石川新町","lat":35.031973,"lng":138.458053},{"code":"221031110","name":"石川","lat":35.038129,"lng":138.456839},{"code":"221031120","name":"下野東","lat":35.034199,"lng":138.470713},{"code":"221031130","name":"下野西","lat":35.035905,"lng":138.465969},{"code":"221031140","name":"下野北","lat":35.038302,"lng":138.470508},{"code":"221031150","name":"下野中","lat":35.03661,"lng":138.468386},{"code":"221031160","name":"下野緑町","lat":35.03209,"lng":138.467498},{"code":"221031170","name":"下野町","lat":35.034007,"lng":138.464085},{"code":"221031180","name":"下野","lat":35.039541,"lng":138.469038},{"code":"221031190","name":"弥生町","lat":35.031188,"lng":138.464939},{"code":"221031200","name":"高橋町","lat":35.02452,"lng":138.468037},{"code":"221031210","name":"蜂ケ谷南町","lat":35.03578,"lng":138.461815},{"code":"221031220","name":"蜂ケ谷","lat":35.041937,"lng":138.457708},{"code":"221031230","name":"山原","lat":35.051865,"lng":138.45982},{"code":"221031240","name":"八坂町","lat":35.039377,"lng":138.475892},{"code":"221031250","name":"八坂南町","lat":35.029176,"lng":138.477934},{"code":"22103126001","name":"八坂北１丁目","lat":35.036384,"lng":138.474726},{"code":"22103126002","name":"八坂北２丁目","lat":35.038815,"lng":138.473737},{"code":"22103127001","name":"八坂東１丁目","lat":35.035274,"lng":138.480389},{"code":"22103127002","name":"八坂東２丁目","lat":35.034245,"lng":138.477851},{"code":"221031280","name":"八坂西町","lat":35.032607,"lng":138.476422},{"code":"22103129001","name":"高橋１丁目","lat":35.032103,"lng":138.474319},{"code":"22103129002","name":"高橋２丁目","lat":35.030204,"lng":138.472411},{"code":"22103129003","name":"高橋３丁目","lat":35.02979,"lng":138.468402},{"code":"22103129004","name":"高橋４丁目","lat":35.027944,"lng":138.472921},{"code":"22103129005","name":"高橋５丁目","lat":35.027073,"lng":138.468567},{"code":"22103129006","name":"高橋６丁目","lat":35.025457,"lng":138.468015},{"code":"221031300","name":"飯田町","lat":35.031995,"lng":138.470977},{"code":"221031310","name":"梅ケ谷","lat":35.050065,"lng":138.443589},{"code":"221031320","name":"押切","lat":35.03155,"lng":138.452877},{"code":"221031330","name":"大内","lat":35.026116,"lng":138.441787},{"code":"221031340","name":"大内新田","lat":35.025122,"lng":138.453891},{"code":"221031350","name":"柏尾","lat":35.037764,"lng":138.440506},{"code":"221031360","name":"鳥坂","lat":35.016304,"lng":138.433939},{"code":"221031370","name":"能島","lat":35.023564,"lng":138.454553},{"code":"221031380","name":"天王東","lat":35.030077,"lng":138.462768},{"code":"221031390","name":"天王西","lat":35.029188,"lng":138.460501},{"code":"221031400","name":"天王南","lat":35.027502,"lng":138.463972},{"code":"22103141000","name":"上原","lat":35.011808,"lng":138.456994},{"code":"22103141001","name":"上原１丁目","lat":35.009879,"lng":138.458843},{"code":"22103141002","name":"上原２丁目","lat":35.008959,"lng":138.456136},{"code":"221031420","name":"吉川","lat":35.016724,"lng":138.457743},{"code":"221031430","name":"北脇","lat":35.018524,"lng":138.463277},{"code":"221031440","name":"草薙北","lat":35.004231,"lng":138.441515},{"code":"221031450","name":"草薙一里山","lat":35.005432,"lng":138.450532},{"code":"22103146000","name":"草薙","lat":34.987835,"lng":138.455729},{"code":"22103146001","name":"草薙１丁目","lat":35.001347,"lng":138.443755},{"code":"22103146002","name":"草薙２丁目","lat":35.00527,"lng":138.446956},{"code":"22103146003","name":"草薙３丁目","lat":35.002166,"lng":138.447325},{"code":"221031470","name":"楠","lat":35.009917,"lng":138.438712},{"code":"221031480","name":"楠新田","lat":35.007922,"lng":138.442899},{"code":"221031490","name":"長崎南町","lat":35.008233,"lng":138.447784},{"code":"221031500","name":"長崎","lat":35.014932,"lng":138.444148},{"code":"221031510","name":"長崎新田","lat":35.016322,"lng":138.447819},{"code":"22103152000","name":"七ツ新屋","lat":35.012818,"lng":138.451581},{"code":"22103152001","name":"七ツ新屋１丁目","lat":35.009053,"lng":138.452913},{"code":"22103152002","name":"七ツ新屋２丁目","lat":35.010367,"lng":138.451239},{"code":"22103153000","name":"中之郷","lat":35.005044,"lng":138.438908},{"code":"22103153001","name":"中之郷１丁目","lat":34.998292,"lng":138.440335},{"code":"22103153002","name":"中之郷２丁目","lat":34.999763,"lng":138.439141},{"code":"22103153003","name":"中之郷３丁目","lat":35.002091,"lng":138.438578},{"code":"221031540","name":"半左エ門新田","lat":35.015488,"lng":138.453165},{"code":"221031550","name":"堀込","lat":35.019849,"lng":138.452218},{"code":"221031560","name":"馬走","lat":34.991929,"lng":138.461279},{"code":"221031570","name":"谷田","lat":34.997415,"lng":138.442119},{"code":"22103158000","name":"有東坂","lat":35.005279,"lng":138.463227},{"code":"22103158001","name":"有東坂１丁目","lat":35.009111,"lng":138.466793},{"code":"22103158002","name":"有東坂２丁目","lat":35.007105,"lng":138.466023},{"code":"221031590","name":"御門台","lat":35.005654,"lng":138.456359},{"code":"221031600","name":"馬走坂の上","lat":35.002248,"lng":138.457288},{"code":"221031610","name":"平川地","lat":35.010549,"lng":138.462698},{"code":"221031620","name":"馬走北","lat":35.007043,"lng":138.460039},{"code":"22103163001","name":"草薙杉道１丁目","lat":35.003907,"lng":138.454023},{"code":"22103163002","name":"草薙杉道２丁目","lat":35.002402,"lng":138.452833},{"code":"22103163003","name":"草薙杉道３丁目","lat":35.002287,"lng":138.450636},{"code":"221031640","name":"有度本町","lat":35.007379,"lng":138.45385},{"code":"221031650","name":"袖師町","lat":35.031964,"lng":138.492781},{"code":"22103166000","name":"西久保","lat":35.036817,"lng":138.484903},{"code":"22103166001","name":"西久保１丁目","lat":35.032799,"lng":138.482654},{"code":"221031670","name":"横砂","lat":35.039429,"lng":138.501494},{"code":"221031680","name":"横砂東町","lat":35.04682,"lng":138.503599},{"code":"221031690","name":"横砂南町","lat":35.039055,"lng":138.499856},{"code":"221031700","name":"横砂西町","lat":35.039653,"lng":138.495598},{"code":"221031710","name":"横砂本町","lat":35.044095,"lng":138.500355},{"code":"221031720","name":"横砂中町","lat":35.041677,"lng":138.497819},{"code":"221031730","name":"伊佐布","lat":35.07067,"lng":138.450477},{"code":"221031740","name":"庵原町","lat":35.050394,"lng":138.472484},{"code":"221031750","name":"尾羽","lat":35.050211,"lng":138.491191},{"code":"221031760","name":"草ケ谷","lat":35.050633,"lng":138.486964},{"code":"221031770","name":"杉山","lat":35.080194,"lng":138.482132},{"code":"221031780","name":"原","lat":35.055541,"lng":138.477476},{"code":"221031790","name":"広瀬","lat":35.061298,"lng":138.498741},{"code":"221031800","name":"茂畑","lat":35.082896,"lng":138.494112},{"code":"221031810","name":"山切","lat":35.062,"lng":138.483439},{"code":"221031820","name":"吉原","lat":35.084693,"lng":138.468249},{"code":"221031830","name":"興津東町","lat":35.063997,"lng":138.534544},{"code":"221031840","name":"興津井上町","lat":35.073398,"lng":138.532319},{"code":"221031850","name":"興津清見寺町","lat":35.051853,"lng":138.50983},{"code":"221031860","name":"興津中町","lat":35.057268,"lng":138.524093},{"code":"221031870","name":"興津本町","lat":35.05071,"lng":138.517863},{"code":"221031880","name":"承元寺町","lat":35.08424,"lng":138.527384},{"code":"22103189001","name":"谷津町１丁目","lat":35.07344,"lng":138.513453},{"code":"22103189002","name":"谷津町２丁目","lat":35.077083,"lng":138.519722},{"code":"221031900","name":"八木間町","lat":35.065477,"lng":138.517549},{"code":"221031910","name":"小島町","lat":35.085527,"lng":138.509387},{"code":"221031920","name":"小島本町","lat":35.088047,"lng":138.51595},{"code":"221031930","name":"小河内","lat":35.126722,"lng":138.514044},{"code":"221031940","name":"宍原","lat":35.163834,"lng":138.514815},{"code":"221031950","name":"立花","lat":35.095877,"lng":138.527232},{"code":"221031960","name":"但沼町","lat":35.102578,"lng":138.510636},{"code":"221031970","name":"大平","lat":35.173973,"lng":138.419891},{"code":"221031980","name":"清地","lat":35.106372,"lng":138.490897},{"code":"221031990","name":"河内","lat":35.142372,"lng":138.419767},{"code":"221032000","name":"茂野島","lat":35.112147,"lng":138.465719},{"code":"221032010","name":"高山","lat":35.093824,"lng":138.444126},{"code":"221032020","name":"葛沢","lat":35.128975,"lng":138.456868},{"code":"221032030","name":"土","lat":35.116345,"lng":138.450995},{"code":"221032040","name":"中河内","lat":35.151191,"lng":138.470292},{"code":"221032050","name":"西里","lat":35.114797,"lng":138.420363},{"code":"221032060","name":"布沢","lat":35.104789,"lng":138.442047},{"code":"221032070","name":"和田島","lat":35.104125,"lng":138.477947},{"code":"221032090","name":"由比","lat":35.109957,"lng":138.566702},{"code":"221032100","name":"由比北田","lat":35.106933,"lng":138.560826},{"code":"221032110","name":"由比町屋原","lat":35.105461,"lng":138.557133},{"code":"221032120","name":"由比今宿","lat":35.100319,"lng":138.541581},{"code":"221032130","name":"由比寺尾","lat":35.092955,"lng":138.548018},{"code":"221032140","name":"由比西倉澤","lat":35.078471,"lng":138.54334},{"code":"221032150","name":"由比東倉澤","lat":35.087345,"lng":138.546188},{"code":"221032160","name":"由比西山寺","lat":35.107775,"lng":138.547584},{"code":"221032170","name":"由比阿僧","lat":35.118362,"lng":138.545969},{"code":"221032180","name":"由比東山寺","lat":35.122173,"lng":138.561688},{"code":"221032200","name":"由比入山","lat":35.140484,"lng":138.556403},{"code":"221032230","name":"蒲原神沢","lat":35.112687,"lng":138.575186},{"code":"221032240","name":"蒲原堰沢","lat":35.114415,"lng":138.581147},{"code":"221032250","name":"蒲原中","lat":35.114694,"lng":138.587},{"code":"221032260","name":"蒲原小金","lat":35.128112,"lng":138.582829},{"code":"22103227001","name":"蒲原新田１丁目","lat":35.116013,"lng":138.598481},{"code":"22103227002","name":"蒲原新田２丁目","lat":35.118571,"lng":138.597531},{"code":"221032280","name":"蒲原","lat":35.126316,"lng":138.612818},{"code":"22103229001","name":"蒲原１丁目","lat":35.126391,"lng":138.614105},{"code":"22103229002","name":"蒲原２丁目","lat":35.121916,"lng":138.608131},{"code":"22103229003","name":"蒲原３丁目","lat":35.119713,"lng":138.603593},{"code":"22103229004","name":"蒲原４丁目","lat":35.116764,"lng":138.605389},{"code":"221032300","name":"蒲原新栄","lat":35.125941,"lng":138.622421},{"code":"221032310","name":"蒲原東","lat":35.127807,"lng":138.624724}]}
