{"municipality":"22342","name":"駿東郡長泉町","prefecture":"静岡県","source":{"dataset":"frogcat/japan-small-area","census":"平成27年国勢調査 小地域（e-Stat 統計LOD）","license":"MIT（リポジトリ）／政府統計の総合窓口(e-Stat)の利用規約（元データ・出典表記必要）","fetched":"2026-07-06"},"towns":[{"code":"223420100","name":"元長窪","lat":35.164938,"lng":138.865826},{"code":"223420200","name":"上長窪","lat":35.148889,"lng":138.875807},{"code":"22342030001","name":"東野（八分平）","lat":35.16859,"lng":138.873029},{"code":"22342030002","name":"東野（駿河平）","lat":35.18883,"lng":138.854887},{"code":"22342030003","name":"東野（東野）","lat":35.184728,"lng":138.845658},{"code":"22342040001","name":"下長窪（下長窪）","lat":35.148597,"lng":138.88589},{"code":"22342040002","name":"下長窪（池田）","lat":35.13819,"lng":138.887477},{"code":"22342040003","name":"下長窪（下長荻素）","lat":35.139799,"lng":138.890944},{"code":"22342040004","name":"下長窪（下長窪尾尻）","lat":35.138725,"lng":138.891672},{"code":"22342040005","name":"下長窪（谷津）","lat":35.149881,"lng":138.884956},{"code":"22342040006","name":"下長窪（坂下）","lat":35.152658,"lng":138.891422},{"code":"22342040007","name":"下長窪（池田西）","lat":35.137306,"lng":138.885571},{"code":"22342040008","name":"下長窪（尾尻）","lat":35.137456,"lng":138.891157},{"code":"22342050001","name":"南一色（南一色）","lat":35.157488,"lng":138.893835},{"code":"22342050002","name":"南一色（新福地）","lat":35.159095,"lng":138.901058},{"code":"223420600","name":"納米里","lat":35.145928,"lng":138.896512},{"code":"22342070101","name":"桜堤１丁目","lat":35.14422,"lng":138.904216},{"code":"22342070102","name":"桜堤２丁目","lat":35.143477,"lng":138.906557},{"code":"22342070103","name":"桜堤３丁目","lat":35.14674,"lng":138.906099},{"code":"22342070201","name":"上土狩（東耕地）","lat":35.147274,"lng":138.902625},{"code":"22342070202","name":"上土狩（上土狩）","lat":35.142662,"lng":138.901712},{"code":"22342070203","name":"上土狩（惣ケ原）","lat":35.14048,"lng":138.899466},{"code":"22342080001","name":"中土狩（中土狩開キ）","lat":35.139863,"lng":138.903427},{"code":"22342080002","name":"中土狩（中峠田）","lat":35.131791,"lng":138.908036},{"code":"22342080003","name":"中土狩（中土狩）","lat":35.137019,"lng":138.90324},{"code":"22342080004","name":"中土狩（大原）","lat":35.138518,"lng":138.90111},{"code":"22342090001","name":"下土狩（荻素）","lat":35.138717,"lng":138.894378},{"code":"22342090002","name":"下土狩（新屋町上）","lat":35.136309,"lng":138.896502},{"code":"22342090003","name":"下土狩（新屋町中）","lat":35.134436,"lng":138.897008},{"code":"22342090004","name":"下土狩（新屋町下）","lat":35.132616,"lng":138.898182},{"code":"22342090005","name":"下土狩（鮎壷）","lat":35.130277,"lng":138.893037},{"code":"22342090006","name":"下土狩（水道上）","lat":35.128976,"lng":138.893056},{"code":"22342090007","name":"下土狩（駅上）","lat":35.131375,"lng":138.895506},{"code":"22342090008","name":"下土狩（駅中）","lat":35.130253,"lng":138.896461},{"code":"22342090009","name":"下土狩（駅下）","lat":35.128993,"lng":138.896529},{"code":"22342090010","name":"下土狩（薄原上）","lat":35.127466,"lng":138.899752},{"code":"22342090011","name":"下土狩（薄原下）","lat":35.126322,"lng":138.897231},{"code":"22342090012","name":"下土狩（西）","lat":35.129127,"lng":138.900855},{"code":"22342090013","name":"下土狩（原）","lat":35.13102,"lng":138.902281},{"code":"22342090014","name":"下土狩（東）","lat":35.127932,"lng":138.905631},{"code":"22342090015","name":"下土狩（三軒家）","lat":35.124228,"lng":138.904431},{"code":"22342090016","name":"下土狩（杉原）","lat":35.121339,"lng":138.903473},{"code":"22342090017","name":"下土狩（原分）","lat":35.123449,"lng":138.898344},{"code":"22342100001","name":"竹原（高田）","lat":35.119837,"lng":138.902768},{"code":"22342100002","name":"竹原（竹原）","lat":35.119544,"lng":138.896629},{"code":"22342100003","name":"竹原（箱根免）","lat":35.116499,"lng":138.899645},{"code":"223421100","name":"本宿","lat":35.12096,"lng":138.889199}]}
