{"municipality":"23104","name":"名古屋市西区","prefecture":"愛知県","source":{"dataset":"frogcat/japan-small-area","census":"平成27年国勢調査 小地域（e-Stat 統計LOD）","license":"MIT（リポジトリ）／政府統計の総合窓口(e-Stat)の利用規約（元データ・出典表記必要）","fetched":"2026-07-06"},"towns":[{"code":"231040010","name":"赤城町","lat":35.223243,"lng":136.888131},{"code":"231040020","name":"あし原町","lat":35.210804,"lng":136.865228},{"code":"23104003001","name":"天塚町１丁目","lat":35.200264,"lng":136.896567},{"code":"23104003002","name":"天塚町２丁目","lat":35.200201,"lng":136.895166},{"code":"23104003003","name":"天塚町３丁目","lat":35.200136,"lng":136.894014},{"code":"23104003004","name":"天塚町４丁目","lat":35.200711,"lng":136.892656},{"code":"231040040","name":"新木町","lat":35.216448,"lng":136.861645},{"code":"231040050","name":"市場木町","lat":35.217291,"lng":136.887762},{"code":"23104006000","name":"稲生町字杁先","lat":35.210006,"lng":136.897485},{"code":"23104006001","name":"稲生町１丁目","lat":35.208379,"lng":136.89967},{"code":"23104006002","name":"稲生町２丁目","lat":35.208523,"lng":136.897904},{"code":"23104006003","name":"稲生町３丁目","lat":35.208774,"lng":136.896465},{"code":"23104006004","name":"稲生町４丁目","lat":35.20915,"lng":136.895114},{"code":"23104006005","name":"稲生町５丁目","lat":35.209813,"lng":136.894017},{"code":"23104006006","name":"稲生町６丁目","lat":35.210796,"lng":136.892566},{"code":"23104006007","name":"稲生町７丁目","lat":35.208779,"lng":136.892265},{"code":"231040070","name":"浮野町","lat":35.226999,"lng":136.858194},{"code":"231040080","name":"牛島町","lat":35.175629,"lng":136.880096},{"code":"231040090","name":"歌里町","lat":35.220481,"lng":136.892874},{"code":"23104010001","name":"江向町１丁目","lat":35.206846,"lng":136.899604},{"code":"23104010002","name":"江向町２丁目","lat":35.206935,"lng":136.897775},{"code":"23104010003","name":"江向町３丁目","lat":35.207032,"lng":136.89636},{"code":"23104010004","name":"江向町４丁目","lat":35.207072,"lng":136.895056},{"code":"23104010005","name":"江向町５丁目","lat":35.20708,"lng":136.893852},{"code":"23104010006","name":"江向町６丁目","lat":35.206991,"lng":136.89251},{"code":"231040120","name":"円明町","lat":35.228632,"lng":136.872655},{"code":"23104013001","name":"大金町１丁目","lat":35.203633,"lng":136.888018},{"code":"23104013002","name":"大金町２丁目","lat":35.204038,"lng":136.887959},{"code":"23104013003","name":"大金町３丁目","lat":35.204486,"lng":136.888129},{"code":"23104013004","name":"大金町４丁目","lat":35.204998,"lng":136.888454},{"code":"23104013005","name":"大金町５丁目","lat":35.205358,"lng":136.88873},{"code":"23104014091","name":"大野木１丁目","lat":35.216111,"lng":136.893312},{"code":"23104014092","name":"大野木２丁目","lat":35.217946,"lng":136.89637},{"code":"23104014093","name":"大野木３丁目","lat":35.219743,"lng":136.898982},{"code":"23104014094","name":"大野木４丁目","lat":35.221651,"lng":136.8992},{"code":"23104014095","name":"大野木５丁目","lat":35.222058,"lng":136.902869},{"code":"23104021091","name":"押切１丁目","lat":35.186112,"lng":136.88471},{"code":"23104021092","name":"押切２丁目","lat":35.187534,"lng":136.884975},{"code":"23104023001","name":"貝田町１丁目","lat":35.200854,"lng":136.899368},{"code":"23104023002","name":"貝田町２丁目","lat":35.200396,"lng":136.897923},{"code":"23104024001","name":"笠取町１丁目","lat":35.198629,"lng":136.887074},{"code":"23104024002","name":"笠取町２丁目","lat":35.199409,"lng":136.887318},{"code":"23104024003","name":"笠取町３丁目","lat":35.200219,"lng":136.887955},{"code":"23104024004","name":"笠取町４丁目","lat":35.200861,"lng":136.886477},{"code":"23104025091","name":"上小田井１丁目","lat":35.215819,"lng":136.880937},{"code":"23104025092","name":"上小田井２丁目","lat":35.218601,"lng":136.878482},{"code":"23104028091","name":"上名古屋１丁目","lat":35.193456,"lng":136.897833},{"code":"23104028092","name":"上名古屋２丁目","lat":35.193372,"lng":136.893358},{"code":"23104028093","name":"上名古屋３丁目","lat":35.19569,"lng":136.893278},{"code":"23104028094","name":"上名古屋４丁目","lat":35.195774,"lng":136.897954},{"code":"231040320","name":"上橋町","lat":35.223891,"lng":136.862684},{"code":"23104033001","name":"上堀越町１丁目","lat":35.205116,"lng":136.882253},{"code":"23104033002","name":"上堀越町２丁目","lat":35.204613,"lng":136.88113},{"code":"23104033003","name":"上堀越町３丁目","lat":35.204407,"lng":136.879928},{"code":"23104033004","name":"上堀越町４丁目","lat":35.203965,"lng":136.878758},{"code":"23104035091","name":"菊井１丁目","lat":35.182898,"lng":136.884559},{"code":"23104035092","name":"菊井２丁目","lat":35.179165,"lng":136.88386},{"code":"231040380","name":"貴生町","lat":35.224642,"lng":136.877499},{"code":"231040400","name":"木前町","lat":35.221327,"lng":136.865936},{"code":"231040410","name":"清里町","lat":35.230568,"lng":136.894243},{"code":"23104042001","name":"康生通１丁目","lat":35.197227,"lng":136.888841},{"code":"23104042002","name":"康生通２丁目","lat":35.197217,"lng":136.885242},{"code":"23104043001","name":"香呑町１丁目","lat":35.203208,"lng":136.899525},{"code":"23104043002","name":"香呑町２丁目","lat":35.20277,"lng":136.897921},{"code":"23104043003","name":"香呑町３丁目","lat":35.202905,"lng":136.896399},{"code":"23104043004","name":"香呑町４丁目","lat":35.202917,"lng":136.895104},{"code":"23104043005","name":"香呑町５丁目","lat":35.203022,"lng":136.893923},{"code":"23104043006","name":"香呑町６丁目","lat":35.203585,"lng":136.89237},{"code":"231040440","name":"五才美町","lat":35.220169,"lng":136.888198},{"code":"23104046091","name":"児玉１丁目","lat":35.195149,"lng":136.888455},{"code":"23104046092","name":"児玉２丁目","lat":35.194807,"lng":136.885347},{"code":"23104046093","name":"児玉３丁目","lat":35.193868,"lng":136.881611},{"code":"231040490","name":"こも原町","lat":35.20832,"lng":136.863416},{"code":"231040500","name":"坂井戸町","lat":35.215131,"lng":136.89449},{"code":"23104051001","name":"笹塚町１丁目","lat":35.201169,"lng":136.883751},{"code":"23104051002","name":"笹塚町２丁目","lat":35.201197,"lng":136.882268},{"code":"23104052091","name":"城西１丁目","lat":35.183598,"lng":136.893352},{"code":"23104052092","name":"城西２丁目","lat":35.185707,"lng":136.893186},{"code":"23104052093","name":"城西３丁目","lat":35.188199,"lng":136.893353},{"code":"23104052094","name":"城西４丁目","lat":35.190862,"lng":136.893255},{"code":"23104052095","name":"城西５丁目","lat":35.19109,"lng":136.89776},{"code":"23104057091","name":"浄心１丁目","lat":35.194235,"lng":136.890066},{"code":"23104057092","name":"浄心２丁目","lat":35.192567,"lng":136.886609},{"code":"231040590","name":"浄心本通","lat":35.197771,"lng":136.890602},{"code":"23104060001","name":"庄内通１丁目","lat":35.199786,"lng":136.890812},{"code":"23104060002","name":"庄内通２丁目","lat":35.202272,"lng":136.891148},{"code":"23104060003","name":"庄内通３丁目","lat":35.204521,"lng":136.89113},{"code":"23104060004","name":"庄内通４丁目","lat":35.206946,"lng":136.891274},{"code":"23104060005","name":"庄内通５丁目","lat":35.209086,"lng":136.891522},{"code":"23104061001","name":"城北町１丁目","lat":35.198472,"lng":136.898522},{"code":"23104061002","name":"城北町２丁目","lat":35.198186,"lng":136.895813},{"code":"23104061003","name":"城北町３丁目","lat":35.198225,"lng":136.892982},{"code":"231040620","name":"城町","lat":35.228941,"lng":136.866388},{"code":"231040630","name":"城西町","lat":35.229243,"lng":136.8625},{"code":"23104064001","name":"新福寺町１丁目","lat":35.205522,"lng":136.885618},{"code":"23104064002","name":"新福寺町２丁目","lat":35.205042,"lng":136.883704},{"code":"23104065091","name":"新道１丁目","lat":35.182348,"lng":136.888161},{"code":"23104065092","name":"新道２丁目","lat":35.1791,"lng":136.888067},{"code":"231040670","name":"数寄屋町","lat":35.188982,"lng":136.896864},{"code":"231040680","name":"砂原町","lat":35.227533,"lng":136.893273},{"code":"23104069091","name":"浅間１丁目","lat":35.184321,"lng":136.891039},{"code":"23104069092","name":"浅間２丁目","lat":35.185035,"lng":136.888416},{"code":"231040720","name":"田幡町","lat":35.19785,"lng":136.899897},{"code":"231040730","name":"玉池町","lat":35.228162,"lng":136.889149},{"code":"23104074001","name":"秩父通１丁目","lat":35.197321,"lng":136.897881},{"code":"23104074002","name":"秩父通２丁目","lat":35.197285,"lng":136.893682},{"code":"231040750","name":"天神山町","lat":35.190091,"lng":136.885277},{"code":"231040760","name":"東岸町","lat":35.198318,"lng":136.882638},{"code":"231040770","name":"十方町","lat":35.218102,"lng":136.860421},{"code":"23104078001","name":"鳥見町１丁目","lat":35.201594,"lng":136.887924},{"code":"23104078002","name":"鳥見町２丁目","lat":35.202291,"lng":136.886736},{"code":"23104078003","name":"鳥見町３丁目","lat":35.202613,"lng":136.888646},{"code":"23104078004","name":"鳥見町４丁目","lat":35.203093,"lng":136.888285},{"code":"23104079091","name":"中小田井１丁目","lat":35.212135,"lng":136.876863},{"code":"23104079092","name":"中小田井２丁目","lat":35.212873,"lng":136.873068},{"code":"23104079093","name":"中小田井３丁目","lat":35.214552,"lng":136.868521},{"code":"23104079094","name":"中小田井４丁目","lat":35.219568,"lng":136.872076},{"code":"23104079095","name":"中小田井５丁目","lat":35.217227,"lng":136.874801},{"code":"231040840","name":"長先町","lat":35.220301,"lng":136.859155},{"code":"231040850","name":"中沼町","lat":35.223571,"lng":136.858476},{"code":"23104086091","name":"那古野１丁目","lat":35.175741,"lng":136.891597},{"code":"23104086092","name":"那古野２丁目","lat":35.176335,"lng":136.888107},{"code":"23104088001","name":"名塚町１丁目","lat":35.206017,"lng":136.888948},{"code":"23104088002","name":"名塚町２丁目","lat":35.206888,"lng":136.888334},{"code":"23104088003","name":"名塚町３丁目","lat":35.207652,"lng":136.886959},{"code":"23104088004","name":"名塚町４丁目","lat":35.207968,"lng":136.889724},{"code":"23104088005","name":"名塚町５丁目","lat":35.209417,"lng":136.888145},{"code":"231040900","name":"西原町","lat":35.226716,"lng":136.862444},{"code":"231040910","name":"野南町","lat":35.22959,"lng":136.858403},{"code":"23104092091","name":"則武新町１丁目","lat":35.184859,"lng":136.880966},{"code":"23104092092","name":"則武新町２丁目","lat":35.182309,"lng":136.880486},{"code":"23104092093","name":"則武新町３丁目","lat":35.179648,"lng":136.879106},{"code":"23104092094","name":"則武新町４丁目","lat":35.182521,"lng":136.875988},{"code":"23104095091","name":"花の木１丁目","lat":35.186675,"lng":136.888698},{"code":"23104095092","name":"花の木２丁目","lat":35.188763,"lng":136.888944},{"code":"23104095093","name":"花の木３丁目","lat":35.191017,"lng":136.8891},{"code":"231040980","name":"花原町","lat":35.225517,"lng":136.893532},{"code":"23104099091","name":"幅下１丁目","lat":35.181482,"lng":136.892284},{"code":"23104099092","name":"幅下２丁目","lat":35.178789,"lng":136.891811},{"code":"231041010","name":"樋の口町","lat":35.184948,"lng":136.895609},{"code":"23104102091","name":"比良１丁目","lat":35.225153,"lng":136.899522},{"code":"23104102092","name":"比良２丁目","lat":35.227156,"lng":136.900166},{"code":"23104102093","name":"比良３丁目","lat":35.229613,"lng":136.899979},{"code":"23104102094","name":"比良４丁目","lat":35.230967,"lng":136.901611},{"code":"231041060","name":"平出町","lat":35.22871,"lng":136.870245},{"code":"231041070","name":"平中町","lat":35.225225,"lng":136.866625},{"code":"23104110091","name":"枇杷島１丁目","lat":35.189488,"lng":136.87274},{"code":"23104110092","name":"枇杷島２丁目","lat":35.190395,"lng":136.868446},{"code":"23104110093","name":"枇杷島３丁目","lat":35.191767,"lng":136.873747},{"code":"23104110094","name":"枇杷島４丁目","lat":35.193581,"lng":136.875087},{"code":"23104110095","name":"枇杷島５丁目","lat":35.195529,"lng":136.876527},{"code":"231041170","name":"二方町","lat":35.225531,"lng":136.882495},{"code":"231041180","name":"宝地町","lat":35.223501,"lng":136.893221},{"code":"23104120091","name":"堀越１丁目","lat":35.19913,"lng":136.87883},{"code":"23104120092","name":"堀越２丁目","lat":35.201848,"lng":136.880143},{"code":"23104120093","name":"堀越３丁目","lat":35.204562,"lng":136.87926},{"code":"231041230","name":"堀端町","lat":35.188069,"lng":136.897858},{"code":"231041240","name":"桝形町","lat":35.209117,"lng":136.900904},{"code":"23104125001","name":"又穂町１丁目","lat":35.205307,"lng":136.899756},{"code":"23104125002","name":"又穂町２丁目","lat":35.204975,"lng":136.898149},{"code":"23104125003","name":"又穂町３丁目","lat":35.205101,"lng":136.896369},{"code":"23104125004","name":"又穂町４丁目","lat":35.205182,"lng":136.895067},{"code":"23104125005","name":"又穂町５丁目","lat":35.205158,"lng":136.893876},{"code":"23104125006","name":"又穂町６丁目","lat":35.205482,"lng":136.892474},{"code":"23104128091","name":"丸野１丁目","lat":35.215094,"lng":136.864658},{"code":"23104128092","name":"丸野２丁目","lat":35.218161,"lng":136.866329},{"code":"23104130001","name":"万代町１丁目","lat":35.197815,"lng":136.888535},{"code":"23104130002","name":"万代町２丁目","lat":35.197914,"lng":136.885348},{"code":"231041320","name":"南川町","lat":35.219761,"lng":136.882997},{"code":"23104133091","name":"南堀越１丁目","lat":35.196817,"lng":136.879782},{"code":"23104133092","name":"南堀越２丁目","lat":35.197357,"lng":136.873461},{"code":"231041350","name":"見寄町","lat":35.22015,"lng":136.863337},{"code":"23104136091","name":"名駅１丁目","lat":35.172633,"lng":136.881144},{"code":"23104136092","name":"名駅２丁目","lat":35.176739,"lng":136.883301},{"code":"23104136093","name":"名駅３丁目","lat":35.174628,"lng":136.886925},{"code":"231041400","name":"八筋町","lat":35.222105,"lng":136.881393},{"code":"23104141091","name":"山木１丁目","lat":35.221373,"lng":136.869324},{"code":"23104141092","name":"山木２丁目","lat":35.225544,"lng":136.871612},{"code":"231041430","name":"山田町大字上小田井","lat":35.211898,"lng":136.883949},{"code":"23104145091","name":"栄生１丁目","lat":35.185345,"lng":136.876749},{"code":"23104145092","name":"栄生２丁目","lat":35.185391,"lng":136.872724},{"code":"23104145093","name":"栄生３丁目","lat":35.187482,"lng":136.872298},{"code":"23104146091","name":"名西１丁目","lat":35.187731,"lng":136.87933},{"code":"23104146092","name":"名西２丁目","lat":35.190001,"lng":136.880554}]}
