{"municipality":"23111","name":"名古屋市港区","prefecture":"愛知県","source":{"dataset":"frogcat/japan-small-area","census":"平成27年国勢調査 小地域（e-Stat 統計LOD）","license":"MIT（リポジトリ）／政府統計の総合窓口(e-Stat)の利用規約（元データ・出典表記必要）","fetched":"2026-07-06"},"towns":[{"code":"23111001091","name":"秋葉１丁目","lat":35.109061,"lng":136.82068},{"code":"23111001092","name":"秋葉２丁目","lat":35.10676,"lng":136.820043},{"code":"23111001093","name":"秋葉３丁目","lat":35.104731,"lng":136.819554},{"code":"231110050","name":"熱田前新田","lat":35.100619,"lng":136.878612},{"code":"23111006001","name":"油屋町１丁目","lat":35.105497,"lng":136.851119},{"code":"23111006002","name":"油屋町２丁目","lat":35.10362,"lng":136.850828},{"code":"23111006003","name":"油屋町３丁目","lat":35.101681,"lng":136.850487},{"code":"23111006004","name":"油屋町４丁目","lat":35.099785,"lng":136.850231},{"code":"23111007001","name":"惟信町１丁目","lat":35.107306,"lng":136.844135},{"code":"23111007002","name":"惟信町２丁目","lat":35.106245,"lng":136.844234},{"code":"23111007003","name":"惟信町３丁目","lat":35.104927,"lng":136.844246},{"code":"23111007004","name":"惟信町４丁目","lat":35.103314,"lng":136.844147},{"code":"23111007005","name":"惟信町５丁目","lat":35.101704,"lng":136.84383},{"code":"23111007006","name":"惟信町６丁目","lat":35.100193,"lng":136.84432},{"code":"231110080","name":"一州町","lat":35.089701,"lng":136.866296},{"code":"23111009091","name":"稲永１丁目","lat":35.089711,"lng":136.861548},{"code":"23111009092","name":"稲永２丁目","lat":35.085716,"lng":136.863711},{"code":"23111009093","name":"稲永３丁目","lat":35.082321,"lng":136.858243},{"code":"23111009094","name":"稲永４丁目","lat":35.086057,"lng":136.857882},{"code":"23111009095","name":"稲永５丁目","lat":35.085663,"lng":136.853361},{"code":"231110150","name":"入場町","lat":35.113169,"lng":136.857566},{"code":"23111016091","name":"入場１丁目","lat":35.112032,"lng":136.854317},{"code":"23111016092","name":"入場２丁目","lat":35.108349,"lng":136.853589},{"code":"23111018091","name":"入船１丁目","lat":35.093117,"lng":136.884616},{"code":"23111018092","name":"入船２丁目","lat":35.093581,"lng":136.880608},{"code":"23111020001","name":"いろは町１丁目","lat":35.106405,"lng":136.873522},{"code":"23111020002","name":"いろは町２丁目","lat":35.104323,"lng":136.873638},{"code":"23111020003","name":"いろは町３丁目","lat":35.10249,"lng":136.873751},{"code":"23111020004","name":"いろは町４丁目","lat":35.100697,"lng":136.873736},{"code":"23111020005","name":"いろは町５丁目","lat":35.100078,"lng":136.871607},{"code":"23111021001","name":"遠若町１丁目","lat":35.098951,"lng":136.865903},{"code":"23111021002","name":"遠若町２丁目","lat":35.099605,"lng":136.864226},{"code":"23111021003","name":"遠若町３丁目","lat":35.095608,"lng":136.866583},{"code":"23111022001","name":"小碓町字南堤起","lat":35.113482,"lng":136.874428},{"code":"23111022002","name":"小碓町字東亥新田","lat":35.123077,"lng":136.862357},{"code":"23111022003","name":"小碓町字三十三番割","lat":35.115785,"lng":136.837941},{"code":"23111023091","name":"小碓１丁目","lat":35.119352,"lng":136.853625},{"code":"23111023092","name":"小碓２丁目","lat":35.115378,"lng":136.854234},{"code":"23111023093","name":"小碓３丁目","lat":35.115091,"lng":136.849213},{"code":"23111023094","name":"小碓４丁目","lat":35.118089,"lng":136.848905},{"code":"231110270","name":"大江町","lat":35.08872,"lng":136.897414},{"code":"23111028001","name":"大手町１丁目","lat":35.098197,"lng":136.869633},{"code":"23111028002","name":"大手町２丁目","lat":35.097529,"lng":136.869378},{"code":"23111028003","name":"大手町３丁目","lat":35.096749,"lng":136.869156},{"code":"23111028004","name":"大手町４丁目","lat":35.095914,"lng":136.869206},{"code":"23111028005","name":"大手町５丁目","lat":35.094866,"lng":136.869924},{"code":"23111028006","name":"大手町６丁目","lat":35.095478,"lng":136.867764},{"code":"23111029091","name":"大西１丁目","lat":35.108411,"lng":136.81547},{"code":"23111029092","name":"大西２丁目","lat":35.109099,"lng":136.81234},{"code":"23111029093","name":"大西３丁目","lat":35.104756,"lng":136.81466},{"code":"23111032091","name":"小川１丁目","lat":35.097492,"lng":136.816915},{"code":"23111032092","name":"小川２丁目","lat":35.094073,"lng":136.81591},{"code":"23111032093","name":"小川３丁目","lat":35.096926,"lng":136.812214},{"code":"23111032094","name":"小川４丁目","lat":35.093782,"lng":136.811126},{"code":"23111036000","name":"金川町","lat":35.11087,"lng":136.87759},{"code":"23111036090","name":"金川町","lat":35.109812,"lng":136.879676},{"code":"23111037000","name":"金船町","lat":35.110716,"lng":136.876301},{"code":"23111037001","name":"金船町１丁目","lat":35.112384,"lng":136.875453},{"code":"23111037002","name":"金船町２丁目","lat":35.110852,"lng":136.875429},{"code":"23111037003","name":"金船町３丁目","lat":35.109365,"lng":136.875477},{"code":"23111037004","name":"金船町４丁目","lat":35.108144,"lng":136.875503},{"code":"231110380","name":"河口町","lat":35.105544,"lng":136.879173},{"code":"23111039091","name":"川園１丁目","lat":35.102837,"lng":136.81914},{"code":"23111039092","name":"川園２丁目","lat":35.101139,"lng":136.819217},{"code":"23111039093","name":"川園３丁目","lat":35.099022,"lng":136.819752},{"code":"23111042001","name":"川西通１丁目","lat":35.113814,"lng":136.874285},{"code":"23111042002","name":"川西通２丁目","lat":35.113616,"lng":136.872827},{"code":"23111042003","name":"川西通３丁目","lat":35.113649,"lng":136.870549},{"code":"23111042004","name":"川西通４丁目","lat":35.113859,"lng":136.866193},{"code":"23111042005","name":"川西通５丁目","lat":35.113702,"lng":136.862012},{"code":"23111042006","name":"川西通６丁目","lat":35.113595,"lng":136.859029},{"code":"23111043001","name":"川間町１丁目","lat":35.116074,"lng":136.86793},{"code":"23111043002","name":"川間町２丁目","lat":35.115986,"lng":136.866359},{"code":"23111043003","name":"川間町３丁目","lat":35.116197,"lng":136.864736},{"code":"23111044000","name":"寛政町字１５番","lat":35.11131,"lng":136.856729},{"code":"23111044001","name":"寛政町１丁目","lat":35.107274,"lng":136.864591},{"code":"23111044002","name":"寛政町２丁目","lat":35.106784,"lng":136.863644},{"code":"23111044003","name":"寛政町３丁目","lat":35.106362,"lng":136.862842},{"code":"23111044004","name":"寛政町４丁目","lat":35.105941,"lng":136.861704},{"code":"23111044005","name":"寛政町５丁目","lat":35.105698,"lng":136.860478},{"code":"23111044006","name":"寛政町６丁目","lat":35.105183,"lng":136.859201},{"code":"23111044007","name":"寛政町７丁目","lat":35.105273,"lng":136.857938},{"code":"23111044008","name":"寛政町８丁目","lat":35.106239,"lng":136.857056},{"code":"23111044009","name":"寛政町９丁目","lat":35.105952,"lng":136.85618},{"code":"231110450","name":"木場町","lat":35.101859,"lng":136.898766},{"code":"23111046091","name":"金城ふ頭１丁目","lat":35.053834,"lng":136.845619},{"code":"23111046092","name":"金城ふ頭２丁目","lat":35.04901,"lng":136.84397},{"code":"23111046093","name":"金城ふ頭３丁目","lat":35.044561,"lng":136.848263},{"code":"23111049001","name":"九番町１丁目","lat":35.117472,"lng":136.884306},{"code":"23111049003","name":"九番町３丁目","lat":35.115954,"lng":136.884168},{"code":"23111049004","name":"九番町４丁目","lat":35.11503,"lng":136.884062},{"code":"23111049005","name":"九番町５丁目","lat":35.114182,"lng":136.883924},{"code":"23111050091","name":"港栄１丁目","lat":35.106465,"lng":136.882683},{"code":"23111050092","name":"港栄２丁目","lat":35.104229,"lng":136.882395},{"code":"23111050093","name":"港栄３丁目","lat":35.102332,"lng":136.881732},{"code":"23111050094","name":"港栄４丁目","lat":35.099732,"lng":136.881335},{"code":"23111054001","name":"港北町１丁目","lat":35.108709,"lng":136.861068},{"code":"23111054002","name":"港北町２丁目","lat":35.108431,"lng":136.859314},{"code":"23111054003","name":"港北町３丁目","lat":35.108911,"lng":136.857013},{"code":"23111054004","name":"港北町４丁目","lat":35.107388,"lng":136.856934},{"code":"23111055091","name":"港明１丁目","lat":35.109244,"lng":136.888597},{"code":"23111055092","name":"港明２丁目","lat":35.109666,"lng":136.883286},{"code":"23111057091","name":"港陽１丁目","lat":35.102055,"lng":136.888397},{"code":"23111057092","name":"港陽２丁目","lat":35.100201,"lng":136.890444},{"code":"23111057093","name":"港陽３丁目","lat":35.100316,"lng":136.886795},{"code":"23111060091","name":"港楽１丁目","lat":35.105842,"lng":136.886645},{"code":"23111060092","name":"港楽２丁目","lat":35.10375,"lng":136.885684},{"code":"23111060093","name":"港楽３丁目","lat":35.101358,"lng":136.884519},{"code":"23111063091","name":"小賀須１丁目","lat":35.114211,"lng":136.831708},{"code":"23111063092","name":"小賀須２丁目","lat":35.111966,"lng":136.832438},{"code":"23111063093","name":"小賀須３丁目","lat":35.112033,"lng":136.829054},{"code":"23111063094","name":"小賀須４丁目","lat":35.114546,"lng":136.827695},{"code":"23111067001","name":"小割通１丁目","lat":35.11733,"lng":136.868986},{"code":"23111067002","name":"小割通２丁目","lat":35.115924,"lng":136.869419},{"code":"23111067003","name":"小割通３丁目","lat":35.114667,"lng":136.86948},{"code":"23111068001","name":"幸町１丁目","lat":35.099271,"lng":136.873792},{"code":"23111068002","name":"幸町２丁目","lat":35.098915,"lng":136.872968},{"code":"23111068003","name":"幸町３丁目","lat":35.098548,"lng":136.873049},{"code":"23111069001","name":"魁町１丁目","lat":35.096924,"lng":136.873116},{"code":"23111069002","name":"魁町２丁目","lat":35.096449,"lng":136.873652},{"code":"23111069003","name":"魁町３丁目","lat":35.096216,"lng":136.872357},{"code":"23111069004","name":"魁町４丁目","lat":35.095616,"lng":136.872638},{"code":"231110700","name":"作倉町","lat":35.10257,"lng":136.891044},{"code":"23111071001","name":"佐野町１丁目","lat":35.098221,"lng":136.87306},{"code":"23111071002","name":"佐野町２丁目","lat":35.097902,"lng":136.873098},{"code":"23111071003","name":"佐野町３丁目","lat":35.097575,"lng":136.873197},{"code":"23111071004","name":"佐野町４丁目","lat":35.097232,"lng":136.873098},{"code":"231110720","name":"汐止町","lat":35.071435,"lng":136.851543},{"code":"231110730","name":"潮凪町","lat":35.078049,"lng":136.862327},{"code":"231110740","name":"潮見町","lat":35.061456,"lng":136.873631},{"code":"231110750","name":"七条町","lat":35.095378,"lng":136.900847},{"code":"23111076091","name":"七反野１丁目","lat":35.114205,"lng":136.820037},{"code":"23111076092","name":"七反野２丁目","lat":35.111557,"lng":136.81954},{"code":"23111078001","name":"七番町１丁目","lat":35.117921,"lng":136.887769},{"code":"23111078002","name":"七番町２丁目","lat":35.116846,"lng":136.887631},{"code":"23111078003","name":"七番町３丁目","lat":35.115972,"lng":136.887725},{"code":"23111078004","name":"七番町４丁目","lat":35.115045,"lng":136.887681},{"code":"23111078005","name":"七番町５丁目","lat":35.114173,"lng":136.887641},{"code":"23111079001","name":"品川町１丁目","lat":35.103377,"lng":136.864883},{"code":"23111079002","name":"品川町２丁目","lat":35.101502,"lng":136.862298},{"code":"231110800","name":"十一屋町","lat":35.097438,"lng":136.848984},{"code":"23111081091","name":"十一屋１丁目","lat":35.095436,"lng":136.862948},{"code":"23111081092","name":"十一屋２丁目","lat":35.094356,"lng":136.858878},{"code":"23111081093","name":"十一屋３丁目","lat":35.093345,"lng":136.855722},{"code":"23111084001","name":"正徳町１丁目","lat":35.121255,"lng":136.862692},{"code":"23111084002","name":"正徳町２丁目","lat":35.121036,"lng":136.861162},{"code":"23111084003","name":"正徳町３丁目","lat":35.121163,"lng":136.86009},{"code":"23111084004","name":"正徳町４丁目","lat":35.121085,"lng":136.859061},{"code":"23111084005","name":"正徳町５丁目","lat":35.12142,"lng":136.857938},{"code":"23111084006","name":"正徳町６丁目","lat":35.120629,"lng":136.856605},{"code":"23111085001","name":"正保町１丁目","lat":35.117918,"lng":136.863105},{"code":"23111085002","name":"正保町２丁目","lat":35.117682,"lng":136.861994},{"code":"23111085003","name":"正保町３丁目","lat":35.117813,"lng":136.860659},{"code":"23111085004","name":"正保町４丁目","lat":35.118186,"lng":136.859071},{"code":"23111085005","name":"正保町５丁目","lat":35.115227,"lng":136.863292},{"code":"23111085006","name":"正保町６丁目","lat":35.115265,"lng":136.862161},{"code":"23111085007","name":"正保町７丁目","lat":35.115184,"lng":136.860694},{"code":"23111085008","name":"正保町８丁目","lat":35.115991,"lng":136.857903},{"code":"231110860","name":"昭和町","lat":35.080695,"lng":136.896966},{"code":"23111087000","name":"新川町","lat":35.117121,"lng":136.878728},{"code":"23111087001","name":"新川町１丁目","lat":35.117671,"lng":136.878155},{"code":"23111087002","name":"新川町２丁目","lat":35.116351,"lng":136.878208},{"code":"23111087003","name":"新川町３丁目","lat":35.114705,"lng":136.87824},{"code":"23111087004","name":"新川町４丁目","lat":35.113676,"lng":136.878225},{"code":"23111088091","name":"新茶屋１丁目","lat":35.109203,"lng":136.808049},{"code":"23111088092","name":"新茶屋２丁目","lat":35.104392,"lng":136.809529},{"code":"23111088093","name":"新茶屋３丁目","lat":35.100569,"lng":136.811422},{"code":"23111088094","name":"新茶屋４丁目","lat":35.103333,"lng":136.802753},{"code":"23111088095","name":"新茶屋５丁目","lat":35.109479,"lng":136.80219},{"code":"23111093091","name":"神宮寺１丁目","lat":35.096072,"lng":136.848698},{"code":"23111093092","name":"神宮寺２丁目","lat":35.095919,"lng":136.845321},{"code":"23111095000","name":"新船町","lat":35.11594,"lng":136.876251},{"code":"23111095001","name":"新船町１丁目","lat":35.11784,"lng":136.875416},{"code":"23111095002","name":"新船町２丁目","lat":35.116369,"lng":136.875406},{"code":"23111095003","name":"新船町３丁目","lat":35.114814,"lng":136.875497},{"code":"23111095004","name":"新船町４丁目","lat":35.11355,"lng":136.875474},{"code":"23111096001","name":"甚兵衛通１丁目","lat":35.105867,"lng":136.846511},{"code":"23111096002","name":"甚兵衛通２丁目","lat":35.103573,"lng":136.846268},{"code":"23111096003","name":"甚兵衛通３丁目","lat":35.101635,"lng":136.846102},{"code":"23111096004","name":"甚兵衛通４丁目","lat":35.100089,"lng":136.845971},{"code":"23111096005","name":"甚兵衛通５丁目","lat":35.098798,"lng":136.846087},{"code":"231110970","name":"砂美町","lat":35.103666,"lng":136.868176},{"code":"23111098001","name":"須成町１丁目","lat":35.11754,"lng":136.873832},{"code":"23111098002","name":"須成町２丁目","lat":35.116008,"lng":136.87336},{"code":"23111098003","name":"須成町３丁目","lat":35.114745,"lng":136.87342},{"code":"23111099001","name":"善進町１丁目","lat":35.104745,"lng":136.854679},{"code":"23111099002","name":"善進町２丁目","lat":35.105808,"lng":136.854184},{"code":"23111099003","name":"善進町３丁目","lat":35.105202,"lng":136.853088},{"code":"23111099004","name":"善進町４丁目","lat":35.104028,"lng":136.853757},{"code":"23111099005","name":"善進町５丁目","lat":35.103092,"lng":136.852532},{"code":"23111099006","name":"善進町６丁目","lat":35.1008,"lng":136.851384},{"code":"23111099008","name":"善進町８丁目","lat":35.098014,"lng":136.849932},{"code":"231111000","name":"善進本町","lat":35.100612,"lng":136.856006},{"code":"23111101091","name":"船頭場１丁目","lat":35.118118,"lng":136.830711},{"code":"23111101092","name":"船頭場２丁目","lat":35.117885,"lng":136.830598},{"code":"23111101093","name":"船頭場３丁目","lat":35.116317,"lng":136.83228},{"code":"23111101094","name":"船頭場４丁目","lat":35.115563,"lng":136.830646},{"code":"23111101095","name":"船頭場５丁目","lat":35.116794,"lng":136.82763},{"code":"231111060","name":"善南町","lat":35.097865,"lng":136.85222},{"code":"231111070","name":"善北町","lat":35.104038,"lng":136.854927},{"code":"231111080","name":"空見町","lat":35.06354,"lng":136.852294},{"code":"23111109001","name":"泰明町１丁目","lat":35.111516,"lng":136.866807},{"code":"23111109002","name":"泰明町２丁目","lat":35.112248,"lng":136.863291},{"code":"23111109003","name":"泰明町３丁目","lat":35.109628,"lng":136.863085},{"code":"23111110001","name":"高木町１丁目","lat":35.105655,"lng":136.848481},{"code":"23111110002","name":"高木町２丁目","lat":35.10372,"lng":136.848364},{"code":"23111110003","name":"高木町３丁目","lat":35.101749,"lng":136.848286},{"code":"23111110004","name":"高木町４丁目","lat":35.1,"lng":136.848214},{"code":"23111110005","name":"高木町５丁目","lat":35.098615,"lng":136.848042},{"code":"23111111001","name":"多加良浦町１丁目","lat":35.107706,"lng":136.840345},{"code":"23111111002","name":"多加良浦町２丁目","lat":35.105371,"lng":136.840759},{"code":"23111111003","name":"多加良浦町３丁目","lat":35.103197,"lng":136.84119},{"code":"23111111004","name":"多加良浦町４丁目","lat":35.100872,"lng":136.841759},{"code":"23111111005","name":"多加良浦町５丁目","lat":35.099332,"lng":136.843412},{"code":"231111120","name":"辰巳町","lat":35.112321,"lng":136.890239},{"code":"231111130","name":"築盛町","lat":35.104162,"lng":136.871283},{"code":"23111114091","name":"知多１丁目","lat":35.11391,"lng":136.824363},{"code":"23111114092","name":"知多２丁目","lat":35.111723,"lng":136.823933},{"code":"23111114093","name":"知多３丁目","lat":35.111491,"lng":136.826902},{"code":"23111118092","name":"千年２丁目","lat":35.112603,"lng":136.897834},{"code":"23111118093","name":"千年３丁目","lat":35.108129,"lng":136.894739},{"code":"23111120091","name":"千鳥１丁目","lat":35.097884,"lng":136.887965},{"code":"23111120092","name":"千鳥２丁目","lat":35.095477,"lng":136.887633},{"code":"23111122091","name":"津金１丁目","lat":35.112502,"lng":136.883927},{"code":"23111122092","name":"津金２丁目","lat":35.112673,"lng":136.879831},{"code":"23111124001","name":"築三町１丁目","lat":35.094924,"lng":136.875094},{"code":"23111124002","name":"築三町２丁目","lat":35.094228,"lng":136.873389},{"code":"23111124003","name":"築三町３丁目","lat":35.093231,"lng":136.870641},{"code":"231111250","name":"築地町","lat":35.090744,"lng":136.873199},{"code":"231111260","name":"寺前町","lat":35.113319,"lng":136.800506},{"code":"231111270","name":"天目町","lat":35.099266,"lng":136.800955},{"code":"23111128003","name":"東海通３丁目","lat":35.113576,"lng":136.887577},{"code":"23111128004","name":"東海通４丁目","lat":35.113652,"lng":136.883899},{"code":"23111128005","name":"東海通５丁目","lat":35.113665,"lng":136.880418},{"code":"23111129006","name":"当知町６丁目","lat":35.113614,"lng":136.838276},{"code":"23111129007","name":"当知町７丁目","lat":35.111186,"lng":136.838155},{"code":"23111129008","name":"当知町８丁目","lat":35.110002,"lng":136.839646},{"code":"23111129009","name":"当知町字堤外","lat":35.106611,"lng":136.849746},{"code":"23111129010","name":"当知町字草野","lat":35.103246,"lng":136.839731},{"code":"23111130091","name":"当知１丁目","lat":35.112097,"lng":136.849108},{"code":"23111130092","name":"当知２丁目","lat":35.10855,"lng":136.849044},{"code":"23111130093","name":"当知３丁目","lat":35.110785,"lng":136.844486},{"code":"23111130094","name":"当知４丁目","lat":35.111562,"lng":136.840908},{"code":"23111134001","name":"土古町１丁目","lat":35.112673,"lng":136.861166},{"code":"23111134002","name":"土古町２丁目","lat":35.110898,"lng":136.860893},{"code":"23111134003","name":"土古町３丁目","lat":35.112764,"lng":136.858732},{"code":"23111134004","name":"土古町４丁目","lat":35.110989,"lng":136.858235},{"code":"23111136001","name":"中川本町１丁目","lat":35.107044,"lng":136.875812},{"code":"23111136002","name":"中川本町２丁目","lat":35.106019,"lng":136.875838},{"code":"23111136003","name":"中川本町３丁目","lat":35.10438,"lng":136.875893},{"code":"23111136004","name":"中川本町４丁目","lat":35.102627,"lng":136.875893},{"code":"23111136005","name":"中川本町５丁目","lat":35.100692,"lng":136.875725},{"code":"23111136006","name":"中川本町６丁目","lat":35.098638,"lng":136.8756},{"code":"23111136007","name":"中川本町７丁目","lat":35.097002,"lng":136.875537},{"code":"23111137001","name":"中之島通１丁目","lat":35.098669,"lng":136.870938},{"code":"23111137002","name":"中之島通２丁目","lat":35.097887,"lng":136.870897},{"code":"23111137003","name":"中之島通３丁目","lat":35.096899,"lng":136.870974},{"code":"23111137004","name":"中之島通４丁目","lat":35.095952,"lng":136.871083},{"code":"23111138091","name":"七島１丁目","lat":35.103847,"lng":136.833845},{"code":"23111138092","name":"七島２丁目","lat":35.100097,"lng":136.832993},{"code":"231111400","name":"南陽町大字西福田","lat":35.116956,"lng":136.796068},{"code":"231111410","name":"西蟹田","lat":35.121753,"lng":136.81597},{"code":"23111142001","name":"西川町１丁目","lat":35.108013,"lng":136.84145},{"code":"23111142002","name":"西川町２丁目","lat":35.107199,"lng":136.841716},{"code":"23111142003","name":"西川町３丁目","lat":35.105538,"lng":136.841891},{"code":"23111142004","name":"西川町４丁目","lat":35.103472,"lng":136.842287},{"code":"231111430","name":"錦町","lat":35.086559,"lng":136.860989},{"code":"231111440","name":"西倉町","lat":35.094962,"lng":136.878477},{"code":"23111145091","name":"西茶屋１丁目","lat":35.1076,"lng":136.825166},{"code":"23111145092","name":"西茶屋２丁目","lat":35.103454,"lng":136.82489},{"code":"23111145093","name":"西茶屋３丁目","lat":35.100713,"lng":136.824795},{"code":"23111145094","name":"西茶屋４丁目","lat":35.098376,"lng":136.824908},{"code":"23111149091","name":"野跡１丁目","lat":35.080559,"lng":136.855031},{"code":"23111149092","name":"野跡２丁目","lat":35.076284,"lng":136.854654},{"code":"23111149093","name":"野跡３丁目","lat":35.074706,"lng":136.852777},{"code":"23111149094","name":"野跡４丁目","lat":35.076277,"lng":136.851072},{"code":"23111149095","name":"野跡５丁目","lat":35.081651,"lng":136.85116},{"code":"23111154091","name":"八百島１丁目","lat":35.117432,"lng":136.822185},{"code":"23111154092","name":"八百島２丁目","lat":35.117491,"lng":136.81964},{"code":"23111156091","name":"浜１丁目","lat":35.097798,"lng":136.881562},{"code":"23111156092","name":"浜２丁目","lat":35.095844,"lng":136.880972},{"code":"23111158091","name":"春田野１丁目","lat":35.117815,"lng":136.81373},{"code":"23111158092","name":"春田野２丁目","lat":35.114548,"lng":136.813379},{"code":"23111158093","name":"春田野３丁目","lat":35.112013,"lng":136.814081},{"code":"231111610","name":"東蟹田","lat":35.121738,"lng":136.820058},{"code":"23111162091","name":"東茶屋１丁目","lat":35.1091,"lng":136.830744},{"code":"23111162092","name":"東茶屋２丁目","lat":35.106331,"lng":136.83018},{"code":"23111162093","name":"東茶屋３丁目","lat":35.103393,"lng":136.829502},{"code":"23111162094","name":"東茶屋４丁目","lat":35.099508,"lng":136.829181},{"code":"231111660","name":"東築地町","lat":35.095337,"lng":136.893936},{"code":"23111167001","name":"東土古町１丁目","lat":35.112835,"lng":136.87155},{"code":"23111167002","name":"東土古町２丁目","lat":35.111481,"lng":136.871096},{"code":"23111168091","name":"福田１丁目","lat":35.117582,"lng":136.824601},{"code":"23111168092","name":"福田２丁目","lat":35.115548,"lng":136.824287},{"code":"23111170091","name":"福屋１丁目","lat":35.119972,"lng":136.80077},{"code":"23111170092","name":"福屋２丁目","lat":35.116399,"lng":136.801224},{"code":"23111172091","name":"藤高１丁目","lat":35.09664,"lng":136.834448},{"code":"23111172092","name":"藤高２丁目","lat":35.092134,"lng":136.834599},{"code":"23111172093","name":"藤高３丁目","lat":35.093595,"lng":136.829893},{"code":"23111172094","name":"藤高４丁目","lat":35.09376,"lng":136.825298},{"code":"23111172095","name":"藤高５丁目","lat":35.094318,"lng":136.820781},{"code":"23111177091","name":"藤前１丁目","lat":35.087671,"lng":136.835363},{"code":"23111177092","name":"藤前２丁目","lat":35.083714,"lng":136.835838},{"code":"23111177093","name":"藤前３丁目","lat":35.084233,"lng":136.830513},{"code":"23111177094","name":"藤前４丁目","lat":35.088284,"lng":136.829723},{"code":"23111177095","name":"藤前５丁目","lat":35.086861,"lng":136.822778},{"code":"231111820","name":"船見町","lat":35.073035,"lng":136.894664},{"code":"231111830","name":"宝神町","lat":35.095679,"lng":136.843111},{"code":"23111184091","name":"宝神１丁目","lat":35.094094,"lng":136.851395},{"code":"23111184092","name":"宝神２丁目","lat":35.091416,"lng":136.852404},{"code":"23111184093","name":"宝神３丁目","lat":35.088634,"lng":136.853917},{"code":"23111184094","name":"宝神４丁目","lat":35.086759,"lng":136.849218},{"code":"23111184095","name":"宝神５丁目","lat":35.090641,"lng":136.846582},{"code":"23111189001","name":"本宮町１丁目","lat":35.112012,"lng":136.874118},{"code":"23111189002","name":"本宮町２丁目","lat":35.109079,"lng":136.873403},{"code":"23111189003","name":"本宮町３丁目","lat":35.110032,"lng":136.871363},{"code":"23111189004","name":"本宮町４丁目","lat":35.109788,"lng":136.86965},{"code":"23111189005","name":"本宮町５丁目","lat":35.109296,"lng":136.868028},{"code":"23111189006","name":"本宮町６丁目","lat":35.108789,"lng":136.865984},{"code":"23111189007","name":"本宮町７丁目","lat":35.108679,"lng":136.867421},{"code":"23111189008","name":"本宮町８丁目","lat":35.108418,"lng":136.870813},{"code":"231111900","name":"本宮新町","lat":35.107347,"lng":136.86758},{"code":"23111191001","name":"丸池町１丁目","lat":35.117491,"lng":136.871086},{"code":"23111191002","name":"丸池町２丁目","lat":35.115938,"lng":136.871024},{"code":"23111191003","name":"丸池町３丁目","lat":35.114657,"lng":136.871066},{"code":"231111920","name":"港町","lat":35.090759,"lng":136.881514},{"code":"23111193001","name":"南十番町１丁目","lat":35.117689,"lng":136.881847},{"code":"23111193002","name":"南十番町２丁目","lat":35.116802,"lng":136.881776},{"code":"23111193003","name":"南十番町３丁目","lat":35.115931,"lng":136.881663},{"code":"23111193004","name":"南十番町４丁目","lat":35.115039,"lng":136.881629},{"code":"23111193005","name":"南十番町５丁目","lat":35.114216,"lng":136.881647},{"code":"23111194001","name":"南十一番町１丁目","lat":35.117688,"lng":136.879868},{"code":"23111194002","name":"南十一番町２丁目","lat":35.11679,"lng":136.879876},{"code":"23111194003","name":"南十一番町３丁目","lat":35.115939,"lng":136.87989},{"code":"23111194004","name":"南十一番町４丁目","lat":35.115019,"lng":136.879911},{"code":"23111194005","name":"南十一番町５丁目","lat":35.114207,"lng":136.879944},{"code":"23111195091","name":"名港１丁目","lat":35.097966,"lng":136.884312},{"code":"23111195092","name":"名港２丁目","lat":35.095469,"lng":136.883834},{"code":"231111970","name":"名四町","lat":35.099712,"lng":136.868605},{"code":"23111198091","name":"明正１丁目","lat":35.116034,"lng":136.844285},{"code":"23111198092","name":"明正２丁目","lat":35.115597,"lng":136.840337},{"code":"231112010","name":"本星崎町","lat":35.087111,"lng":136.907639},{"code":"231112020","name":"龍宮町","lat":35.095167,"lng":136.89775},{"code":"23111203091","name":"西福田１丁目","lat":35.120775,"lng":136.810123},{"code":"23111203092","name":"西福田２丁目","lat":35.115521,"lng":136.807555},{"code":"23111203093","name":"西福田３丁目","lat":35.112739,"lng":136.807839},{"code":"23111203094","name":"西福田４丁目","lat":35.113061,"lng":136.803427},{"code":"23111203095","name":"西福田５丁目","lat":35.11772,"lng":136.804133},{"code":"231112040","name":"熱田新田東組","lat":35.116935,"lng":136.882452},{"code":"231112050","name":"南陽町大字七島新田","lat":35.094147,"lng":136.83873},{"code":"231112060","name":"南陽町大字福田前新田","lat":35.109778,"lng":136.796203},{"code":"231112070","name":"南陽町大字福田","lat":35.125999,"lng":136.816596}]}
