{"municipality":"23227","name":"高浜市","prefecture":"愛知県","source":{"dataset":"frogcat/japan-small-area","census":"平成27年国勢調査 小地域（e-Stat 統計LOD）","license":"MIT（リポジトリ）／政府統計の総合窓口(e-Stat)の利用規約（元データ・出典表記必要）","fetched":"2026-07-06"},"towns":[{"code":"23227001001","name":"呉竹町１丁目","lat":34.943338,"lng":136.986442},{"code":"23227001002","name":"呉竹町２丁目","lat":34.94191,"lng":136.987767},{"code":"23227001003","name":"呉竹町３丁目","lat":34.940782,"lng":136.990436},{"code":"23227001004","name":"呉竹町４丁目","lat":34.939329,"lng":136.993566},{"code":"23227001005","name":"呉竹町５丁目","lat":34.937623,"lng":136.991363},{"code":"23227001006","name":"呉竹町６丁目","lat":34.938163,"lng":136.989285},{"code":"23227001007","name":"呉竹町７丁目","lat":34.938724,"lng":136.987391},{"code":"23227002001","name":"小池町１丁目","lat":34.950293,"lng":136.999623},{"code":"23227002002","name":"小池町２丁目","lat":34.947701,"lng":137.004565},{"code":"23227002003","name":"小池町３丁目","lat":34.945281,"lng":137.000752},{"code":"23227002004","name":"小池町４丁目","lat":34.94312,"lng":136.998763},{"code":"23227002005","name":"小池町５丁目","lat":34.944684,"lng":136.996345},{"code":"23227002006","name":"小池町６丁目","lat":34.94715,"lng":136.997463},{"code":"23227003001","name":"清水町１丁目","lat":34.927159,"lng":137.008636},{"code":"23227003002","name":"清水町２丁目","lat":34.930205,"lng":137.01126},{"code":"23227003003","name":"清水町３丁目","lat":34.933429,"lng":137.012587},{"code":"23227003004","name":"清水町４丁目","lat":34.931347,"lng":137.014484},{"code":"23227003005","name":"清水町５丁目","lat":34.930051,"lng":137.019709},{"code":"23227003006","name":"清水町６丁目","lat":34.928646,"lng":137.016615},{"code":"23227003007","name":"清水町７丁目","lat":34.9271,"lng":137.013363},{"code":"23227003008","name":"清水町８丁目","lat":34.924259,"lng":137.010849},{"code":"23227004001","name":"新田町１丁目","lat":34.953649,"lng":136.98493},{"code":"23227004002","name":"新田町２丁目","lat":34.954252,"lng":136.98761},{"code":"23227004003","name":"新田町３丁目","lat":34.953716,"lng":136.990818},{"code":"23227004004","name":"新田町４丁目","lat":34.949369,"lng":136.987997},{"code":"23227004005","name":"新田町５丁目","lat":34.945676,"lng":136.985563},{"code":"23227005001","name":"神明町１丁目","lat":34.938432,"lng":136.999403},{"code":"23227005002","name":"神明町２丁目","lat":34.942345,"lng":137.002201},{"code":"23227005003","name":"神明町３丁目","lat":34.94085,"lng":137.004717},{"code":"23227005004","name":"神明町４丁目","lat":34.938207,"lng":137.005217},{"code":"23227005005","name":"神明町５丁目","lat":34.93587,"lng":137.005052},{"code":"23227005006","name":"神明町６丁目","lat":34.933352,"lng":137.005067},{"code":"23227005007","name":"神明町７丁目","lat":34.932609,"lng":137.002132},{"code":"23227005008","name":"神明町８丁目","lat":34.937846,"lng":137.002111},{"code":"23227006001","name":"豊田町１丁目","lat":34.945083,"lng":137.007733},{"code":"23227006002","name":"豊田町２丁目","lat":34.940593,"lng":137.009276},{"code":"23227006003","name":"豊田町３丁目","lat":34.935499,"lng":137.009461},{"code":"23227007001","name":"八幡町１丁目","lat":34.954512,"lng":136.994473},{"code":"23227007002","name":"八幡町２丁目","lat":34.953153,"lng":136.997618},{"code":"23227007003","name":"八幡町３丁目","lat":34.951146,"lng":136.995015},{"code":"23227007004","name":"八幡町４丁目","lat":34.947404,"lng":136.993861},{"code":"23227007005","name":"八幡町５丁目","lat":34.948277,"lng":136.991732},{"code":"23227007006","name":"八幡町６丁目","lat":34.951552,"lng":136.992958},{"code":"23227008001","name":"本郷町１丁目","lat":34.928441,"lng":136.998343},{"code":"23227008002","name":"本郷町２丁目","lat":34.930127,"lng":137.001866},{"code":"23227008003","name":"本郷町３丁目","lat":34.931046,"lng":137.005755},{"code":"23227008004","name":"本郷町４丁目","lat":34.932325,"lng":137.009123},{"code":"23227008005","name":"本郷町５丁目","lat":34.929732,"lng":137.006962},{"code":"23227008006","name":"本郷町６丁目","lat":34.928431,"lng":137.002552},{"code":"23227009001","name":"向山町１丁目","lat":34.92596,"lng":136.997895},{"code":"23227009002","name":"向山町２丁目","lat":34.925412,"lng":137.004865},{"code":"23227009003","name":"向山町３丁目","lat":34.92224,"lng":137.007512},{"code":"23227009004","name":"向山町４丁目","lat":34.920384,"lng":137.004965},{"code":"23227009005","name":"向山町５丁目","lat":34.923373,"lng":137.001819},{"code":"23227009006","name":"向山町６丁目","lat":34.924167,"lng":136.998849},{"code":"23227010001","name":"屋敷町１丁目","lat":34.945692,"lng":136.989189},{"code":"23227010002","name":"屋敷町２丁目","lat":34.944542,"lng":136.990143},{"code":"23227010003","name":"屋敷町３丁目","lat":34.944523,"lng":136.992474},{"code":"23227010004","name":"屋敷町４丁目","lat":34.94318,"lng":136.994814},{"code":"23227010005","name":"屋敷町５丁目","lat":34.941101,"lng":136.996633},{"code":"23227010006","name":"屋敷町６丁目","lat":34.941654,"lng":136.993883},{"code":"23227010007","name":"屋敷町７丁目","lat":34.942645,"lng":136.991493},{"code":"23227011001","name":"湯山町１丁目","lat":34.936168,"lng":136.993168},{"code":"23227011002","name":"湯山町２丁目","lat":34.937894,"lng":136.99567},{"code":"23227011003","name":"湯山町３丁目","lat":34.936852,"lng":136.996889},{"code":"23227011004","name":"湯山町４丁目","lat":34.93446,"lng":136.998596},{"code":"23227011005","name":"湯山町５丁目","lat":34.931481,"lng":136.999493},{"code":"23227011006","name":"湯山町６丁目","lat":34.930748,"lng":136.99669},{"code":"23227011007","name":"湯山町７丁目","lat":34.932595,"lng":136.995352},{"code":"23227011008","name":"湯山町８丁目","lat":34.934565,"lng":136.994641},{"code":"23227012001","name":"芳川町１丁目","lat":34.940632,"lng":136.982937},{"code":"23227012002","name":"芳川町２丁目","lat":34.938296,"lng":136.985752},{"code":"23227012003","name":"芳川町３丁目","lat":34.937363,"lng":136.982826},{"code":"23227012004","name":"芳川町４丁目","lat":34.93356,"lng":136.981263},{"code":"23227013001","name":"論地町１丁目","lat":34.922206,"lng":136.995862},{"code":"23227013002","name":"論地町２丁目","lat":34.92005,"lng":136.999849},{"code":"23227013003","name":"論地町３丁目","lat":34.918569,"lng":137.002832},{"code":"23227013004","name":"論地町４丁目","lat":34.916404,"lng":136.999836},{"code":"23227013005","name":"論地町５丁目","lat":34.918757,"lng":136.996466},{"code":"23227014101","name":"青木町１丁目","lat":34.925121,"lng":136.980793},{"code":"23227014102","name":"青木町２丁目","lat":34.926808,"lng":136.984118},{"code":"23227014103","name":"青木町３丁目","lat":34.926491,"lng":136.985617},{"code":"23227014104","name":"青木町４丁目","lat":34.926297,"lng":136.987309},{"code":"23227014105","name":"青木町５丁目","lat":34.926514,"lng":136.989236},{"code":"23227014106","name":"青木町６丁目","lat":34.922741,"lng":136.98888},{"code":"23227014107","name":"青木町７丁目","lat":34.923028,"lng":136.987096},{"code":"23227014108","name":"青木町８丁目","lat":34.923264,"lng":136.984965},{"code":"23227014109","name":"青木町９丁目","lat":34.924311,"lng":136.982799},{"code":"23227014201","name":"碧海町１丁目","lat":34.91983,"lng":136.980101},{"code":"23227014202","name":"碧海町２丁目","lat":34.921131,"lng":136.983172},{"code":"23227014203","name":"碧海町３丁目","lat":34.919933,"lng":136.986781},{"code":"23227014204","name":"碧海町４丁目","lat":34.917093,"lng":136.985679},{"code":"23227014205","name":"碧海町５丁目","lat":34.917969,"lng":136.982898},{"code":"23227014301","name":"春日町１丁目","lat":34.932518,"lng":136.983661},{"code":"23227014302","name":"春日町２丁目","lat":34.932146,"lng":136.98541},{"code":"23227014303","name":"春日町３丁目","lat":34.932372,"lng":136.986908},{"code":"23227014304","name":"春日町４丁目","lat":34.933162,"lng":136.988081},{"code":"23227014305","name":"春日町５丁目","lat":34.929553,"lng":136.989225},{"code":"23227014306","name":"春日町６丁目","lat":34.929144,"lng":136.986936},{"code":"23227014307","name":"春日町７丁目","lat":34.928691,"lng":136.984165},{"code":"23227014401","name":"沢渡町１丁目","lat":34.933912,"lng":136.989465},{"code":"23227014402","name":"沢渡町２丁目","lat":34.935121,"lng":136.991159},{"code":"23227014403","name":"沢渡町３丁目","lat":34.932388,"lng":136.99231},{"code":"23227014404","name":"沢渡町４丁目","lat":34.930083,"lng":136.993893},{"code":"23227014405","name":"沢渡町５丁目","lat":34.930058,"lng":136.990911},{"code":"23227014501","name":"田戸町１丁目","lat":34.911109,"lng":136.97912},{"code":"23227014502","name":"田戸町２丁目","lat":34.914287,"lng":136.983041},{"code":"23227014503","name":"田戸町３丁目","lat":34.912651,"lng":136.986227},{"code":"23227014504","name":"田戸町４丁目","lat":34.911788,"lng":136.988806},{"code":"23227014505","name":"田戸町５丁目","lat":34.910234,"lng":136.983932},{"code":"23227014506","name":"田戸町６丁目","lat":34.908881,"lng":136.982262},{"code":"23227014507","name":"田戸町７丁目","lat":34.91214,"lng":136.981433},{"code":"23227014601","name":"稗田町１丁目","lat":34.926702,"lng":136.991045},{"code":"23227014602","name":"稗田町２丁目","lat":34.926643,"lng":136.993166},{"code":"23227014603","name":"稗田町３丁目","lat":34.928086,"lng":136.995232},{"code":"23227014604","name":"稗田町４丁目","lat":34.923146,"lng":136.992409},{"code":"23227014605","name":"稗田町５丁目","lat":34.920329,"lng":136.992465},{"code":"23227014606","name":"稗田町６丁目","lat":34.922355,"lng":136.990273},{"code":"23227014701","name":"二池町１丁目","lat":34.918015,"lng":136.988977},{"code":"23227014702","name":"二池町２丁目","lat":34.917819,"lng":136.99052},{"code":"23227014703","name":"二池町３丁目","lat":34.918036,"lng":136.992832},{"code":"23227014704","name":"二池町４丁目","lat":34.915424,"lng":136.994274},{"code":"23227014705","name":"二池町５丁目","lat":34.914221,"lng":136.991897},{"code":"23227014706","name":"二池町６丁目","lat":34.914976,"lng":136.988873}]}
