{"municipality":"23228","name":"岩倉市","prefecture":"愛知県","source":{"dataset":"frogcat/japan-small-area","census":"平成27年国勢調査 小地域（e-Stat 統計LOD）","license":"MIT（リポジトリ）／政府統計の総合窓口(e-Stat)の利用規約（元データ・出典表記必要）","fetched":"2026-07-06"},"towns":[{"code":"232280010","name":"大市場町","lat":35.274563,"lng":136.881814},{"code":"232280020","name":"下本町","lat":35.276204,"lng":136.877131},{"code":"232280030","name":"中本町","lat":35.281012,"lng":136.878152},{"code":"232280040","name":"東町","lat":35.285009,"lng":136.878538},{"code":"232280050","name":"中野町","lat":35.288372,"lng":136.870813},{"code":"232280060","name":"本町","lat":35.283212,"lng":136.87196},{"code":"232280070","name":"西市町","lat":35.281116,"lng":136.86228},{"code":"232280080","name":"鈴井町","lat":35.287346,"lng":136.86506},{"code":"232280090","name":"泉町","lat":35.285266,"lng":136.868379},{"code":"232280100","name":"八剱町","lat":35.292914,"lng":136.879365},{"code":"232280110","name":"井上町","lat":35.299428,"lng":136.876497},{"code":"232280120","name":"神野町","lat":35.292298,"lng":136.873119},{"code":"232280130","name":"石仏町","lat":35.294154,"lng":136.869067},{"code":"232280140","name":"北島町","lat":35.273502,"lng":136.849906},{"code":"232280150","name":"野寄町","lat":35.270522,"lng":136.855334},{"code":"232280160","name":"大地町","lat":35.274506,"lng":136.863312},{"code":"232280170","name":"川井町","lat":35.266688,"lng":136.862917},{"code":"232280181","name":"大山寺元町","lat":35.265613,"lng":136.872367},{"code":"232280182","name":"大山寺本町","lat":35.263753,"lng":136.873841},{"code":"232280183","name":"大山寺町","lat":35.261893,"lng":136.872001},{"code":"232280190","name":"稲荷町","lat":35.269486,"lng":136.872246},{"code":"232280200","name":"曽野町","lat":35.267202,"lng":136.877878},{"code":"232280210","name":"五条町","lat":35.261856,"lng":136.876583},{"code":"232280220","name":"南新町","lat":35.270277,"lng":136.868154},{"code":"232280230","name":"東新町","lat":35.279912,"lng":136.88412},{"code":"23228024001","name":"宮前町１丁目","lat":35.283739,"lng":136.870358},{"code":"23228024002","name":"宮前町２丁目","lat":35.283728,"lng":136.868244},{"code":"23228024003","name":"宮前町３丁目","lat":35.28429,"lng":136.866387},{"code":"23228025001","name":"栄町１丁目","lat":35.279742,"lng":136.871179},{"code":"23228025002","name":"栄町２丁目","lat":35.277903,"lng":136.871586},{"code":"23228026001","name":"旭町１丁目","lat":35.276272,"lng":136.871869},{"code":"23228026002","name":"旭町２丁目","lat":35.274991,"lng":136.871628},{"code":"23228027001","name":"新柳町１丁目","lat":35.279844,"lng":136.868923},{"code":"23228027002","name":"新柳町２丁目","lat":35.279858,"lng":136.866881},{"code":"23228027003","name":"新柳町３丁目","lat":35.279127,"lng":136.865157},{"code":"23228028001","name":"中央町１丁目","lat":35.277487,"lng":136.86897},{"code":"23228028002","name":"中央町２丁目","lat":35.277469,"lng":136.867215},{"code":"23228028003","name":"中央町３丁目","lat":35.277471,"lng":136.865394},{"code":"23228029001","name":"大地新町１丁目","lat":35.27529,"lng":136.869041},{"code":"23228029002","name":"大地新町２丁目","lat":35.275245,"lng":136.867327},{"code":"23228029003","name":"大地新町３丁目","lat":35.275312,"lng":136.865559},{"code":"23228030001","name":"昭和町１丁目","lat":35.274377,"lng":136.872872},{"code":"23228030002","name":"昭和町２丁目","lat":35.273131,"lng":136.872854},{"code":"23228030003","name":"昭和町３丁目","lat":35.272011,"lng":136.873141}]}
