{"municipality":"23236","name":"みよし市","prefecture":"愛知県","source":{"dataset":"frogcat/japan-small-area","census":"平成27年国勢調査 小地域（e-Stat 統計LOD）","license":"MIT（リポジトリ）／政府統計の総合窓口(e-Stat)の利用規約（元データ・出典表記必要）","fetched":"2026-07-06"},"towns":[{"code":"23236101001","name":"三好町東山","lat":35.093347,"lng":137.086333},{"code":"23236101002","name":"三好町上","lat":35.090375,"lng":137.06983},{"code":"23236101003","name":"三好町向田","lat":35.079877,"lng":137.065496},{"code":"23236101004","name":"三好町東山","lat":35.086759,"lng":137.088845},{"code":"23236101005","name":"三好町東山","lat":35.088901,"lng":137.080362},{"code":"23236101006","name":"三好町南中島","lat":35.09132,"lng":137.074606},{"code":"23236101007","name":"三好町平池","lat":35.096151,"lng":137.073258},{"code":"23236101008","name":"三好町上ケ池","lat":35.080286,"lng":137.082248},{"code":"23236101009","name":"三好町園原台","lat":35.081422,"lng":137.069455},{"code":"232361020","name":"西一色町","lat":35.086763,"lng":137.056876},{"code":"232361030","name":"福田町","lat":35.070429,"lng":137.053814},{"code":"232361040","name":"明知町","lat":35.068849,"lng":137.076819},{"code":"232361050","name":"打越町","lat":35.077837,"lng":137.098287},{"code":"232361060","name":"莇生町","lat":35.102319,"lng":137.101786},{"code":"23236107000","name":"福谷町薬師洞","lat":35.118949,"lng":137.103955},{"code":"23236107001","name":"福谷町根浦","lat":35.113137,"lng":137.102804},{"code":"232361080","name":"黒笹町","lat":35.131709,"lng":137.094091},{"code":"232361090","name":"西陣取山","lat":35.087807,"lng":137.077504},{"code":"232361100","name":"東陣取山","lat":35.08659,"lng":137.080049},{"code":"232361110","name":"東蜂ケ池","lat":35.084515,"lng":137.08061},{"code":"232361120","name":"天王台","lat":35.089397,"lng":137.086751},{"code":"232361130","name":"東山台","lat":35.086748,"lng":137.086545},{"code":"23236114001","name":"三好丘１丁目","lat":35.127294,"lng":137.110045},{"code":"23236114002","name":"三好丘２丁目","lat":35.125098,"lng":137.11384},{"code":"23236114003","name":"三好丘３丁目","lat":35.122975,"lng":137.111393},{"code":"23236114004","name":"三好丘４丁目","lat":35.122526,"lng":137.113764},{"code":"23236114005","name":"三好丘５丁目","lat":35.120548,"lng":137.110163},{"code":"23236114006","name":"三好丘６丁目","lat":35.116874,"lng":137.110101},{"code":"23236114007","name":"三好丘７丁目","lat":35.119965,"lng":137.113503},{"code":"23236114008","name":"三好丘８丁目","lat":35.120871,"lng":137.116872},{"code":"23236115001","name":"三好丘旭１丁目","lat":35.123904,"lng":137.119213},{"code":"23236115002","name":"三好丘旭２丁目","lat":35.122954,"lng":137.121041},{"code":"23236115003","name":"三好丘旭３丁目","lat":35.121609,"lng":137.119726},{"code":"23236115004","name":"三好丘旭４丁目","lat":35.117768,"lng":137.124173},{"code":"23236115005","name":"三好丘旭５丁目","lat":35.121131,"lng":137.124691},{"code":"23236116001","name":"三好丘緑１丁目","lat":35.111297,"lng":137.114845},{"code":"23236116002","name":"三好丘緑２丁目","lat":35.110114,"lng":137.11172},{"code":"23236116003","name":"三好丘緑３丁目","lat":35.10902,"lng":137.114551},{"code":"23236116004","name":"三好丘緑４丁目","lat":35.109707,"lng":137.117372},{"code":"23236116005","name":"三好丘緑５丁目","lat":35.113166,"lng":137.119182},{"code":"23236117001","name":"三好丘桜１丁目","lat":35.113384,"lng":137.108477},{"code":"23236117002","name":"三好丘桜２丁目","lat":35.111249,"lng":137.107513},{"code":"23236117003","name":"三好丘桜３丁目","lat":35.113448,"lng":137.112446},{"code":"23236117004","name":"三好丘桜４丁目","lat":35.113863,"lng":137.116236},{"code":"23236117005","name":"三好丘桜５丁目","lat":35.112997,"lng":137.117488},{"code":"23236118001","name":"園原１丁目","lat":35.0841,"lng":137.072798},{"code":"23236118002","name":"園原２丁目","lat":35.083783,"lng":137.069708},{"code":"23236118003","name":"園原３丁目","lat":35.082012,"lng":137.067375},{"code":"23236118004","name":"園原４丁目","lat":35.080675,"lng":137.066577},{"code":"23236118005","name":"園原５丁目","lat":35.082261,"lng":137.070061},{"code":"232361190","name":"みなよし台","lat":35.077304,"lng":137.087841},{"code":"23236120001","name":"ひばりヶ丘１丁目","lat":35.11796,"lng":137.118877},{"code":"23236120002","name":"ひばりヶ丘２丁目","lat":35.116588,"lng":137.113091},{"code":"232361210","name":"潮見","lat":35.099144,"lng":137.111743},{"code":"23236122001","name":"黒笹１丁目","lat":35.127179,"lng":137.093},{"code":"23236122002","name":"黒笹２丁目","lat":35.1281,"lng":137.097649},{"code":"23236122003","name":"黒笹３丁目","lat":35.12815,"lng":137.099942},{"code":"23236123001","name":"黒笹いずみ１丁目","lat":35.129412,"lng":137.090908},{"code":"23236123002","name":"黒笹いずみ２丁目","lat":35.132124,"lng":137.095344},{"code":"23236123003","name":"黒笹いずみ３丁目","lat":35.130552,"lng":137.097785},{"code":"23236124001","name":"三好丘あおば１丁目","lat":35.129824,"lng":137.103913},{"code":"23236124002","name":"三好丘あおば２丁目","lat":35.128006,"lng":137.104587},{"code":"232361250","name":"南台","lat":35.085495,"lng":137.096847},{"code":"23236126001","name":"根浦町１丁目","lat":35.114328,"lng":137.088712},{"code":"23236126002","name":"根浦町２丁目","lat":35.110745,"lng":137.088346},{"code":"23236126003","name":"根浦町３丁目","lat":35.10929,"lng":137.094232},{"code":"23236126004","name":"根浦町４丁目","lat":35.111943,"lng":137.091877},{"code":"23236126005","name":"根浦町５丁目","lat":35.115921,"lng":137.091824},{"code":"23236126006","name":"根浦町６丁目","lat":35.112346,"lng":137.094634},{"code":"23236126007","name":"根浦町７丁目","lat":35.112416,"lng":137.096594}]}
