{"municipality":"23231","name":"田原市","prefecture":"愛知県","source":{"dataset":"frogcat/japan-small-area","census":"平成27年国勢調査 小地域（e-Stat 統計LOD）","license":"MIT（リポジトリ）／政府統計の総合窓口(e-Stat)の利用規約（元データ・出典表記必要）","fetched":"2026-07-06"},"towns":[{"code":"232310010","name":"六連町","lat":34.65069,"lng":137.31901},{"code":"232310021","name":"やぐま台","lat":34.672012,"lng":137.307824},{"code":"232310022","name":"谷熊町","lat":34.673126,"lng":137.301382},{"code":"232310030","name":"豊島町","lat":34.669674,"lng":137.289112},{"code":"232310040","name":"吉胡町","lat":34.684293,"lng":137.279458},{"code":"232310050","name":"田原港","lat":34.70853,"lng":137.282791},{"code":"23231006101","name":"光崎一丁目","lat":34.710282,"lng":137.279844},{"code":"23231006102","name":"光崎二丁目","lat":34.711328,"lng":137.277952},{"code":"23231006103","name":"光崎三丁目","lat":34.711438,"lng":137.282689},{"code":"232310062","name":"波瀬町","lat":34.70864,"lng":137.278875},{"code":"23231007000","name":"片浜町姫島","lat":34.693968,"lng":137.259717},{"code":"23231007001","name":"片西一丁目","lat":34.693398,"lng":137.260702},{"code":"23231007002","name":"片西二丁目","lat":34.694414,"lng":137.260446},{"code":"23231007003","name":"片西三丁目","lat":34.695398,"lng":137.259419},{"code":"232310080","name":"白谷町","lat":34.683816,"lng":137.242163},{"code":"232310091","name":"赤石","lat":34.663501,"lng":137.267384},{"code":"232310092","name":"加治町","lat":34.659732,"lng":137.252459},{"code":"232310100","name":"大久保町","lat":34.65074,"lng":137.235045},{"code":"232310110","name":"田原町","lat":34.673847,"lng":137.257324},{"code":"232310121","name":"東赤石","lat":34.662884,"lng":137.272022},{"code":"232310122","name":"神戸町","lat":34.656837,"lng":137.279431},{"code":"232310130","name":"西神戸町","lat":34.647168,"lng":137.266143},{"code":"232310140","name":"大草町","lat":34.636395,"lng":137.254509},{"code":"232310150","name":"南神戸町","lat":34.636823,"lng":137.277748},{"code":"232310160","name":"東神戸町","lat":34.642017,"lng":137.294927},{"code":"232310170","name":"芦町","lat":34.640963,"lng":137.191713},{"code":"232310181","name":"ほると台","lat":34.662658,"lng":137.208917},{"code":"232310182","name":"野田町","lat":34.652226,"lng":137.205285},{"code":"232310190","name":"仁崎町","lat":34.669644,"lng":137.223155},{"code":"232310200","name":"姫見台","lat":34.706307,"lng":137.275056},{"code":"232310210","name":"白浜","lat":34.696751,"lng":137.249125},{"code":"232310220","name":"高松町","lat":34.628523,"lng":137.232714},{"code":"232310230","name":"赤羽根町","lat":34.621645,"lng":137.197427},{"code":"232310240","name":"池尻町","lat":34.610923,"lng":137.168402},{"code":"232310250","name":"越戸町","lat":34.598645,"lng":137.154571},{"code":"232310260","name":"宇津江町","lat":34.657244,"lng":137.18079},{"code":"232310270","name":"江比間町","lat":34.648681,"lng":137.16739},{"code":"232310280","name":"八王子町","lat":34.634059,"lng":137.171608},{"code":"232310290","name":"村松町","lat":34.630231,"lng":137.15716},{"code":"232310300","name":"馬伏町","lat":34.642752,"lng":137.154518},{"code":"232310310","name":"伊川津町","lat":34.629545,"lng":137.145315},{"code":"232310320","name":"石神町","lat":34.632372,"lng":137.139327},{"code":"232310330","name":"山田町","lat":34.614808,"lng":137.12781},{"code":"232310340","name":"高木町","lat":34.629943,"lng":137.124721},{"code":"232310350","name":"古田町","lat":34.628692,"lng":137.108158},{"code":"232310360","name":"長沢町","lat":34.61434,"lng":137.110835},{"code":"232310370","name":"福江町","lat":34.630569,"lng":137.099541},{"code":"232310380","name":"保美町","lat":34.616491,"lng":137.089452},{"code":"232310390","name":"向山町","lat":34.63318,"lng":137.098944},{"code":"232310400","name":"中山町","lat":34.625645,"lng":137.066087},{"code":"232310410","name":"亀山町","lat":34.608299,"lng":137.065579},{"code":"232310420","name":"伊良湖町","lat":34.590735,"lng":137.03718},{"code":"232310430","name":"日出町","lat":34.582854,"lng":137.043032},{"code":"232310440","name":"堀切町","lat":34.595776,"lng":137.070961},{"code":"232310450","name":"小塩津町","lat":34.601191,"lng":137.093029},{"code":"232310460","name":"和地町","lat":34.5977,"lng":137.122712},{"code":"232310470","name":"夕陽が浜","lat":34.642839,"lng":137.139362},{"code":"232310480","name":"相川町","lat":34.657979,"lng":137.303826},{"code":"232310490","name":"折立町","lat":34.630033,"lng":137.113889},{"code":"232310500","name":"小中山町","lat":34.646973,"lng":137.071337},{"code":"232310510","name":"西山町","lat":34.611599,"lng":137.053694},{"code":"232310520","name":"御殿山","lat":34.674452,"lng":137.285273}]}
