{"municipality":"23424","name":"海部郡大治町","prefecture":"愛知県","source":{"dataset":"frogcat/japan-small-area","census":"平成27年国勢調査 小地域（e-Stat 統計LOD）","license":"MIT（リポジトリ）／政府統計の総合窓口(e-Stat)の利用規約（元データ・出典表記必要）","fetched":"2026-07-06"},"towns":[{"code":"234240010","name":"大字西條","lat":35.179782,"lng":136.812976},{"code":"234240020","name":"大字中島","lat":35.174256,"lng":136.816669},{"code":"234240030","name":"大字花常","lat":35.180038,"lng":136.82012},{"code":"234240040","name":"大字馬島","lat":35.173219,"lng":136.819895},{"code":"234240050","name":"大字三本木","lat":35.16872,"lng":136.819687},{"code":"234240060","name":"大字砂子","lat":35.161899,"lng":136.823997},{"code":"234240070","name":"大字鎌須賀","lat":35.164234,"lng":136.829467},{"code":"234240080","name":"大字八ツ屋","lat":35.170981,"lng":136.834342},{"code":"234240090","name":"大字長牧","lat":35.180071,"lng":136.834919},{"code":"234240100","name":"大字東條","lat":35.172348,"lng":136.828957},{"code":"234240110","name":"大字北間島","lat":35.175839,"lng":136.830183},{"code":"234240120","name":"大字堀之内","lat":35.176407,"lng":136.824347}]}
