{"municipality":"23562","name":"北設楽郡東栄町","prefecture":"愛知県","source":{"dataset":"frogcat/japan-small-area","census":"平成27年国勢調査 小地域（e-Stat 統計LOD）","license":"MIT（リポジトリ）／政府統計の総合窓口(e-Stat)の利用規約（元データ・出典表記必要）","fetched":"2026-07-06"},"towns":[{"code":"235620010","name":"大字中設楽","lat":35.075959,"lng":137.666588},{"code":"235620020","name":"大字本郷","lat":35.05857,"lng":137.692323},{"code":"235620030","name":"大字下田","lat":35.075897,"lng":137.719414},{"code":"235620040","name":"大字足込","lat":35.099721,"lng":137.72947},{"code":"235620050","name":"大字三輪","lat":35.044997,"lng":137.715929},{"code":"235620060","name":"大字振草","lat":35.115889,"lng":137.642376}]}
