{"municipality":"24204","name":"松阪市","prefecture":"三重県","source":{"dataset":"frogcat/japan-small-area","census":"平成27年国勢調査 小地域（e-Stat 統計LOD）","license":"MIT（リポジトリ）／政府統計の総合窓口(e-Stat)の利用規約（元データ・出典表記必要）","fetched":"2026-07-06"},"towns":[{"code":"242040010","name":"愛宕町","lat":34.570873,"lng":136.537007},{"code":"242040020","name":"挽木町","lat":34.572266,"lng":136.53882},{"code":"242040030","name":"湊町","lat":34.572883,"lng":136.533886},{"code":"242040040","name":"平生町","lat":34.571908,"lng":136.534977},{"code":"242040050","name":"五十鈴町","lat":34.571105,"lng":136.533999},{"code":"242040060","name":"白粉町","lat":34.570969,"lng":136.531393},{"code":"242040070","name":"日野町","lat":34.574844,"lng":136.533076},{"code":"242040080","name":"新町","lat":34.571659,"lng":136.529951},{"code":"242040090","name":"新座町","lat":34.572858,"lng":136.529608},{"code":"242040100","name":"殿町","lat":34.574605,"lng":136.526459},{"code":"242040110","name":"魚町","lat":34.577194,"lng":136.52958},{"code":"242040120","name":"中町","lat":34.577177,"lng":136.532594},{"code":"242040130","name":"本町","lat":34.579493,"lng":136.530954},{"code":"242040140","name":"西町","lat":34.581937,"lng":136.52807},{"code":"242040150","name":"川井町","lat":34.581751,"lng":136.517828},{"code":"242040160","name":"黒田町","lat":34.568455,"lng":136.526792},{"code":"242040170","name":"鎌田町","lat":34.583911,"lng":136.535021},{"code":"242040180","name":"朝日町","lat":34.580269,"lng":136.536152},{"code":"242040190","name":"朝日町１区","lat":34.579615,"lng":136.537026},{"code":"242040200","name":"石津町","lat":34.588365,"lng":136.53999},{"code":"242040210","name":"荒木町","lat":34.591024,"lng":136.540552},{"code":"242040220","name":"郷津町","lat":34.587558,"lng":136.547335},{"code":"242040230","name":"高町","lat":34.583638,"lng":136.553041},{"code":"242040240","name":"若葉町","lat":34.580688,"lng":136.544031},{"code":"242040250","name":"大口町","lat":34.601387,"lng":136.553129},{"code":"24204026001","name":"春日町１丁目","lat":34.566189,"lng":136.533612},{"code":"24204026002","name":"春日町２丁目","lat":34.564084,"lng":136.531765},{"code":"24204026003","name":"春日町３丁目","lat":34.563976,"lng":136.533975},{"code":"242040270","name":"南町","lat":34.568143,"lng":136.534787},{"code":"242040280","name":"長月町","lat":34.569938,"lng":136.534389},{"code":"242040290","name":"茶与町","lat":34.568742,"lng":136.53174},{"code":"242040300","name":"京町","lat":34.575586,"lng":136.535807},{"code":"242040310","name":"京町１区","lat":34.577513,"lng":136.538487},{"code":"242040320","name":"桜町","lat":34.568707,"lng":136.512698},{"code":"242040330","name":"中央町","lat":34.582323,"lng":136.541827},{"code":"24204034001","name":"末広町１丁目","lat":34.575399,"lng":136.539672},{"code":"24204034002","name":"末広町２丁目","lat":34.576924,"lng":136.540969},{"code":"242040350","name":"泉町","lat":34.567707,"lng":136.52189},{"code":"242040360","name":"五月町","lat":34.568302,"lng":136.518563},{"code":"242040370","name":"内五曲町","lat":34.574864,"lng":136.521604},{"code":"242040380","name":"東町","lat":34.576023,"lng":136.551928},{"code":"242040390","name":"宮町","lat":34.57673,"lng":136.543221},{"code":"242040400","name":"清生町","lat":34.57323,"lng":136.542016},{"code":"242040410","name":"幸生町","lat":34.567487,"lng":136.556875},{"code":"242040420","name":"垣鼻町","lat":34.565561,"lng":136.541206},{"code":"242040430","name":"大津町","lat":34.566425,"lng":136.551232},{"code":"242040440","name":"田原町","lat":34.565005,"lng":136.54342},{"code":"242040450","name":"久保町","lat":34.548103,"lng":136.533382},{"code":"242040460","name":"下村町","lat":34.54586,"lng":136.546965},{"code":"242040470","name":"上川町","lat":34.547693,"lng":136.559176},{"code":"242040480","name":"虹が丘町","lat":34.542541,"lng":136.555385},{"code":"242040490","name":"船江町","lat":34.589476,"lng":136.520493},{"code":"242040500","name":"塚本町","lat":34.593112,"lng":136.517812},{"code":"242040510","name":"曲町","lat":34.58335,"lng":136.504672},{"code":"242040520","name":"田牧町","lat":34.57623,"lng":136.504209},{"code":"242040530","name":"井村町","lat":34.574827,"lng":136.511013},{"code":"242040540","name":"外五曲町","lat":34.57546,"lng":136.518288},{"code":"242040550","name":"西之庄町","lat":34.580075,"lng":136.524545},{"code":"242040560","name":"朝田町","lat":34.568023,"lng":136.563862},{"code":"242040570","name":"立田町","lat":34.563374,"lng":136.571453},{"code":"242040580","name":"和屋町","lat":34.557421,"lng":136.576457},{"code":"242040590","name":"上七見町","lat":34.566638,"lng":136.581118},{"code":"242040600","name":"下七見町","lat":34.572342,"lng":136.585777},{"code":"242040610","name":"新屋敷町","lat":34.576887,"lng":136.586185},{"code":"242040620","name":"古井町","lat":34.580871,"lng":136.572754},{"code":"242040630","name":"西野々町","lat":34.579109,"lng":136.565003},{"code":"242040640","name":"佐久米町","lat":34.574315,"lng":136.564816},{"code":"242040650","name":"大宮田町","lat":34.573859,"lng":136.57527},{"code":"242040660","name":"伊勢寺町","lat":34.56206,"lng":136.45929},{"code":"242040670","name":"八重田町","lat":34.569856,"lng":136.491598},{"code":"242040680","name":"深長町","lat":34.577594,"lng":136.489302},{"code":"242040690","name":"岩内町","lat":34.57167,"lng":136.454289},{"code":"242040700","name":"野村町","lat":34.584477,"lng":136.495028},{"code":"242040710","name":"殿村町","lat":34.572983,"lng":136.50076},{"code":"242040720","name":"日丘町","lat":34.563788,"lng":136.489743},{"code":"242040730","name":"井口中町","lat":34.559747,"lng":136.60331},{"code":"242040740","name":"腹太町","lat":34.566004,"lng":136.61307},{"code":"242040750","name":"六根町","lat":34.565063,"lng":136.602945},{"code":"242040760","name":"保津町","lat":34.571945,"lng":136.606724},{"code":"242040770","name":"魚見町","lat":34.570197,"lng":136.595431},{"code":"242040780","name":"新開町","lat":34.577528,"lng":136.602042},{"code":"242040790","name":"川島町","lat":34.579673,"lng":136.595633},{"code":"242040800","name":"東久保町","lat":34.582677,"lng":136.587904},{"code":"242040810","name":"駅部田町","lat":34.554357,"lng":136.526763},{"code":"242040820","name":"小黒田町","lat":34.557044,"lng":136.516443},{"code":"242040831","name":"山室町","lat":34.531525,"lng":136.513533},{"code":"242040832","name":"木の郷町","lat":34.535702,"lng":136.502019},{"code":"242040840","name":"田村町","lat":34.555179,"lng":136.50928},{"code":"242040850","name":"宝塚町","lat":34.553193,"lng":136.517769},{"code":"242040860","name":"御殿山町","lat":34.555082,"lng":136.52236},{"code":"242040870","name":"光町","lat":34.548564,"lng":136.516245},{"code":"242040880","name":"大黒田町","lat":34.56532,"lng":136.522985},{"code":"24204089001","name":"五反田町１丁目","lat":34.564639,"lng":136.520612},{"code":"24204089002","name":"五反田町２丁目","lat":34.565237,"lng":136.519667},{"code":"24204089003","name":"五反田町３丁目","lat":34.565883,"lng":136.518693},{"code":"24204089004","name":"五反田町４丁目","lat":34.565954,"lng":136.517175},{"code":"24204089005","name":"五反田町５丁目","lat":34.566544,"lng":136.515976},{"code":"242040900","name":"広陽町","lat":34.531057,"lng":136.520818},{"code":"242040910","name":"大足町","lat":34.567381,"lng":136.509145},{"code":"242040920","name":"阿形町","lat":34.561932,"lng":136.504969},{"code":"242040930","name":"藤之木町","lat":34.56162,"lng":136.491105},{"code":"242040940","name":"岡本町","lat":34.555802,"lng":136.499573},{"code":"242040950","name":"立野町","lat":34.544622,"lng":136.500675},{"code":"242040960","name":"丹生寺町","lat":34.549117,"lng":136.488764},{"code":"242040970","name":"西野町","lat":34.548286,"lng":136.464633},{"code":"242040980","name":"岡山町","lat":34.556169,"lng":136.479401},{"code":"242040990","name":"平成町","lat":34.55549,"lng":136.492095},{"code":"242041000","name":"小野町","lat":34.608922,"lng":136.467596},{"code":"242041010","name":"大阿坂町","lat":34.598829,"lng":136.465049},{"code":"242041020","name":"小阿坂町","lat":34.585621,"lng":136.46716},{"code":"242041030","name":"美濃田町","lat":34.589654,"lng":136.493224},{"code":"242041040","name":"久保田町","lat":34.589876,"lng":136.531345},{"code":"242041050","name":"大塚町","lat":34.590269,"lng":136.528522},{"code":"242041060","name":"大平尾町","lat":34.595146,"lng":136.537307},{"code":"242041070","name":"新松ヶ島町","lat":34.601059,"lng":136.531681},{"code":"242041080","name":"町平尾町","lat":34.598311,"lng":136.542151},{"code":"242041090","name":"猟師町","lat":34.604356,"lng":136.544023},{"code":"242041100","name":"松崎浦町","lat":34.609683,"lng":136.521042},{"code":"242041110","name":"松ヶ島町","lat":34.603773,"lng":136.527468},{"code":"242041120","name":"六軒町","lat":34.612001,"lng":136.51039},{"code":"242041130","name":"西黒部町","lat":34.587723,"lng":136.574612},{"code":"242041140","name":"松名瀬町","lat":34.598265,"lng":136.582596},{"code":"242041150","name":"高須町","lat":34.595659,"lng":136.566073},{"code":"242041160","name":"東黒部町","lat":34.595065,"lng":136.594361},{"code":"242041170","name":"柿木原町","lat":34.593884,"lng":136.603702},{"code":"242041180","name":"土古路町","lat":34.589927,"lng":136.611224},{"code":"242041190","name":"出間町","lat":34.586659,"lng":136.607333},{"code":"242041200","name":"大垣内町","lat":34.582252,"lng":136.604541},{"code":"242041210","name":"蓮花寺町","lat":34.582437,"lng":136.600147},{"code":"242041220","name":"神守町","lat":34.586332,"lng":136.599851},{"code":"242041230","name":"牛草町","lat":34.58361,"lng":136.597878},{"code":"242041240","name":"垣内田町","lat":34.587761,"lng":136.59711},{"code":"242041250","name":"乙部町","lat":34.585673,"lng":136.593884},{"code":"242041260","name":"柚原町","lat":34.526245,"lng":136.387079},{"code":"242041270","name":"後山町","lat":34.54566,"lng":136.401907},{"code":"242041280","name":"飯福田町","lat":34.561801,"lng":136.400617},{"code":"242041290","name":"与原町","lat":34.553491,"lng":136.419874},{"code":"242041300","name":"六呂木町","lat":34.500747,"lng":136.446344},{"code":"242041310","name":"小片野町","lat":34.489724,"lng":136.440505},{"code":"242041320","name":"大石町","lat":34.492938,"lng":136.419484},{"code":"242041330","name":"茅原町","lat":34.494287,"lng":136.469021},{"code":"242041340","name":"広瀬町","lat":34.507245,"lng":136.481799},{"code":"242041350","name":"御麻生薗町","lat":34.513059,"lng":136.495631},{"code":"242041360","name":"庄町","lat":34.508256,"lng":136.509364},{"code":"242041370","name":"阿波曽町","lat":34.510351,"lng":136.525105},{"code":"242041380","name":"射和町","lat":34.510966,"lng":136.539064},{"code":"242041390","name":"中万町","lat":34.519814,"lng":136.554232},{"code":"242041400","name":"八太町","lat":34.523496,"lng":136.53573},{"code":"242041410","name":"上蛸路町","lat":34.521606,"lng":136.525797},{"code":"242041420","name":"下蛸路町","lat":34.527443,"lng":136.547548},{"code":"242041430","name":"早馬瀬町","lat":34.542876,"lng":136.588603},{"code":"242041440","name":"目田町","lat":34.538118,"lng":136.585617},{"code":"242041450","name":"横地町","lat":34.533035,"lng":136.585479},{"code":"242041460","name":"法田町","lat":34.526819,"lng":136.57945},{"code":"242041470","name":"伊勢場町","lat":34.528808,"lng":136.590578},{"code":"242041480","name":"稲木町","lat":34.540393,"lng":136.596412},{"code":"242041490","name":"高木町","lat":34.551159,"lng":136.601422},{"code":"242041500","name":"桂瀬町","lat":34.537072,"lng":136.49041},{"code":"242041510","name":"笹川町","lat":34.53227,"lng":136.481757},{"code":"242041520","name":"大河内町","lat":34.516904,"lng":136.471682},{"code":"242041530","name":"矢津町","lat":34.531102,"lng":136.458993},{"code":"242041540","name":"勢津町","lat":34.532466,"lng":136.441836},{"code":"242041550","name":"辻原町","lat":34.511647,"lng":136.443072},{"code":"242041560","name":"阪内町","lat":34.521722,"lng":136.417157},{"code":"242041570","name":"山添町","lat":34.531126,"lng":136.56762},{"code":"242041580","name":"安楽町","lat":34.537724,"lng":136.573663},{"code":"242041590","name":"山下町","lat":34.542678,"lng":136.572438},{"code":"242041600","name":"豊原町","lat":34.546821,"lng":136.5771},{"code":"242041610","name":"櫛田町","lat":34.552651,"lng":136.588404},{"code":"242041620","name":"清水町","lat":34.559737,"lng":136.590078},{"code":"242041630","name":"菅生町","lat":34.563748,"lng":136.58655},{"code":"242041640","name":"南虹が丘町","lat":34.536798,"lng":136.554989},{"code":"242041650","name":"萌木町","lat":34.539401,"lng":136.536115},{"code":"242041670","name":"嬉野上小川町","lat":34.525551,"lng":136.356548},{"code":"242041680","name":"嬉野小原町","lat":34.556572,"lng":136.378363},{"code":"242041690","name":"嬉野岩倉町","lat":34.576716,"lng":136.410595},{"code":"242041700","name":"嬉野合ケ野町","lat":34.584346,"lng":136.389693},{"code":"242041710","name":"嬉野矢下町","lat":34.589375,"lng":136.411369},{"code":"242041720","name":"嬉野宮野町","lat":34.601957,"lng":136.408242},{"code":"242041730","name":"嬉野森本町","lat":34.582743,"lng":136.4346},{"code":"242041740","name":"嬉野滝之川町","lat":34.60696,"lng":136.42302},{"code":"242041750","name":"嬉野釜生田町","lat":34.616509,"lng":136.423719},{"code":"242041760","name":"嬉野堀之内町","lat":34.61953,"lng":136.457924},{"code":"242041771","name":"嬉野下之庄町","lat":34.62157,"lng":136.467381},{"code":"242041772","name":"嬉野上野町","lat":34.615159,"lng":136.468115},{"code":"242041773","name":"嬉野神ノ木町","lat":34.613225,"lng":136.463979},{"code":"242041780","name":"嬉野薬王寺町","lat":34.605925,"lng":136.452449},{"code":"242041790","name":"嬉野八田町","lat":34.615803,"lng":136.450478},{"code":"242041800","name":"嬉野井之上町","lat":34.614328,"lng":136.442906},{"code":"242041810","name":"嬉野島田町","lat":34.626294,"lng":136.437822},{"code":"242041820","name":"嬉野一志町","lat":34.628031,"lng":136.459237},{"code":"242041830","name":"嬉野中川町","lat":34.631021,"lng":136.475583},{"code":"242041840","name":"嬉野天花寺町","lat":34.634196,"lng":136.459175},{"code":"242041850","name":"嬉野宮古町","lat":34.64005,"lng":136.470919},{"code":"242041860","name":"嬉野平生町","lat":34.644526,"lng":136.467089},{"code":"242041870","name":"嬉野黒田町","lat":34.643008,"lng":136.479221},{"code":"242041880","name":"嬉野野田町","lat":34.637314,"lng":136.483848},{"code":"242041890","name":"嬉野見永町","lat":34.641511,"lng":136.48587},{"code":"242041900","name":"嬉野川原木造町","lat":34.644428,"lng":136.491309},{"code":"242041910","name":"嬉野新屋庄町","lat":34.637359,"lng":136.495191},{"code":"242041920","name":"嬉野小村町","lat":34.632685,"lng":136.506439},{"code":"242041930","name":"嬉野川北町","lat":34.630156,"lng":136.494288},{"code":"242041941","name":"嬉野須賀町","lat":34.624501,"lng":136.49133},{"code":"242041942","name":"嬉野町","lat":34.625016,"lng":136.480563},{"code":"242041950","name":"嬉野権現前町","lat":34.620217,"lng":136.484399},{"code":"242041960","name":"嬉野田村町","lat":34.608729,"lng":136.487206},{"code":"242041970","name":"嬉野須賀領町","lat":34.613643,"lng":136.48938},{"code":"242041990","name":"嬉野算所町","lat":34.615859,"lng":136.478297},{"code":"242042020","name":"嬉野津屋城町","lat":34.617499,"lng":136.499323},{"code":"242042030","name":"嬉野黒野町","lat":34.601128,"lng":136.484829},{"code":"242042040","name":"久米町","lat":34.597222,"lng":136.512095},{"code":"242042050","name":"市場庄町","lat":34.605675,"lng":136.513419},{"code":"242042060","name":"中ノ庄町","lat":34.607065,"lng":136.502957},{"code":"242042070","name":"上ノ庄町","lat":34.599472,"lng":136.496619},{"code":"242042080","name":"曽原町","lat":34.624107,"lng":136.523777},{"code":"242042090","name":"中林町","lat":34.629863,"lng":136.509189},{"code":"242042100","name":"中道町","lat":34.621228,"lng":136.51429},{"code":"242042110","name":"小津町","lat":34.61629,"lng":136.51417},{"code":"242042120","name":"喜多村新田町","lat":34.615298,"lng":136.527749},{"code":"242042130","name":"小舟江町","lat":34.634746,"lng":136.517476},{"code":"242042140","name":"笠松町","lat":34.631877,"lng":136.527964},{"code":"242042150","name":"星合町","lat":34.641159,"lng":136.529278},{"code":"242042160","name":"五主町","lat":34.629957,"lng":136.540381},{"code":"242042170","name":"小野江町","lat":34.643041,"lng":136.516685},{"code":"242042180","name":"甚目町","lat":34.646668,"lng":136.505382},{"code":"242042190","name":"舞出町","lat":34.646616,"lng":136.497707},{"code":"242042200","name":"肥留町","lat":34.639258,"lng":136.508677},{"code":"242042210","name":"西肥留町","lat":34.63731,"lng":136.503705},{"code":"242042220","name":"飯南町上仁柿","lat":34.48466,"lng":136.347403},{"code":"242042230","name":"飯南町下仁柿","lat":34.476426,"lng":136.373491},{"code":"242042240","name":"飯南町横野","lat":34.492159,"lng":136.387008},{"code":"242042250","name":"飯南町深野","lat":34.490427,"lng":136.400549},{"code":"242042260","name":"飯南町粥見","lat":34.456574,"lng":136.387947},{"code":"242042270","name":"飯南町向粥見","lat":34.428486,"lng":136.389032},{"code":"242042280","name":"飯南町有間野","lat":34.421301,"lng":136.348959},{"code":"242042290","name":"飯高町下滝野","lat":34.448275,"lng":136.349599},{"code":"242042300","name":"飯高町宮前","lat":34.444683,"lng":136.330358},{"code":"242042310","name":"飯高町野々口","lat":34.415724,"lng":136.320542},{"code":"242042320","name":"飯高町作滝","lat":34.426044,"lng":136.314357},{"code":"242042330","name":"飯高町赤桶","lat":34.445618,"lng":136.304576},{"code":"242042340","name":"飯高町田引","lat":34.427552,"lng":136.2813},{"code":"242042350","name":"飯高町粟野","lat":34.428726,"lng":136.248287},{"code":"242042360","name":"飯高町富永","lat":34.42989,"lng":136.21836},{"code":"242042370","name":"飯高町宮本","lat":34.400348,"lng":136.245437},{"code":"242042380","name":"飯高町七日市","lat":34.412776,"lng":136.215812},{"code":"242042390","name":"飯高町森","lat":34.373754,"lng":136.223963},{"code":"242042400","name":"飯高町青田","lat":34.382453,"lng":136.138556},{"code":"242042410","name":"飯高町猿山","lat":34.360784,"lng":136.180922},{"code":"242042420","name":"飯高町蓮","lat":34.342338,"lng":136.141373},{"code":"242042430","name":"飯高町乙栗子","lat":34.406904,"lng":136.193437},{"code":"242042440","name":"飯高町加波","lat":34.413914,"lng":136.176164},{"code":"242042450","name":"飯高町桑原","lat":34.423394,"lng":136.166459},{"code":"242042460","name":"飯高町月出","lat":34.439597,"lng":136.17968},{"code":"242042470","name":"飯高町波瀬","lat":34.42363,"lng":136.149011},{"code":"242042480","name":"飯高町太良木","lat":34.436122,"lng":136.132364},{"code":"242042490","name":"飯高町草鹿野","lat":34.432191,"lng":136.117281},{"code":"242042500","name":"飯高町落方","lat":34.416575,"lng":136.133765},{"code":"242042510","name":"飯高町舟戸","lat":34.423919,"lng":136.106074},{"code":"242042520","name":"飯高町木梶","lat":34.401703,"lng":136.097419},{"code":"242042530","name":"飯高町栃谷","lat":34.400752,"lng":136.12908},{"code":"24204254001","name":"嬉野中川新町１丁目","lat":34.634196,"lng":136.477336},{"code":"24204254002","name":"嬉野中川新町２丁目","lat":34.635309,"lng":136.481314},{"code":"24204254003","name":"嬉野中川新町３丁目","lat":34.632378,"lng":136.482008},{"code":"24204254004","name":"嬉野中川新町４丁目","lat":34.631365,"lng":136.478731}]}
