{"municipality":"24212","name":"熊野市","prefecture":"三重県","source":{"dataset":"frogcat/japan-small-area","census":"平成27年国勢調査 小地域（e-Stat 統計LOD）","license":"MIT（リポジトリ）／政府統計の総合窓口(e-Stat)の利用規約（元データ・出典表記必要）","fetched":"2026-07-06"},"towns":[{"code":"242120010","name":"須野町","lat":33.948835,"lng":136.215487},{"code":"242120020","name":"甫母町","lat":33.945294,"lng":136.203679},{"code":"242120030","name":"二木島里町","lat":33.943992,"lng":136.189984},{"code":"242120040","name":"二木島町","lat":33.944899,"lng":136.181525},{"code":"242120050","name":"遊木町","lat":33.923867,"lng":136.177474},{"code":"242120060","name":"新鹿町","lat":33.941189,"lng":136.141334},{"code":"242120070","name":"波田須町","lat":33.913006,"lng":136.136953},{"code":"242120080","name":"磯崎町","lat":33.896631,"lng":136.134116},{"code":"242120090","name":"大泊町","lat":33.915592,"lng":136.110507},{"code":"242120100","name":"木本町","lat":33.901466,"lng":136.10167},{"code":"242120110","name":"井戸町","lat":33.910896,"lng":136.068394},{"code":"242120120","name":"有馬町","lat":33.8853,"lng":136.064315},{"code":"242120130","name":"久生屋町","lat":33.861584,"lng":136.066295},{"code":"242120140","name":"金山町","lat":33.881993,"lng":136.043397},{"code":"242120210","name":"育生町大井","lat":33.93338,"lng":135.986084},{"code":"242120220","name":"育生町長井","lat":33.931009,"lng":135.986463},{"code":"242120230","name":"育生町尾川","lat":33.909549,"lng":135.985229},{"code":"242120240","name":"育生町粉所","lat":33.922481,"lng":136.006091},{"code":"242120250","name":"育生町赤倉","lat":33.911044,"lng":136.019806},{"code":"242120310","name":"神川町神上","lat":33.988234,"lng":136.012116},{"code":"242120320","name":"神川町長原","lat":33.934463,"lng":136.022988},{"code":"242120330","name":"神川町花知","lat":33.959086,"lng":135.984521},{"code":"242120340","name":"神川町柳谷","lat":33.955039,"lng":136.032174},{"code":"242120410","name":"五郷町和田","lat":33.968044,"lng":136.050595},{"code":"242120420","name":"五郷町寺谷","lat":33.976272,"lng":136.061208},{"code":"242120430","name":"五郷町桃崎","lat":34.007761,"lng":136.043218},{"code":"242120440","name":"五郷町湯の谷","lat":33.991534,"lng":136.067035},{"code":"242120450","name":"五郷町大井谷","lat":33.971884,"lng":136.029751},{"code":"242120510","name":"飛鳥町大又","lat":33.995241,"lng":136.109343},{"code":"242120520","name":"飛鳥町小又","lat":33.960457,"lng":136.113838},{"code":"242120530","name":"飛鳥町小阪","lat":33.94444,"lng":136.100094},{"code":"242120540","name":"飛鳥町佐渡","lat":33.942423,"lng":136.083452},{"code":"242120550","name":"飛鳥町野口","lat":33.949501,"lng":136.081611},{"code":"242120560","name":"飛鳥町神山","lat":33.9448,"lng":136.067174},{"code":"242120570","name":"紀和町小森","lat":33.909243,"lng":135.948275},{"code":"242120580","name":"紀和町木津呂","lat":33.867007,"lng":135.921579},{"code":"242120590","name":"紀和町花井","lat":33.822704,"lng":135.890578}]}
