{"municipality":"24472","name":"度会郡南伊勢町","prefecture":"三重県","source":{"dataset":"frogcat/japan-small-area","census":"平成27年国勢調査 小地域（e-Stat 統計LOD）","license":"MIT（リポジトリ）／政府統計の総合窓口(e-Stat)の利用規約（元データ・出典表記必要）","fetched":"2026-07-06"},"towns":[{"code":"244720010","name":"五ヶ所浦","lat":34.358369,"lng":136.695439},{"code":"244720020","name":"切原","lat":34.37488,"lng":136.71623},{"code":"244720030","name":"船越","lat":34.34929,"lng":136.681394},{"code":"244720040","name":"中津浜浦","lat":34.330539,"lng":136.686974},{"code":"244720050","name":"飯満","lat":34.34559,"lng":136.710963},{"code":"244720060","name":"内瀬","lat":34.350089,"lng":136.661208},{"code":"244720070","name":"伊勢路","lat":34.374143,"lng":136.658991},{"code":"244720080","name":"斉田","lat":34.354663,"lng":136.626319},{"code":"244720090","name":"始神","lat":34.337709,"lng":136.615556},{"code":"244720100","name":"押渕","lat":34.323015,"lng":136.614208},{"code":"244720110","name":"迫間浦","lat":34.319073,"lng":136.645692},{"code":"244720120","name":"礫浦","lat":34.310748,"lng":136.66778},{"code":"244720130","name":"相賀浦","lat":34.294744,"lng":136.640657},{"code":"244720140","name":"田曽浦","lat":34.296388,"lng":136.700443},{"code":"244720150","name":"宿浦","lat":34.307471,"lng":136.697049},{"code":"244720160","name":"泉","lat":34.359816,"lng":136.731662},{"code":"244720170","name":"神津佐","lat":34.34955,"lng":136.740911},{"code":"244720180","name":"下津浦","lat":34.330944,"lng":136.734949},{"code":"244720190","name":"木谷","lat":34.322508,"lng":136.71511},{"code":"244720200","name":"棚橋竃","lat":34.253401,"lng":136.431912},{"code":"244720210","name":"新桑竃","lat":34.233178,"lng":136.437708},{"code":"244720220","name":"古和浦","lat":34.272269,"lng":136.448238},{"code":"244720230","name":"栃木竃","lat":34.242271,"lng":136.474221},{"code":"244720240","name":"小方竃","lat":34.251748,"lng":136.487015},{"code":"244720250","name":"方座浦","lat":34.253988,"lng":136.504059},{"code":"244720260","name":"神前浦","lat":34.267189,"lng":136.501797},{"code":"244720270","name":"村山","lat":34.301493,"lng":136.481237},{"code":"244720280","name":"伊勢地","lat":34.287498,"lng":136.498821},{"code":"244720290","name":"河内","lat":34.30732,"lng":136.515559},{"code":"244720300","name":"東宮","lat":34.290857,"lng":136.540536},{"code":"244720310","name":"奈屋浦","lat":34.278435,"lng":136.541151},{"code":"244720320","name":"贄浦","lat":34.281997,"lng":136.555405},{"code":"244720330","name":"慥柄浦","lat":34.291944,"lng":136.561385},{"code":"244720340","name":"道方","lat":34.306116,"lng":136.573649},{"code":"244720350","name":"大江","lat":34.302816,"lng":136.609147},{"code":"244720360","name":"道行竃","lat":34.282778,"lng":136.607596},{"code":"244720370","name":"阿曽浦","lat":34.276099,"lng":136.583722},{"code":"244720380","name":"大方竃","lat":34.266724,"lng":136.600544}]}
