{"municipality":"25425","name":"愛知郡愛荘町","prefecture":"滋賀県","source":{"dataset":"frogcat/japan-small-area","census":"平成27年国勢調査 小地域（e-Stat 統計LOD）","license":"MIT（リポジトリ）／政府統計の総合窓口(e-Stat)の利用規約（元データ・出典表記必要）","fetched":"2026-07-06"},"towns":[{"code":"254250010","name":"大字目加田","lat":35.18588,"lng":136.237496},{"code":"254250020","name":"大字深草","lat":35.188978,"lng":136.242618},{"code":"254250030","name":"大字西出","lat":35.186888,"lng":136.246482},{"code":"254250040","name":"大字円城寺","lat":35.185514,"lng":136.253895},{"code":"254250050","name":"大字常安寺","lat":35.184013,"lng":136.2625},{"code":"254250060","name":"大字竹原","lat":35.178562,"lng":136.266047},{"code":"254250070","name":"大字岩倉","lat":35.17403,"lng":136.270269},{"code":"254250080","name":"大字東出","lat":35.179326,"lng":136.253906},{"code":"254250090","name":"大字安孫子","lat":35.175322,"lng":136.246806},{"code":"254250100","name":"大字蚊野","lat":35.166353,"lng":136.259477},{"code":"254250110","name":"大字軽野","lat":35.165501,"lng":136.248399},{"code":"254250120","name":"大字斧磨","lat":35.173671,"lng":136.287026},{"code":"254250130","name":"大字松尾寺","lat":35.165472,"lng":136.27915},{"code":"254250140","name":"大字松尾寺","lat":35.153612,"lng":136.307911},{"code":"254250150","name":"大字上蚊野","lat":35.155835,"lng":136.275318},{"code":"254250160","name":"大字下八木","lat":35.175266,"lng":136.233323},{"code":"254250170","name":"大字北八木","lat":35.17147,"lng":136.241298},{"code":"254250180","name":"大字宮後","lat":35.167244,"lng":136.241471},{"code":"254250190","name":"大字沖","lat":35.163277,"lng":136.239863},{"code":"254250200","name":"大字島川","lat":35.171118,"lng":136.232213},{"code":"254250210","name":"大字矢守","lat":35.170803,"lng":136.222683},{"code":"254250220","name":"大字野々目","lat":35.169083,"lng":136.226134},{"code":"254250230","name":"大字長塚","lat":35.16422,"lng":136.231308},{"code":"254250240","name":"大字南野々目","lat":35.166191,"lng":136.224005},{"code":"254250250","name":"大字栗田","lat":35.16103,"lng":136.229074},{"code":"254250260","name":"大字元持","lat":35.156563,"lng":136.241647},{"code":"254250270","name":"大字香之庄","lat":35.15837,"lng":136.249153},{"code":"254250280","name":"大字蚊野外","lat":35.159438,"lng":136.259157},{"code":"254250290","name":"大字山川原","lat":35.194891,"lng":136.195692},{"code":"254250300","name":"大字川原","lat":35.19147,"lng":136.200152},{"code":"254250310","name":"大字長野","lat":35.185683,"lng":136.206668},{"code":"254250320","name":"大字石橋","lat":35.183264,"lng":136.219691},{"code":"254250330","name":"大字川久保","lat":35.183299,"lng":136.223134},{"code":"254250340","name":"大字沓掛","lat":35.180475,"lng":136.21534},{"code":"254250350","name":"大字中宿","lat":35.177066,"lng":136.208519},{"code":"254250360","name":"大字市","lat":35.173465,"lng":136.216485},{"code":"254250370","name":"大字愛知川","lat":35.169483,"lng":136.204787},{"code":"254250380","name":"大字豊満","lat":35.163705,"lng":136.217272},{"code":"254250390","name":"大字東円堂","lat":35.154989,"lng":136.213068},{"code":"254250400","name":"大字平居","lat":35.154808,"lng":136.225193},{"code":"254250410","name":"大字畑田","lat":35.14907,"lng":136.227486},{"code":"254250420","name":"大字苅間","lat":35.148532,"lng":136.220828}]}
