{"municipality":"26103","name":"京都市左京区","prefecture":"京都府","source":{"dataset":"frogcat/japan-small-area","census":"平成27年国勢調査 小地域（e-Stat 統計LOD）","license":"MIT（リポジトリ）／政府統計の総合窓口(e-Stat)の利用規約（元データ・出典表記必要）","fetched":"2026-07-06"},"towns":[{"code":"26103001101","name":"岩倉北岩倉中在地町","lat":35.084465,"lng":135.784993},{"code":"26103001102","name":"岩倉北岩倉忠在地町","lat":35.084122,"lng":135.786968},{"code":"26103001103","name":"岩倉北岩倉上蔵町","lat":35.084963,"lng":135.774608},{"code":"26103001104","name":"岩倉北岩倉西河原町","lat":35.075079,"lng":135.781115},{"code":"26103001106","name":"岩倉北岩倉木野町","lat":35.076791,"lng":135.772529},{"code":"26103001108","name":"岩倉北岩倉花園町","lat":35.076991,"lng":135.802613},{"code":"26103001109","name":"岩倉北岩倉長谷町","lat":35.090262,"lng":135.798942},{"code":"26103001111","name":"岩倉北岩倉村松町","lat":35.094274,"lng":135.785209},{"code":"26103001201","name":"明徳岩倉中在地町","lat":35.079393,"lng":135.784976},{"code":"26103001202","name":"明徳岩倉忠在地町","lat":35.076707,"lng":135.786847},{"code":"26103001203","name":"明徳岩倉上蔵町","lat":35.079676,"lng":135.78262},{"code":"26103001204","name":"明徳岩倉西河原町","lat":35.074232,"lng":135.783523},{"code":"26103001205","name":"明徳岩倉下在地町","lat":35.073672,"lng":135.785912},{"code":"26103001207","name":"明徳岩倉大鷺町","lat":35.070419,"lng":135.7864},{"code":"26103001208","name":"明徳岩倉花園町","lat":35.072658,"lng":135.794184},{"code":"26103001209","name":"明徳岩倉長谷町","lat":35.076988,"lng":135.793003},{"code":"26103001212","name":"明徳岩倉中町","lat":35.07512,"lng":135.789425},{"code":"26103001213","name":"明徳岩倉三宅町","lat":35.068489,"lng":135.79284},{"code":"26103001302","name":"岩倉南岩倉忠在地町","lat":35.069804,"lng":135.787744},{"code":"26103001304","name":"岩倉南岩倉西河原町","lat":35.071796,"lng":135.779105},{"code":"26103001306","name":"岩倉南岩倉木野町","lat":35.071943,"lng":135.775815},{"code":"26103001307","name":"岩倉南岩倉大鷺町","lat":35.066743,"lng":135.787113},{"code":"26103001308","name":"岩倉南岩倉花園町","lat":35.069852,"lng":135.78955},{"code":"26103001310","name":"岩倉南岩倉幡枝町","lat":35.065737,"lng":135.773307},{"code":"26103001313","name":"岩倉南岩倉三宅町","lat":35.06757,"lng":135.790688},{"code":"26103001314","name":"岩倉南岩倉中大鷺町","lat":35.063781,"lng":135.787142},{"code":"26103001315","name":"岩倉南岩倉南大鷺町","lat":35.062296,"lng":135.785358},{"code":"26103001316","name":"岩倉南岩倉南三宅町","lat":35.065246,"lng":135.789819},{"code":"26103001317","name":"岩倉南岩倉南四ノ坪町","lat":35.065898,"lng":135.783937},{"code":"26103001318","name":"岩倉南岩倉南桑原町","lat":35.066108,"lng":135.782323},{"code":"26103001319","name":"岩倉南岩倉東宮田町","lat":35.066331,"lng":135.780697},{"code":"26103001320","name":"岩倉南岩倉西宮田町","lat":35.066575,"lng":135.778999},{"code":"26103001321","name":"岩倉南岩倉南平岡町","lat":35.066732,"lng":135.777074},{"code":"26103001322","name":"岩倉南岩倉東五田町","lat":35.064268,"lng":135.782035},{"code":"26103001323","name":"岩倉南岩倉西五田町","lat":35.064891,"lng":135.779418},{"code":"26103001324","name":"岩倉南岩倉北池田町","lat":35.065094,"lng":135.776582},{"code":"26103001325","name":"岩倉南岩倉南池田町","lat":35.063849,"lng":135.776131},{"code":"26103001326","name":"岩倉南岩倉南河原町","lat":35.068517,"lng":135.77997},{"code":"26103001327","name":"岩倉南岩倉中河原町","lat":35.070546,"lng":135.780537},{"code":"26103001328","name":"岩倉南岩倉三笠町","lat":35.070281,"lng":135.784127},{"code":"26103001329","name":"岩倉南岩倉北桑原町","lat":35.068089,"lng":135.782948},{"code":"26103001330","name":"岩倉南岩倉北四ノ坪町","lat":35.067898,"lng":135.784706},{"code":"26103001331","name":"岩倉南岩倉南木野町","lat":35.070621,"lng":135.777432},{"code":"26103001332","name":"岩倉南岩倉北平岡町","lat":35.068491,"lng":135.777579},{"code":"26103002001","name":"静市岩倉上蔵町","lat":35.084953,"lng":135.763709},{"code":"26103002002","name":"静市岩倉木野町","lat":35.07934,"lng":135.766466},{"code":"26103002003","name":"静市静市静原町","lat":35.119511,"lng":135.795516},{"code":"26103002004","name":"静市静市市原町","lat":35.087678,"lng":135.755461},{"code":"26103002005","name":"静市静市野中町","lat":35.095104,"lng":135.767675},{"code":"26103002006","name":"静市岩倉幡枝町","lat":35.104191,"lng":135.773327},{"code":"26103003001","name":"鞍馬鞍馬本町","lat":35.136445,"lng":135.777924},{"code":"26103003002","name":"鞍馬鞍馬二ノ瀬町","lat":35.107465,"lng":135.770318},{"code":"26103003003","name":"鞍馬鞍馬貴船町","lat":35.124054,"lng":135.75279},{"code":"26103004001","name":"花脊花脊別所町","lat":35.172376,"lng":135.783227},{"code":"26103004002","name":"花脊花脊大布施町","lat":35.203528,"lng":135.779728},{"code":"26103004003","name":"花脊花脊八桝町","lat":35.223298,"lng":135.786206},{"code":"26103004004","name":"花脊花脊原地町","lat":35.237987,"lng":135.795112},{"code":"26103005001","name":"久多久多下の町","lat":35.247606,"lng":135.829092},{"code":"26103005002","name":"久多久多川合町","lat":35.271283,"lng":135.845539},{"code":"26103005003","name":"久多久多中の町","lat":35.27269,"lng":135.819707},{"code":"26103005004","name":"久多久多上の町","lat":35.294511,"lng":135.80128},{"code":"26103005005","name":"久多久多宮の町","lat":35.260565,"lng":135.806076},{"code":"26103006001","name":"広河原広河原杓子屋町","lat":35.2493,"lng":135.767226},{"code":"26103006002","name":"広河原広河原能見町","lat":35.269138,"lng":135.778936},{"code":"26103006003","name":"広河原広河原下之町","lat":35.271615,"lng":135.760156},{"code":"26103006004","name":"広河原広河原菅原町","lat":35.254757,"lng":135.74134},{"code":"26103006005","name":"広河原広河原尾花町","lat":35.275147,"lng":135.741549},{"code":"26103007001","name":"大原大原戸寺町","lat":35.104817,"lng":135.83022},{"code":"26103007002","name":"大原大原上野町","lat":35.108085,"lng":135.835142},{"code":"26103007003","name":"大原大原大長瀬町","lat":35.113795,"lng":135.835438},{"code":"26103007004","name":"大原大原来迎院町","lat":35.119432,"lng":135.841119},{"code":"26103007005","name":"大原大原勝林院町","lat":35.130398,"lng":135.83947},{"code":"26103007006","name":"大原大原古知平町","lat":35.136684,"lng":135.829531},{"code":"26103007007","name":"大原大原草生町","lat":35.129739,"lng":135.819528},{"code":"26103007008","name":"大原大原野村町","lat":35.11544,"lng":135.816398},{"code":"26103007009","name":"大原大原井出町","lat":35.103388,"lng":135.814554},{"code":"26103007010","name":"大原大原小出石町","lat":35.155037,"lng":135.829854},{"code":"26103007011","name":"大原大原百井町","lat":35.174932,"lng":135.816301},{"code":"26103007012","name":"大原大原大見町","lat":35.192676,"lng":135.811693},{"code":"26103007013","name":"大原大原尾越町","lat":35.211899,"lng":135.823201},{"code":"26103008001","name":"八瀬八瀬花尻町","lat":35.096585,"lng":135.827614},{"code":"26103008002","name":"八瀬八瀬秋元町","lat":35.080133,"lng":135.82733},{"code":"26103008003","name":"八瀬八瀬近衛町","lat":35.083922,"lng":135.813328},{"code":"26103008004","name":"八瀬八瀬野瀬町","lat":35.067962,"lng":135.814728},{"code":"26103009001","name":"上高野上高野東山","lat":35.063219,"lng":135.811288},{"code":"26103009002","name":"上高野上高野東田町","lat":35.061587,"lng":135.803039},{"code":"26103009003","name":"上高野上高野掃部林町","lat":35.060657,"lng":135.801973},{"code":"26103009004","name":"上高野上高野釜土町","lat":35.060616,"lng":135.800742},{"code":"26103009005","name":"上高野上高野上畑町","lat":35.061275,"lng":135.799207},{"code":"26103009006","name":"上高野上高野口小森町","lat":35.062958,"lng":135.800796},{"code":"26103009007","name":"上高野上高野奥小森町","lat":35.06341,"lng":135.802577},{"code":"26103009008","name":"上高野上高野植ノ町","lat":35.062692,"lng":135.799354},{"code":"26103009009","name":"上高野上高野稲荷町","lat":35.062691,"lng":135.797982},{"code":"26103009010","name":"上高野上高野木ノ下町","lat":35.062763,"lng":135.796664},{"code":"26103009011","name":"上高野上高野隣好町","lat":35.062132,"lng":135.794794},{"code":"26103009012","name":"上高野上高野鐘突町","lat":35.061254,"lng":135.795263},{"code":"26103009013","name":"上高野上高野山ノ橋町","lat":35.060042,"lng":135.791603},{"code":"26103009014","name":"上高野上高野西氷室町","lat":35.059296,"lng":135.79177},{"code":"26103009015","name":"上高野上高野上荒蒔町","lat":35.058409,"lng":135.791802},{"code":"26103009016","name":"上高野上高野下荒蒔町","lat":35.057274,"lng":135.791627},{"code":"26103009017","name":"上高野上高野大塚町","lat":35.056957,"lng":135.792982},{"code":"26103009018","name":"上高野上高野東氷室町","lat":35.058857,"lng":135.793029},{"code":"26103009019","name":"上高野上高野水車町","lat":35.064149,"lng":135.801596},{"code":"26103009020","name":"上高野上高野八幡町","lat":35.063823,"lng":135.799695},{"code":"26103009021","name":"上高野上高野川原町","lat":35.063956,"lng":135.797973},{"code":"26103009022","name":"上高野上高野大橋町","lat":35.064001,"lng":135.796971},{"code":"26103009023","name":"上高野上高野北川原町","lat":35.063446,"lng":135.795535},{"code":"26103009024","name":"上高野上高野小野町","lat":35.064058,"lng":135.795477},{"code":"26103009025","name":"上高野上高野鳥脇町","lat":35.06265,"lng":135.793567},{"code":"26103009026","name":"上高野上高野車地町","lat":35.062075,"lng":135.792228},{"code":"26103009027","name":"上高野上高野野上町","lat":35.061819,"lng":135.793416},{"code":"26103009028","name":"上高野上高野大明神町","lat":35.066086,"lng":135.795505},{"code":"26103009029","name":"上高野上高野三宅町","lat":35.067716,"lng":135.793951},{"code":"26103009030","name":"上高野上高野北田町","lat":35.066197,"lng":135.79417},{"code":"26103009031","name":"上高野上高野大湯手町","lat":35.064225,"lng":135.791704},{"code":"26103009032","name":"上高野上高野薩田町","lat":35.064906,"lng":135.792138},{"code":"26103009033","name":"上高野上高野諸木町","lat":35.06442,"lng":135.790617},{"code":"26103009034","name":"上高野上高野仲町","lat":35.062903,"lng":135.790855},{"code":"26103009035","name":"上高野上高野古川町","lat":35.061065,"lng":135.790473},{"code":"26103009036","name":"上高野上高野流田町","lat":35.058427,"lng":135.79012},{"code":"26103009037","name":"上高野上高野石田町","lat":35.060777,"lng":135.789145},{"code":"26103009038","name":"上高野上高野鷺町","lat":35.06183,"lng":135.787714},{"code":"26103009039","name":"上高野上高野深田町","lat":35.06316,"lng":135.789203},{"code":"26103009040","name":"上高野上高野防山","lat":35.059805,"lng":135.803483},{"code":"26103009041","name":"上高野上高野西明寺山","lat":35.067707,"lng":135.800211},{"code":"26103009042","name":"上高野上高野尾保地町","lat":35.063999,"lng":135.793643},{"code":"26103009043","name":"上高野上高野池ノ内町","lat":35.065006,"lng":135.794226},{"code":"26103009044","name":"上高野上高野三反田町","lat":35.063312,"lng":135.793468},{"code":"26103009045","name":"上高野上高野市川町","lat":35.065146,"lng":135.792983},{"code":"26103009046","name":"上高野上高野松田町","lat":35.060888,"lng":135.794116},{"code":"26103009047","name":"上高野上高野下東野町","lat":35.061856,"lng":135.800312},{"code":"26103009048","name":"上高野上高野沢淵町","lat":35.058677,"lng":135.797073},{"code":"26103009049","name":"上高野上高野畑町","lat":35.059755,"lng":135.799017},{"code":"26103009050","name":"上高野上高野前田町","lat":35.059852,"lng":135.79711},{"code":"26103009051","name":"上高野上高野畑ケ田町","lat":35.061293,"lng":135.797344},{"code":"26103009052","name":"上高野上高野奥東野町","lat":35.061791,"lng":135.801284},{"code":"26103009053","name":"上高野岩倉三宅町","lat":35.066744,"lng":135.79559},{"code":"26103009054","name":"上高野岩倉南三宅町","lat":35.064335,"lng":135.788334},{"code":"26103009055","name":"上高野八瀬野瀬町","lat":35.062468,"lng":135.803469},{"code":"26103009056","name":"上高野修学院千万田町","lat":35.05761,"lng":135.793562},{"code":"26103009057","name":"上高野上高野氷室山","lat":35.058723,"lng":135.795971},{"code":"26103010001","name":"修学院第一北白川瓜生山町","lat":35.038615,"lng":135.793145},{"code":"26103010002","name":"修学院第一一乗寺松田町","lat":35.047401,"lng":135.790123},{"code":"26103010003","name":"修学院第一一乗寺青城町","lat":35.046087,"lng":135.78972},{"code":"26103010004","name":"修学院第一一乗寺清水町","lat":35.046526,"lng":135.791576},{"code":"26103010005","name":"修学院第一一乗寺向畑町","lat":35.046749,"lng":135.792481},{"code":"26103010006","name":"修学院第一一乗寺竹ノ内町","lat":35.049352,"lng":135.802804},{"code":"26103010007","name":"修学院第一一乗寺水掛町","lat":35.048136,"lng":135.800426},{"code":"26103010008","name":"修学院第一一乗寺月輪寺町","lat":35.0492,"lng":135.800036},{"code":"26103010009","name":"修学院第一一乗寺東浦町","lat":35.047649,"lng":135.796985},{"code":"26103010010","name":"修学院第一一乗寺馬場町","lat":35.048538,"lng":135.796816},{"code":"26103010011","name":"修学院第一一乗寺葉山町","lat":35.044934,"lng":135.800673},{"code":"26103010012","name":"修学院第一一乗寺堂ノ前町","lat":35.046514,"lng":135.796055},{"code":"26103010013","name":"修学院第一一乗寺堀ノ内町","lat":35.046483,"lng":135.795039},{"code":"26103010014","name":"修学院第一一乗寺西浦畑町","lat":35.046333,"lng":135.793719},{"code":"26103010015","name":"修学院第一一乗寺稲荷町","lat":35.047614,"lng":135.794184},{"code":"26103010016","name":"修学院第一一乗寺釈迦堂町","lat":35.044583,"lng":135.795035},{"code":"26103010017","name":"修学院第一一乗寺門口町","lat":35.043858,"lng":135.795339},{"code":"26103010018","name":"修学院第一一乗寺燈籠本町","lat":35.045471,"lng":135.795137},{"code":"26103010019","name":"修学院第一一乗寺小谷町","lat":35.044742,"lng":135.79729},{"code":"26103010020","name":"修学院第一一乗寺下リ松町","lat":35.044262,"lng":135.792803},{"code":"26103010021","name":"修学院第一一乗寺花ノ木町","lat":35.043292,"lng":135.79291},{"code":"26103010022","name":"修学院第一一乗寺谷田町","lat":35.045121,"lng":135.793067},{"code":"26103010023","name":"修学院第一一乗寺松原町","lat":35.040857,"lng":135.798312},{"code":"26103010024","name":"修学院第一一乗寺庵野町","lat":35.039426,"lng":135.79381},{"code":"26103010025","name":"修学院第一一乗寺樋ノ口町","lat":35.039598,"lng":135.792338},{"code":"26103010026","name":"修学院第一一乗寺薬師堂町","lat":35.043094,"lng":135.794718},{"code":"26103010027","name":"修学院第一一乗寺才形町","lat":35.041931,"lng":135.79447},{"code":"26103010028","name":"修学院第一一乗寺出口町","lat":35.042195,"lng":135.792783},{"code":"26103010029","name":"修学院第一一乗寺野田町","lat":35.041146,"lng":135.792647},{"code":"26103010030","name":"修学院第一一乗寺病ダレ","lat":35.053237,"lng":135.819508},{"code":"26103010031","name":"修学院第一修学院山添町","lat":35.056427,"lng":135.796541},{"code":"26103010032","name":"修学院第一修学院北沮沢町","lat":35.056433,"lng":135.798171},{"code":"26103010033","name":"修学院第一修学院大道町","lat":35.055665,"lng":135.798736},{"code":"26103010034","name":"修学院第一修学院貝原町","lat":35.05474,"lng":135.798239},{"code":"26103010035","name":"修学院第一修学院西沮沢町","lat":35.055533,"lng":135.797372},{"code":"26103010036","name":"修学院第一修学院開根坊町","lat":35.056572,"lng":135.802166},{"code":"26103010037","name":"修学院第一修学院檜峠町","lat":35.058425,"lng":135.800946},{"code":"26103010038","name":"修学院第一修学院室町","lat":35.05393,"lng":135.799959},{"code":"26103010039","name":"修学院第一修学院馬場脇町","lat":35.054387,"lng":135.802637},{"code":"26103010040","name":"修学院第一修学院烏丸町","lat":35.052903,"lng":135.798675},{"code":"26103010041","name":"修学院第一修学院仏者町","lat":35.053118,"lng":135.797462},{"code":"26103010042","name":"修学院第一修学院泉殿町","lat":35.054111,"lng":135.796908},{"code":"26103010043","name":"修学院第一修学院山ノ鼻町","lat":35.05422,"lng":135.795181},{"code":"26103010044","name":"修学院第一修学院高部町","lat":35.054008,"lng":135.7933},{"code":"26103010045","name":"修学院第一修学院千万田町","lat":35.056667,"lng":135.793983},{"code":"26103010046","name":"修学院第一修学院水上田町","lat":35.055164,"lng":135.793695},{"code":"26103010047","name":"修学院第一修学院沖殿町","lat":35.052636,"lng":135.79317},{"code":"26103010048","name":"修学院第一修学院川尻町","lat":35.053077,"lng":135.794982},{"code":"26103010049","name":"修学院第一修学院月輪寺町","lat":35.050293,"lng":135.801415},{"code":"26103010050","name":"修学院第一修学院辻ノ田町","lat":35.050931,"lng":135.801686},{"code":"26103010051","name":"修学院第一修学院石掛町","lat":35.051646,"lng":135.798331},{"code":"26103010052","name":"修学院第一修学院茶屋ノ前町","lat":35.051955,"lng":135.796876},{"code":"26103010053","name":"修学院第一修学院登リ内町","lat":35.050738,"lng":135.796325},{"code":"26103010054","name":"修学院第一修学院坪江町","lat":35.050482,"lng":135.797942},{"code":"26103010055","name":"修学院第一修学院水川原町","lat":35.052171,"lng":135.795491},{"code":"26103010056","name":"修学院第一修学院犬塚町","lat":35.051298,"lng":135.793712},{"code":"26103010057","name":"修学院第一修学院宮ノ脇町","lat":35.049598,"lng":135.798549},{"code":"26103010058","name":"修学院第一修学院狭間町","lat":35.049441,"lng":135.796078},{"code":"26103010059","name":"修学院第一修学院中林町","lat":35.049448,"lng":135.793779},{"code":"26103010060","name":"修学院第一修学院十権寺町","lat":35.048303,"lng":135.79394},{"code":"26103010061","name":"修学院第一修学院大林町","lat":35.048596,"lng":135.79212},{"code":"26103010062","name":"修学院第一修学院鹿ノ下町","lat":35.050243,"lng":135.792523},{"code":"26103010063","name":"修学院第一修学院薬師堂町","lat":35.050674,"lng":135.794855},{"code":"26103010064","name":"修学院第一修学院尺羅ケ谷四明ケ嶽","lat":35.059295,"lng":135.815788},{"code":"26103010065","name":"修学院第一修学院守禅庵","lat":35.058309,"lng":135.802405},{"code":"26103010066","name":"修学院第一修学院南代","lat":35.051187,"lng":135.7998},{"code":"26103010067","name":"修学院第一修学院林ノ脇","lat":35.052203,"lng":135.801746},{"code":"26103010068","name":"修学院第一山端川端町","lat":35.050126,"lng":135.788304},{"code":"26103010069","name":"修学院第一山端川原町","lat":35.049774,"lng":135.789597},{"code":"26103010070","name":"修学院第一山端柳ケ坪町","lat":35.048814,"lng":135.790554},{"code":"26103010071","name":"修学院第一山端大城田町","lat":35.048481,"lng":135.788692},{"code":"26103010072","name":"修学院第一山端橋ノ本町","lat":35.051385,"lng":135.79109},{"code":"26103010073","name":"修学院第一山端壱町田町","lat":35.050538,"lng":135.791268},{"code":"26103010074","name":"修学院第一山端川岸町","lat":35.053063,"lng":135.790488},{"code":"26103010075","name":"修学院第一山端大塚町","lat":35.055966,"lng":135.792161},{"code":"26103010076","name":"修学院第一山端森本町","lat":35.052614,"lng":135.791747},{"code":"26103010077","name":"修学院第一山端滝ケ鼻町","lat":35.054057,"lng":135.79204},{"code":"26103010078","name":"修学院第一山端大君町","lat":35.055013,"lng":135.792238},{"code":"26103011001","name":"修学院第二一乗寺宮ノ東町","lat":35.044108,"lng":135.791078},{"code":"26103011002","name":"修学院第二一乗寺里ノ西町","lat":35.044685,"lng":135.788988},{"code":"26103011003","name":"修学院第二一乗寺高槻町","lat":35.044539,"lng":135.785103},{"code":"26103011004","name":"修学院第二一乗寺払殿町","lat":35.043554,"lng":135.785357},{"code":"26103011005","name":"修学院第二一乗寺赤ノ宮町","lat":35.042139,"lng":135.782816},{"code":"26103011006","name":"修学院第二一乗寺大新開町","lat":35.04245,"lng":135.78442},{"code":"26103011007","name":"修学院第二一乗寺大原田町","lat":35.042132,"lng":135.785788},{"code":"26103011008","name":"修学院第二一乗寺梅ノ木町","lat":35.041046,"lng":135.787447},{"code":"26103011009","name":"修学院第二一乗寺築田町","lat":35.039603,"lng":135.790222},{"code":"26103011010","name":"修学院第二一乗寺里ノ前町","lat":35.043397,"lng":135.788636},{"code":"26103011011","name":"修学院第二一乗寺地蔵本町","lat":35.041186,"lng":135.784043},{"code":"26103011012","name":"修学院第二一乗寺御祭田町","lat":35.042219,"lng":135.787731},{"code":"26103011013","name":"修学院第二一乗寺中ノ田町","lat":35.042125,"lng":135.790317},{"code":"26103011014","name":"修学院第二一乗寺木ノ本町","lat":35.040879,"lng":135.790412},{"code":"26103011015","name":"修学院第二一乗寺塚本町","lat":35.038377,"lng":135.790186},{"code":"26103011016","name":"修学院第二一乗寺染殿町","lat":35.039829,"lng":135.787651},{"code":"26103011017","name":"修学院第二一乗寺河原田町","lat":35.039696,"lng":135.785929},{"code":"26103011018","name":"修学院第二一乗寺東閉川原町","lat":35.047402,"lng":135.788254},{"code":"26103011019","name":"修学院第二一乗寺西閉川原町","lat":35.047636,"lng":135.787236},{"code":"26103011020","name":"修学院第二一乗寺北大丸町","lat":35.04564,"lng":135.786897},{"code":"26103011021","name":"修学院第二一乗寺南大丸町","lat":35.044571,"lng":135.786722},{"code":"26103011022","name":"修学院第二一乗寺東杉ノ宮町","lat":35.04648,"lng":135.787567},{"code":"26103011023","name":"修学院第二一乗寺西杉ノ宮町","lat":35.046317,"lng":135.785904},{"code":"26103011024","name":"修学院第二一乗寺東水干町","lat":35.03859,"lng":135.787942},{"code":"26103011025","name":"修学院第二一乗寺西水干町","lat":35.03851,"lng":135.786125},{"code":"26103012001","name":"北白川粟田口如意ケ嶽町","lat":35.019109,"lng":135.825711},{"code":"26103012002","name":"北白川北白川仕伏町","lat":35.030763,"lng":135.797493},{"code":"26103012003","name":"北白川北白川上池田町","lat":35.03215,"lng":135.794726},{"code":"26103012004","name":"北白川北白川下池田町","lat":35.030275,"lng":135.794693},{"code":"26103012005","name":"北白川北白川上終町","lat":35.036816,"lng":135.792462},{"code":"26103012006","name":"北白川北白川別当町","lat":35.031204,"lng":135.790906},{"code":"26103012007","name":"北白川北白川小倉町","lat":35.031324,"lng":135.789032},{"code":"26103012008","name":"北白川北白川東小倉町","lat":35.030327,"lng":135.790187},{"code":"26103012009","name":"北白川北白川久保田町","lat":35.028848,"lng":135.789813},{"code":"26103012010","name":"北白川北白川東久保田町","lat":35.028785,"lng":135.792221},{"code":"26103012011","name":"北白川北白川西町","lat":35.030908,"lng":135.786984},{"code":"26103012012","name":"北白川北白川東蔦町","lat":35.033699,"lng":135.788359},{"code":"26103012013","name":"北白川北白川蔦町","lat":35.03369,"lng":135.787348},{"code":"26103012014","name":"北白川北白川西蔦町","lat":35.033691,"lng":135.786402},{"code":"26103012015","name":"北白川北白川追分町","lat":35.030828,"lng":135.783858},{"code":"26103012016","name":"北白川北白川東平井町","lat":35.035317,"lng":135.788168},{"code":"26103012017","name":"北白川北白川平井町","lat":35.035183,"lng":135.787193},{"code":"26103012018","name":"北白川北白川西平井町","lat":35.035205,"lng":135.786296},{"code":"26103012019","name":"北白川北白川伊織町","lat":35.036025,"lng":135.789243},{"code":"26103012020","name":"北白川北白川琵琶町","lat":35.031448,"lng":135.802744},{"code":"26103012021","name":"北白川北白川重石町","lat":35.040432,"lng":135.814705},{"code":"26103012022","name":"北白川北白川小亀谷町","lat":35.025891,"lng":135.818736},{"code":"26103012023","name":"北白川北白川丸山町","lat":35.031186,"lng":135.798415},{"code":"26103012024","name":"北白川北白川地蔵谷町","lat":35.035174,"lng":135.804091},{"code":"26103012025","name":"北白川北白川南ケ原町","lat":35.026415,"lng":135.815126},{"code":"26103012026","name":"北白川北白川中山町","lat":35.032057,"lng":135.819764},{"code":"26103012027","name":"北白川北白川岩坂町","lat":35.04132,"lng":135.812545},{"code":"26103012028","name":"北白川北白川山田町","lat":35.035184,"lng":135.793904},{"code":"26103012029","name":"北白川北白川山ノ元町","lat":35.033814,"lng":135.795644},{"code":"26103012030","name":"北白川北白川大堂町","lat":35.033584,"lng":135.792372},{"code":"26103012031","name":"北白川北白川上別当町","lat":35.032201,"lng":135.792523},{"code":"26103012032","name":"北白川北白川下別当町","lat":35.03047,"lng":135.792406},{"code":"26103012033","name":"北白川北白川東伊織町","lat":35.037334,"lng":135.790537},{"code":"26103012034","name":"北白川北白川西伊織町","lat":35.037438,"lng":135.788639},{"code":"26103012035","name":"北白川北白川瀬ノ内町","lat":35.035978,"lng":135.790615},{"code":"26103012036","name":"北白川北白川東瀬ノ内町","lat":35.034183,"lng":135.790562},{"code":"26103012037","name":"北白川北白川西瀬ノ内町","lat":35.034087,"lng":135.789349},{"code":"26103012038","name":"北白川北白川堂ノ前町","lat":35.032569,"lng":135.790759},{"code":"26103012039","name":"北白川北白川瓜生山町","lat":35.037233,"lng":135.795584},{"code":"26103012040","name":"北白川北白川向ケ谷町","lat":35.02559,"lng":135.817959},{"code":"26103012042","name":"北白川北白川清沢口町","lat":35.037754,"lng":135.800629},{"code":"26103012043","name":"北白川北白川蓬ケ谷町","lat":35.040407,"lng":135.808504},{"code":"26103012044","name":"北白川北白川外山町","lat":35.029933,"lng":135.800491},{"code":"26103013001","name":"浄楽銀閣寺町","lat":35.027306,"lng":135.797336},{"code":"26103013002","name":"浄楽銀閣寺前町","lat":35.028066,"lng":135.79398},{"code":"26103013003","name":"浄楽浄土寺上南田町","lat":35.025234,"lng":135.794963},{"code":"26103013004","name":"浄楽浄土寺南田町","lat":35.02544,"lng":135.796993},{"code":"26103013005","name":"浄楽浄土寺下南田町","lat":35.023514,"lng":135.794509},{"code":"26103013006","name":"浄楽浄土寺真如町","lat":35.021897,"lng":135.789656},{"code":"26103013007","name":"浄楽浄土寺上馬場町","lat":35.025217,"lng":135.790889},{"code":"26103013008","name":"浄楽浄土寺馬場町","lat":35.024339,"lng":135.792819},{"code":"26103013009","name":"浄楽浄土寺下馬場町","lat":35.023603,"lng":135.791053},{"code":"26103013010","name":"浄楽浄土寺東田町","lat":35.026393,"lng":135.792447},{"code":"26103013011","name":"浄楽浄土寺西田町","lat":35.027394,"lng":135.790029},{"code":"26103013012","name":"浄楽浄土寺石橋町","lat":35.026801,"lng":135.793952},{"code":"26103013013","name":"浄楽浄土寺打越町","lat":35.025722,"lng":135.808354},{"code":"26103013014","name":"浄楽浄土寺小山町","lat":35.028635,"lng":135.79607},{"code":"26103013015","name":"浄楽吉田神楽岡町","lat":35.025557,"lng":135.787106},{"code":"26103013016","name":"浄楽浄土寺広帖町","lat":35.023821,"lng":135.812478},{"code":"26103013017","name":"浄楽浄土寺提灯山町","lat":35.024709,"lng":135.799861},{"code":"26103013018","name":"浄楽浄土寺七廻リ町","lat":35.023798,"lng":135.80433},{"code":"26103013019","name":"浄楽浄土寺大山町","lat":35.026732,"lng":135.80188},{"code":"26103014001","name":"錦林東山粟田口鳥居町","lat":35.010245,"lng":135.787522},{"code":"26103014002","name":"錦林東山粟田口山下町","lat":35.007893,"lng":135.7916},{"code":"26103014003","name":"錦林東山南禅寺北ノ坊町","lat":35.016882,"lng":135.795456},{"code":"26103014004","name":"錦林東山永観堂町","lat":35.013771,"lng":135.794846},{"code":"26103014005","name":"錦林東山永観堂西町","lat":35.015026,"lng":135.792182},{"code":"26103014006","name":"錦林東山南禅寺下河原町","lat":35.013734,"lng":135.791578},{"code":"26103014007","name":"錦林東山南禅寺草川町","lat":35.01188,"lng":135.788699},{"code":"26103014008","name":"錦林東山南禅寺福地町","lat":35.010867,"lng":135.792374},{"code":"26103014009","name":"錦林東山南禅寺南禅寺山町","lat":35.011154,"lng":135.795984},{"code":"26103014010","name":"錦林東山鹿ケ谷寺ノ前町","lat":35.020791,"lng":135.79474},{"code":"26103014011","name":"錦林東山鹿ケ谷西寺ノ前町","lat":35.020856,"lng":135.793054},{"code":"26103014012","name":"錦林東山鹿ケ谷高岸町","lat":35.016062,"lng":135.792288},{"code":"26103014013","name":"錦林東山若王子町","lat":35.015509,"lng":135.79608},{"code":"26103014014","name":"錦林東山鹿ケ谷上宮ノ前町","lat":35.019068,"lng":135.792979},{"code":"26103014015","name":"錦林東山鹿ケ谷下宮ノ前町","lat":35.017486,"lng":135.793117},{"code":"26103014016","name":"錦林東山鹿ケ谷桜谷町","lat":35.019544,"lng":135.795722},{"code":"26103014017","name":"錦林東山鹿ケ谷法然院町","lat":35.022309,"lng":135.795827},{"code":"26103014018","name":"錦林東山鹿ケ谷法然院西町","lat":35.022177,"lng":135.793759},{"code":"26103014019","name":"錦林東山鹿ケ谷御所ノ段町","lat":35.021974,"lng":135.797092},{"code":"26103014020","name":"錦林東山鹿ケ谷大黒谷町","lat":35.018915,"lng":135.808263},{"code":"26103014021","name":"錦林東山鹿ケ谷徳善谷町","lat":35.018054,"lng":135.801536},{"code":"26103014022","name":"錦林東山浄土寺真如町","lat":35.020508,"lng":135.791666},{"code":"26103014023","name":"錦林東山粟田口大日山町","lat":35.009209,"lng":135.797742},{"code":"26103014025","name":"錦林東山粟田口如意ケ嶽町","lat":35.016402,"lng":135.828657},{"code":"26103014026","name":"錦林東山南禅寺風呂山町","lat":35.009603,"lng":135.794686},{"code":"26103014027","name":"錦林東山鹿ケ谷宮ノ前町","lat":35.018492,"lng":135.795762},{"code":"26103014028","name":"錦林東山鹿ケ谷菖蒲谷町","lat":35.016591,"lng":135.81629},{"code":"26103014029","name":"錦林東山鹿ケ谷栗木谷町","lat":35.021198,"lng":135.80339},{"code":"26103014030","name":"錦林東山鹿ケ谷不動山町","lat":35.019585,"lng":135.797838},{"code":"26103014031","name":"錦林東山鹿ケ谷若王子山町","lat":35.014114,"lng":135.799981},{"code":"26103014032","name":"錦林東山鹿ケ谷善気山町","lat":35.024264,"lng":135.798879},{"code":"26103014033","name":"錦林東山鹿ケ谷多頂山町","lat":35.02295,"lng":135.7992},{"code":"26103015001","name":"岡崎岡崎入江町","lat":35.017539,"lng":135.783201},{"code":"26103015002","name":"岡崎岡崎真如堂前町","lat":35.021786,"lng":135.786557},{"code":"26103015003","name":"岡崎岡崎東福ノ川町","lat":35.019826,"lng":135.785145},{"code":"26103015004","name":"岡崎黒谷町","lat":35.019266,"lng":135.788268},{"code":"26103015005","name":"岡崎岡崎東天王町","lat":35.016692,"lng":135.79},{"code":"26103015006","name":"岡崎岡崎天王町","lat":35.016436,"lng":135.787381},{"code":"26103015007","name":"岡崎岡崎法勝寺町","lat":35.013692,"lng":135.787443},{"code":"26103015008","name":"岡崎岡崎成勝寺町","lat":35.013027,"lng":135.780992},{"code":"26103015009","name":"岡崎岡崎最勝寺町","lat":35.014303,"lng":135.781853},{"code":"26103015010","name":"岡崎岡崎西天王町","lat":35.015795,"lng":135.781942},{"code":"26103015011","name":"岡崎岡崎徳成町","lat":35.014856,"lng":135.778219},{"code":"26103015012","name":"岡崎岡崎円勝寺町","lat":35.011756,"lng":135.782303},{"code":"26103015013","name":"岡崎岡崎南御所町","lat":35.014737,"lng":135.785368},{"code":"26103015014","name":"岡崎岡崎北御所町","lat":35.016989,"lng":135.785415},{"code":"26103015015","name":"岡崎岡崎西福ノ川町","lat":35.019746,"lng":135.783556},{"code":"26103015016","name":"岡崎聖護院円頓美町","lat":35.017177,"lng":135.781159},{"code":"26103016001","name":"新洞正往寺町","lat":35.012758,"lng":135.776955},{"code":"26103016002","name":"新洞東門前町","lat":35.010905,"lng":135.778502},{"code":"26103016003","name":"新洞福本町","lat":35.011486,"lng":135.776469},{"code":"26103016004","name":"新洞法皇寺町","lat":35.010415,"lng":135.777046},{"code":"26103016005","name":"新洞和国町","lat":35.010831,"lng":135.775865},{"code":"26103016006","name":"新洞頭町","lat":35.012822,"lng":135.775845},{"code":"26103016007","name":"新洞新東洞院町","lat":35.012735,"lng":135.775346},{"code":"26103016008","name":"新洞菊鉾町","lat":35.010964,"lng":135.775204},{"code":"26103016009","name":"新洞讃州寺町","lat":35.01099,"lng":135.774689},{"code":"26103016010","name":"新洞新車屋町","lat":35.012716,"lng":135.774768},{"code":"26103016011","name":"新洞大菊町","lat":35.012109,"lng":135.773778},{"code":"26103016012","name":"新洞超勝寺門前町","lat":35.009891,"lng":135.774086},{"code":"26103016013","name":"新洞新丸太町","lat":35.011106,"lng":135.77323},{"code":"26103016014","name":"新洞孫橋町","lat":35.011919,"lng":135.772318},{"code":"26103016015","name":"新洞法林寺門前町","lat":35.009903,"lng":135.772746},{"code":"26103016016","name":"新洞北門前町","lat":35.01244,"lng":135.778388},{"code":"26103016017","name":"新洞南門前町","lat":35.010083,"lng":135.778442},{"code":"26103017001","name":"川東下堤町","lat":35.016412,"lng":135.772363},{"code":"26103017002","name":"川東新生洲町","lat":35.01449,"lng":135.772149},{"code":"26103017003","name":"川東東丸太町","lat":35.017678,"lng":135.774225},{"code":"26103017004","name":"川東東竹屋町","lat":35.01665,"lng":135.775163},{"code":"26103017005","name":"川東中川町","lat":35.015066,"lng":135.773264},{"code":"26103017006","name":"川東秋築町","lat":35.01486,"lng":135.774553},{"code":"26103017007","name":"川東難波町","lat":35.01391,"lng":135.774048},{"code":"26103017008","name":"川東大文字町","lat":35.014512,"lng":135.773319},{"code":"26103017009","name":"川東石原町","lat":35.014031,"lng":135.775578},{"code":"26103017010","name":"川東吉永町","lat":35.014007,"lng":135.775024},{"code":"26103017011","name":"川東杉本町","lat":35.014041,"lng":135.774511},{"code":"26103017012","name":"川東新先斗町","lat":35.014041,"lng":135.772925},{"code":"26103018001","name":"聖護院聖護院東町","lat":35.019545,"lng":135.782305},{"code":"26103018002","name":"聖護院聖護院中町","lat":35.019466,"lng":135.780884},{"code":"26103018003","name":"聖護院聖護院西町","lat":35.019485,"lng":135.779225},{"code":"26103018004","name":"聖護院聖護院川原町","lat":35.019655,"lng":135.77557},{"code":"26103018005","name":"聖護院聖護院円頓美町","lat":35.01747,"lng":135.780699},{"code":"26103018006","name":"聖護院聖護院山王町","lat":35.017442,"lng":135.778713},{"code":"26103018007","name":"聖護院聖護院蓮華蔵町","lat":35.015323,"lng":135.776165},{"code":"26103018008","name":"聖護院聖護院東寺領町","lat":35.015749,"lng":135.773759},{"code":"26103019001","name":"吉田吉田牛ノ宮町","lat":35.025389,"lng":135.777353},{"code":"26103019002","name":"吉田吉田泉殿町","lat":35.027496,"lng":135.777355},{"code":"26103019003","name":"吉田吉田上阿達町","lat":35.026514,"lng":135.773798},{"code":"26103019004","name":"吉田吉田中阿達町","lat":35.024687,"lng":135.775344},{"code":"26103019005","name":"吉田吉田下阿達町","lat":35.021673,"lng":135.773907},{"code":"26103019006","name":"吉田吉田河原町","lat":35.024174,"lng":135.772786},{"code":"26103019007","name":"吉田吉田橘町","lat":35.023207,"lng":135.777151},{"code":"26103019008","name":"吉田吉田本町","lat":35.027007,"lng":135.781942},{"code":"26103019009","name":"吉田吉田近衛町","lat":35.021593,"lng":135.780113},{"code":"26103019010","name":"吉田吉田二本松町","lat":35.023949,"lng":135.780379},{"code":"26103019011","name":"吉田吉田上大路町","lat":35.02454,"lng":135.782974},{"code":"26103019012","name":"吉田吉田中大路町","lat":35.022983,"lng":135.783326},{"code":"26103019013","name":"吉田吉田下大路町","lat":35.021904,"lng":135.784339},{"code":"26103020001","name":"養正田中里ノ前町","lat":35.033018,"lng":135.781115},{"code":"26103020002","name":"養正田中大堰町","lat":35.03063,"lng":135.777489},{"code":"26103020003","name":"養正田中東樋ノ口町","lat":35.033778,"lng":135.78535},{"code":"26103020004","name":"養正田中樋ノ口町","lat":35.033818,"lng":135.784258},{"code":"26103020005","name":"養正田中里ノ内町","lat":35.034183,"lng":135.781018},{"code":"26103020006","name":"養正田中西樋ノ口町","lat":35.034081,"lng":135.782875},{"code":"26103020007","name":"養正田中飛鳥井町","lat":35.032019,"lng":135.780075},{"code":"26103020008","name":"養正田中門前町","lat":35.029977,"lng":135.780229},{"code":"26103020009","name":"養正田中上柳町","lat":35.030983,"lng":135.774311},{"code":"26103020010","name":"養正田中下柳町","lat":35.029005,"lng":135.772909},{"code":"26103020011","name":"養正田中関田町","lat":35.02867,"lng":135.775367},{"code":"26103020012","name":"養正田中上玄京町","lat":35.033655,"lng":135.778002},{"code":"26103020013","name":"養正田中玄京町","lat":35.032442,"lng":135.776812},{"code":"26103020014","name":"養正田中馬場町","lat":35.032788,"lng":135.775037},{"code":"26103020015","name":"養正田中野神町","lat":35.033553,"lng":135.779337},{"code":"26103021001","name":"養徳田中西浦町","lat":35.036382,"lng":135.779402},{"code":"26103021002","name":"養徳田中南西浦町","lat":35.034804,"lng":135.777852},{"code":"26103021003","name":"養徳田中上古川町","lat":35.039892,"lng":135.783732},{"code":"26103021004","name":"養徳田中古川町","lat":35.038723,"lng":135.783663},{"code":"26103021005","name":"養徳田中東高原町","lat":35.036918,"lng":135.787436},{"code":"26103021006","name":"養徳田中高原町","lat":35.037063,"lng":135.786433},{"code":"26103021007","name":"養徳田中西高原町","lat":35.036957,"lng":135.785444},{"code":"26103021008","name":"養徳田中春菜町","lat":35.035462,"lng":135.784328},{"code":"26103021009","name":"養徳田中東春菜町","lat":35.035322,"lng":135.785307},{"code":"26103021010","name":"養徳田中西春菜町","lat":35.035381,"lng":135.783142},{"code":"26103021011","name":"養徳田中大久保町","lat":35.036182,"lng":135.782298},{"code":"26103021012","name":"養徳田中上大久保町","lat":35.037623,"lng":135.782916},{"code":"26103021013","name":"養徳田中西大久保町","lat":35.036513,"lng":135.780917},{"code":"26103021014","name":"養徳田中南大久保町","lat":35.034973,"lng":135.779813},{"code":"26103021015","name":"養徳田中北春菜町","lat":35.037202,"lng":135.784549},{"code":"26103021016","name":"養徳高野清水町","lat":35.03705,"lng":135.777271},{"code":"26103021017","name":"養徳高野東開町","lat":35.039282,"lng":135.78082},{"code":"26103021018","name":"養徳高野西開町","lat":35.040219,"lng":135.778727},{"code":"26103021019","name":"養徳高野竹屋町","lat":35.042709,"lng":135.781005},{"code":"26103021020","name":"養徳高野上竹屋町","lat":35.04396,"lng":135.78213},{"code":"26103021021","name":"養徳高野玉岡町","lat":35.045252,"lng":135.783198},{"code":"26103021022","name":"養徳高野泉町","lat":35.047366,"lng":135.785235},{"code":"26103021023","name":"養徳高野蓼原町","lat":35.035108,"lng":135.776072},{"code":"26103021024","name":"養徳一乗寺赤ノ宮町","lat":35.043444,"lng":135.783473},{"code":"26103022001","name":"下鴨下鴨宮河町","lat":35.032189,"lng":135.771917},{"code":"26103022002","name":"下鴨下鴨宮崎町","lat":35.036312,"lng":135.769028},{"code":"26103022003","name":"下鴨下鴨松原町","lat":35.036384,"lng":135.770715},{"code":"26103022004","name":"下鴨下鴨森本町","lat":35.037055,"lng":135.771385},{"code":"26103022005","name":"下鴨下鴨西林町","lat":35.038798,"lng":135.770666},{"code":"26103022006","name":"下鴨下鴨泉川町","lat":35.036939,"lng":135.773612},{"code":"26103022007","name":"下鴨下鴨松ノ木町","lat":35.040516,"lng":135.771062},{"code":"26103022008","name":"下鴨下鴨貴船町","lat":35.042399,"lng":135.767432},{"code":"26103022009","name":"下鴨下鴨下川原町","lat":35.039693,"lng":135.767749},{"code":"26103022010","name":"下鴨下鴨中川原町","lat":35.041492,"lng":135.765684},{"code":"26103022011","name":"下鴨下鴨上川原町","lat":35.043666,"lng":135.764183},{"code":"26103022012","name":"下鴨下鴨蓼倉町","lat":35.04046,"lng":135.773906},{"code":"26103023001","name":"葵下鴨西半木町","lat":35.044579,"lng":135.765869},{"code":"26103023002","name":"葵下鴨東半木町","lat":35.045058,"lng":135.767521},{"code":"26103023003","name":"葵下鴨北園町","lat":35.047564,"lng":135.770418},{"code":"26103023004","name":"葵下鴨梅ノ木町","lat":35.045762,"lng":135.771339},{"code":"26103023005","name":"葵下鴨西梅ノ木町","lat":35.045025,"lng":135.769251},{"code":"26103023006","name":"葵下鴨東梅ノ木町","lat":35.045226,"lng":135.773678},{"code":"26103023007","name":"葵下鴨塚本町","lat":35.045263,"lng":135.775269},{"code":"26103023008","name":"葵下鴨東塚本町","lat":35.045644,"lng":135.776394},{"code":"26103023009","name":"葵下鴨岸本町","lat":35.04663,"lng":135.773531},{"code":"26103023010","name":"葵下鴨東岸本町","lat":35.04679,"lng":135.775116},{"code":"26103023011","name":"葵下鴨西本町","lat":35.043885,"lng":135.768786},{"code":"26103023012","name":"葵下鴨本町","lat":35.043806,"lng":135.771476},{"code":"26103023013","name":"葵下鴨東本町","lat":35.043876,"lng":135.773766},{"code":"26103023014","name":"葵下鴨森ケ前町","lat":35.041816,"lng":135.776257},{"code":"26103023015","name":"葵下鴨東森ケ前町","lat":35.042647,"lng":135.778164},{"code":"26103023016","name":"葵下鴨西高木町","lat":35.042754,"lng":135.774864},{"code":"26103023017","name":"葵下鴨高木町","lat":35.044022,"lng":135.776157},{"code":"26103023018","name":"葵下鴨東高木町","lat":35.042941,"lng":135.77643},{"code":"26103023019","name":"葵下鴨芝本町","lat":35.042455,"lng":135.769513},{"code":"26103023020","name":"葵下鴨膳部町","lat":35.042409,"lng":135.772398},{"code":"26103023021","name":"葵下鴨蓼倉町","lat":35.040587,"lng":135.776136},{"code":"26103023022","name":"葵下鴨半木町","lat":35.048666,"lng":135.764332},{"code":"26103023023","name":"葵下鴨南芝町","lat":35.052018,"lng":135.768903},{"code":"26103023024","name":"葵下鴨北芝町","lat":35.05326,"lng":135.768863},{"code":"26103023025","name":"葵下鴨水口町","lat":35.054329,"lng":135.768924},{"code":"26103023026","name":"葵下鴨南茶ノ木町","lat":35.05324,"lng":135.771828},{"code":"26103023027","name":"葵下鴨北茶ノ木町","lat":35.054293,"lng":135.771609},{"code":"26103023028","name":"葵下鴨北野々神町","lat":35.052067,"lng":135.771823},{"code":"26103023029","name":"葵下鴨南野々神町","lat":35.0509,"lng":135.771608},{"code":"26103023030","name":"葵下鴨前萩町","lat":35.050541,"lng":135.76789},{"code":"26103023031","name":"葵下鴨萩ケ垣内町","lat":35.049282,"lng":135.768547},{"code":"26103023032","name":"葵下鴨狗子田町","lat":35.050928,"lng":135.76892},{"code":"26103023033","name":"葵下鴨神殿町","lat":35.049675,"lng":135.77005},{"code":"26103023034","name":"葵下鴨夜光町","lat":35.04912,"lng":135.772089},{"code":"26103023035","name":"葵下鴨梁田町","lat":35.049881,"lng":135.77211},{"code":"26103023036","name":"葵賀茂今井町","lat":35.047255,"lng":135.761572},{"code":"26103023037","name":"葵賀茂半木町","lat":35.049214,"lng":135.764858},{"code":"26103024001","name":"松ヶ崎松ケ崎樋ノ上町","lat":35.053031,"lng":135.787961},{"code":"26103024002","name":"松ヶ崎松ケ崎河原田町","lat":35.052324,"lng":135.788429},{"code":"26103024003","name":"松ヶ崎松ケ崎小脇町","lat":35.050946,"lng":135.785847},{"code":"26103024004","name":"松ヶ崎松ケ崎東町","lat":35.053064,"lng":135.785625},{"code":"26103024005","name":"松ヶ崎松ケ崎御所ノ内町","lat":35.052949,"lng":135.783784},{"code":"26103024006","name":"松ヶ崎松ケ崎雲路町","lat":35.05167,"lng":135.783403},{"code":"26103024007","name":"松ヶ崎松ケ崎久土町","lat":35.047826,"lng":135.781125},{"code":"26103024008","name":"松ヶ崎松ケ崎中海道町","lat":35.04658,"lng":135.780243},{"code":"26103024009","name":"松ヶ崎松ケ崎杉ケ海道町","lat":35.047844,"lng":135.779887},{"code":"26103024010","name":"松ヶ崎松ケ崎海尻町","lat":35.051498,"lng":135.779652},{"code":"26103024011","name":"松ヶ崎松ケ崎壱町田町","lat":35.051345,"lng":135.77847},{"code":"26103024012","name":"松ヶ崎松ケ崎修理式町","lat":35.049539,"lng":135.778639},{"code":"26103024013","name":"松ヶ崎松ケ崎横縄手町","lat":35.049144,"lng":135.777181},{"code":"26103024014","name":"松ヶ崎松ケ崎橋上町","lat":35.049694,"lng":135.783182},{"code":"26103024015","name":"松ヶ崎松ケ崎正田町","lat":35.048442,"lng":135.782914},{"code":"26103024016","name":"松ヶ崎松ケ崎木ノ本町","lat":35.051303,"lng":135.780872},{"code":"26103024017","name":"松ヶ崎松ケ崎御所海道町","lat":35.049322,"lng":135.78124},{"code":"26103024018","name":"松ヶ崎松ケ崎平田町","lat":35.052977,"lng":135.776839},{"code":"26103024019","name":"松ヶ崎松ケ崎六ノ坪町","lat":35.051454,"lng":135.777264},{"code":"26103024020","name":"松ヶ崎松ケ崎井出ケ海道町","lat":35.05174,"lng":135.775805},{"code":"26103024021","name":"松ヶ崎松ケ崎芝本町","lat":35.051512,"lng":135.774098},{"code":"26103024022","name":"松ヶ崎松ケ崎今海道町","lat":35.050784,"lng":135.775586},{"code":"26103024023","name":"松ヶ崎松ケ崎三反長町","lat":35.049324,"lng":135.775804},{"code":"26103024024","name":"松ヶ崎松ケ崎井出ケ鼻町","lat":35.056187,"lng":135.790717},{"code":"26103024025","name":"松ヶ崎松ケ崎堂ノ上町","lat":35.047998,"lng":135.778219},{"code":"26103024026","name":"松ヶ崎松ケ崎柳井田町","lat":35.046839,"lng":135.777848},{"code":"26103024027","name":"松ヶ崎松ケ崎村ケ内町","lat":35.04557,"lng":135.779456},{"code":"26103024028","name":"松ヶ崎松ケ崎小竹藪町","lat":35.049212,"lng":135.78541},{"code":"26103024029","name":"松ヶ崎松ケ崎林山","lat":35.054156,"lng":135.779626},{"code":"26103024030","name":"松ヶ崎松ケ崎西山","lat":35.055669,"lng":135.772876},{"code":"26103024031","name":"松ヶ崎松ケ崎大谷","lat":35.05877,"lng":135.773727},{"code":"26103024032","name":"松ヶ崎松ケ崎丸子","lat":35.056433,"lng":135.779179},{"code":"26103024033","name":"松ヶ崎松ケ崎西池ノ内町","lat":35.054182,"lng":135.773712},{"code":"26103024034","name":"松ヶ崎松ケ崎総作町","lat":35.05397,"lng":135.775139},{"code":"26103024035","name":"松ヶ崎松ケ崎泉川町","lat":35.047631,"lng":135.775918},{"code":"26103024036","name":"松ヶ崎松ケ崎呼返町","lat":35.049242,"lng":135.774209},{"code":"26103024037","name":"松ヶ崎松ケ崎西町","lat":35.052849,"lng":135.77834},{"code":"26103024038","name":"松ヶ崎松ケ崎中町","lat":35.052543,"lng":135.77999},{"code":"26103024039","name":"松ヶ崎松ケ崎堀町","lat":35.053281,"lng":135.782548},{"code":"26103024040","name":"松ヶ崎松ケ崎東池ノ内町","lat":35.054339,"lng":135.776253},{"code":"26103024041","name":"松ヶ崎松ケ崎南池ノ内町","lat":35.053152,"lng":135.774726},{"code":"26103024042","name":"松ヶ崎松ケ崎鞍馬田町","lat":35.050719,"lng":135.783373},{"code":"26103024043","name":"松ヶ崎松ケ崎糺田町","lat":35.049557,"lng":135.779895},{"code":"26103024044","name":"松ヶ崎松ケ崎西桜木町","lat":35.045181,"lng":135.777561},{"code":"26103024045","name":"松ヶ崎松ケ崎桜木町","lat":35.044521,"lng":135.778587},{"code":"26103024046","name":"松ヶ崎松ケ崎東桜木町","lat":35.044139,"lng":135.779738},{"code":"26103024047","name":"松ヶ崎松ケ崎東山","lat":35.054981,"lng":135.787066},{"code":"26103024048","name":"松ヶ崎松ケ崎深泥池端","lat":35.056959,"lng":135.771979},{"code":"26103024049","name":"松ヶ崎松ケ崎狐坂","lat":35.05669,"lng":135.776312},{"code":"26103024050","name":"松ヶ崎松ケ崎寝子ケ山","lat":35.061213,"lng":135.780153},{"code":"26103024051","name":"松ヶ崎松ケ崎丈ケ谷","lat":35.058408,"lng":135.783664},{"code":"26103024052","name":"松ヶ崎松ケ崎北裏町","lat":35.059041,"lng":135.780223},{"code":"26103024053","name":"松ヶ崎松ケ崎木燈篭町","lat":35.058009,"lng":135.785522},{"code":"26103024054","name":"松ヶ崎松ケ崎千石岩","lat":35.058677,"lng":135.789092},{"code":"26103024055","name":"松ヶ崎松ケ崎高山","lat":35.058783,"lng":135.777392},{"code":"26103024056","name":"松ヶ崎松ケ崎榎実ケ芝","lat":35.060339,"lng":135.77622},{"code":"26103024057","name":"松ヶ崎松ケ崎境ケ谷","lat":35.057471,"lng":135.786848},{"code":"26103024058","name":"松ヶ崎松ケ崎笹ケ谷","lat":35.056345,"lng":135.781647},{"code":"26103024059","name":"松ヶ崎松ケ崎城山","lat":35.057026,"lng":135.788338}]}
