{"municipality":"26109","name":"京都市伏見区","prefecture":"京都府","source":{"dataset":"frogcat/japan-small-area","census":"平成27年国勢調査 小地域（e-Stat 統計LOD）","license":"MIT（リポジトリ）／政府統計の総合窓口(e-Stat)の利用規約（元データ・出典表記必要）","fetched":"2026-07-06"},"towns":[{"code":"26109001001","name":"竹田竹田向代町","lat":34.965135,"lng":135.755139},{"code":"26109001002","name":"竹田竹田向代町川町","lat":34.964146,"lng":135.752663},{"code":"26109001003","name":"竹田竹田流池町","lat":34.961595,"lng":135.75464},{"code":"26109001004","name":"竹田竹田中島町","lat":34.962029,"lng":135.757692},{"code":"26109001005","name":"竹田竹田久保町","lat":34.962947,"lng":135.761312},{"code":"26109001006","name":"竹田竹田中川原町","lat":34.958682,"lng":135.760319},{"code":"26109001007","name":"竹田竹田三ツ杭町","lat":34.955803,"lng":135.758569},{"code":"26109001008","name":"竹田竹田桶ノ井町","lat":34.955825,"lng":135.757203},{"code":"26109001010","name":"竹田竹田内畑町","lat":34.953131,"lng":135.757446},{"code":"26109001011","name":"竹田竹田七瀬川町","lat":34.953403,"lng":135.759695},{"code":"26109001012","name":"竹田竹田段川原町","lat":34.958922,"lng":135.757256},{"code":"26109001015","name":"竹田竹田醍醐田町","lat":34.949779,"lng":135.756692},{"code":"26109001016","name":"竹田竹田狩賀町","lat":34.947089,"lng":135.756198},{"code":"26109001023","name":"竹田下鳥羽芹川町","lat":34.945961,"lng":135.75719},{"code":"26109001024","name":"竹田竹田青池町","lat":34.956514,"lng":135.749624},{"code":"26109001025","name":"竹田西桶ノ井町","lat":34.955348,"lng":135.755204},{"code":"26109001026","name":"竹田西内畑町","lat":34.95435,"lng":135.751091},{"code":"26109001027","name":"竹田中内畑町","lat":34.953369,"lng":135.754475},{"code":"26109001028","name":"竹田西小屋ノ内町","lat":34.95249,"lng":135.746932},{"code":"26109001029","name":"竹田東小屋ノ内町","lat":34.951726,"lng":135.749639},{"code":"26109001030","name":"竹田鳥羽殿町","lat":34.947353,"lng":135.750788},{"code":"26109001031","name":"竹田竹田真幡木町","lat":34.955293,"lng":135.753334},{"code":"26109001032","name":"竹田竹田田中殿町","lat":34.954147,"lng":135.748186},{"code":"26109001033","name":"竹田竹田浄菩提院町","lat":34.951548,"lng":135.75383},{"code":"26109001034","name":"竹田竹田田中宮町","lat":34.949347,"lng":135.753995},{"code":"26109001035","name":"竹田竹田泓ノ川町","lat":34.944966,"lng":135.74843},{"code":"26109001036","name":"竹田竹田藁屋町","lat":34.946923,"lng":135.753645},{"code":"26109001037","name":"竹田竹田松林町","lat":34.944967,"lng":135.750582},{"code":"26109001038","name":"竹田竹田西段川原町","lat":34.958495,"lng":135.754623},{"code":"26109001039","name":"竹田竹田北三ツ杭町","lat":34.959494,"lng":135.758801},{"code":"26109002001","name":"住吉墨染町","lat":34.947814,"lng":135.768108},{"code":"26109002002","name":"住吉西桝屋町","lat":34.947546,"lng":135.766434},{"code":"26109002003","name":"住吉鑓屋町","lat":34.946126,"lng":135.765927},{"code":"26109002004","name":"住吉撞木町","lat":34.945866,"lng":135.764827},{"code":"26109002005","name":"住吉京町北八丁目","lat":34.941573,"lng":135.764972},{"code":"26109002006","name":"住吉京町八丁目横町","lat":34.94212,"lng":135.765727},{"code":"26109002007","name":"住吉京町九丁目","lat":34.942725,"lng":135.765085},{"code":"26109002008","name":"住吉京町十丁目","lat":34.944353,"lng":135.76538},{"code":"26109002009","name":"住吉桃山町真斉","lat":34.945036,"lng":135.764096},{"code":"26109002010","name":"住吉両替町十二丁目","lat":34.941585,"lng":135.764269},{"code":"26109002011","name":"住吉両替町十三丁目","lat":34.942662,"lng":135.764348},{"code":"26109002012","name":"住吉両替町十四丁目","lat":34.943683,"lng":135.764511},{"code":"26109002013","name":"住吉両替町十五丁目","lat":34.944788,"lng":135.764741},{"code":"26109002014","name":"住吉新町十二丁目","lat":34.941569,"lng":135.763204},{"code":"26109002015","name":"住吉新町十三丁目","lat":34.942766,"lng":135.763482},{"code":"26109002016","name":"住吉新町十四丁目","lat":34.943961,"lng":135.763686},{"code":"26109002017","name":"住吉奈良屋町","lat":34.945336,"lng":135.761691},{"code":"26109002018","name":"住吉津知橋町","lat":34.94489,"lng":135.761811},{"code":"26109002019","name":"住吉住吉町","lat":34.943742,"lng":135.762266},{"code":"26109002020","name":"住吉西鍵屋町","lat":34.943888,"lng":135.760936},{"code":"26109002021","name":"住吉中之町","lat":34.943006,"lng":135.762018},{"code":"26109002022","name":"住吉上板橋町","lat":34.942383,"lng":135.761907},{"code":"26109002023","name":"住吉堀詰町","lat":34.941587,"lng":135.761831},{"code":"26109002024","name":"住吉小豆屋町","lat":34.941234,"lng":135.760753},{"code":"26109002025","name":"住吉清水町","lat":34.941311,"lng":135.760097},{"code":"26109002026","name":"住吉桝屋町","lat":34.942402,"lng":135.76016},{"code":"26109002027","name":"住吉越前町","lat":34.943859,"lng":135.76028},{"code":"26109002028","name":"住吉大和町","lat":34.942412,"lng":135.760765},{"code":"26109002029","name":"住吉菱屋町","lat":34.944972,"lng":135.759222},{"code":"26109002030","name":"住吉雁金町","lat":34.945901,"lng":135.758532},{"code":"26109002031","name":"住吉加賀屋町","lat":34.945182,"lng":135.758072},{"code":"26109002032","name":"住吉鳥羽町","lat":34.94524,"lng":135.757353},{"code":"26109002033","name":"住吉上神泉苑町","lat":34.944367,"lng":135.758392},{"code":"26109002034","name":"住吉下神泉苑町","lat":34.943379,"lng":135.758048},{"code":"26109002035","name":"住吉菊屋町","lat":34.942387,"lng":135.757986},{"code":"26109002036","name":"住吉榎町","lat":34.943463,"lng":135.758831},{"code":"26109002037","name":"住吉西朱雀町","lat":34.942069,"lng":135.758556},{"code":"26109002038","name":"住吉黒茶屋町","lat":34.94383,"lng":135.75952},{"code":"26109002039","name":"住吉等安町","lat":34.942402,"lng":135.75933},{"code":"26109002040","name":"住吉東朱雀町","lat":34.941314,"lng":135.759387},{"code":"26109002041","name":"住吉樽屋町","lat":34.941273,"lng":135.757963},{"code":"26109002042","name":"住吉白銀町","lat":34.941294,"lng":135.758692},{"code":"26109002043","name":"住吉景勝町","lat":34.94401,"lng":135.755785},{"code":"26109002044","name":"住吉舞台町","lat":34.941255,"lng":135.755521},{"code":"26109002048","name":"住吉桃山最上町","lat":34.94416,"lng":135.765476},{"code":"26109002049","name":"住吉北端町","lat":34.944886,"lng":135.753036},{"code":"26109002050","name":"住吉治部町","lat":34.938927,"lng":135.752802},{"code":"26109002051","name":"住吉毛利町","lat":34.941983,"lng":135.752737},{"code":"26109002052","name":"住吉島津町","lat":34.938087,"lng":135.751896},{"code":"26109003001","name":"板橋御駕篭町","lat":34.937084,"lng":135.759882},{"code":"26109003002","name":"板橋鷹匠町","lat":34.93652,"lng":135.761325},{"code":"26109003003","name":"板橋紺屋町","lat":34.935994,"lng":135.760014},{"code":"26109003004","name":"板橋南部町","lat":34.934068,"lng":135.760987},{"code":"26109003005","name":"板橋風呂屋町","lat":34.934101,"lng":135.759917},{"code":"26109003006","name":"板橋西大手町","lat":34.932903,"lng":135.758703},{"code":"26109003007","name":"板橋片原町","lat":34.934063,"lng":135.757641},{"code":"26109003008","name":"板橋東町","lat":34.935211,"lng":135.759664},{"code":"26109003009","name":"板橋西町","lat":34.935237,"lng":135.75828},{"code":"26109003010","name":"板橋東菱屋町","lat":34.935387,"lng":135.7569},{"code":"26109003011","name":"板橋肥後町","lat":34.93613,"lng":135.758003},{"code":"26109003012","name":"板橋土橋町","lat":34.936747,"lng":135.758189},{"code":"26109003013","name":"板橋桝形町","lat":34.939154,"lng":135.759365},{"code":"26109003014","name":"板橋南尼崎町","lat":34.93875,"lng":135.758465},{"code":"26109003015","name":"板橋北尼崎町","lat":34.939475,"lng":135.758612},{"code":"26109003016","name":"板橋東堺町","lat":34.937689,"lng":135.758489},{"code":"26109003017","name":"板橋城通町","lat":34.937678,"lng":135.757419},{"code":"26109003018","name":"板橋大宮町","lat":34.939108,"lng":135.757719},{"code":"26109003019","name":"板橋鍛冶屋町","lat":34.940394,"lng":135.759352},{"code":"26109003020","name":"板橋丹波橋町","lat":34.940302,"lng":135.759849},{"code":"26109003021","name":"板橋東大文字町","lat":34.940268,"lng":135.758707},{"code":"26109003022","name":"板橋海老屋町","lat":34.940298,"lng":135.758148},{"code":"26109003023","name":"板橋東大黒町","lat":34.940255,"lng":135.7577},{"code":"26109003024","name":"板橋西大黒町","lat":34.940513,"lng":135.757132},{"code":"26109003025","name":"板橋久米町","lat":34.939099,"lng":135.757035},{"code":"26109003026","name":"板橋聚楽町","lat":34.937814,"lng":135.75674},{"code":"26109003027","name":"板橋聚楽町一丁目","lat":34.937909,"lng":135.756121},{"code":"26109003028","name":"板橋聚楽町二丁目","lat":34.939148,"lng":135.756397},{"code":"26109003029","name":"板橋成町","lat":34.939191,"lng":135.75563},{"code":"26109003030","name":"板橋松屋町","lat":34.937938,"lng":135.755396},{"code":"26109003031","name":"板橋大津町","lat":34.936848,"lng":135.756051},{"code":"26109003032","name":"板橋西堺町","lat":34.936931,"lng":135.755249},{"code":"26109003033","name":"板橋問屋町","lat":34.935838,"lng":135.755957},{"code":"26109003034","name":"板橋西尼崎町","lat":34.935873,"lng":135.75518},{"code":"26109003035","name":"板橋西大文字町","lat":34.935111,"lng":135.754136},{"code":"26109003036","name":"板橋帯屋町","lat":34.934506,"lng":135.754894},{"code":"26109003037","name":"板橋革屋町","lat":34.934529,"lng":135.75569},{"code":"26109003038","name":"板橋恵美酒町","lat":34.93314,"lng":135.755168},{"code":"26109003039","name":"板橋過書町","lat":34.933176,"lng":135.755784},{"code":"26109003040","name":"板橋島津町","lat":34.935916,"lng":135.752655},{"code":"26109003042","name":"板橋川東町","lat":34.937987,"lng":135.754313},{"code":"26109003043","name":"板橋京町南八丁目","lat":34.940379,"lng":135.764962},{"code":"26109003044","name":"板橋京町北七丁目","lat":34.939268,"lng":135.764896},{"code":"26109003045","name":"板橋京町南七丁目","lat":34.93813,"lng":135.764805},{"code":"26109003046","name":"板橋京町六丁目","lat":34.937035,"lng":135.76486},{"code":"26109003047","name":"板橋京町五丁目","lat":34.93584,"lng":135.764776},{"code":"26109003048","name":"板橋京町四丁目","lat":34.933594,"lng":135.764871},{"code":"26109003049","name":"板橋京町大黒町","lat":34.934721,"lng":135.7648},{"code":"26109003050","name":"板橋観音寺町","lat":34.933281,"lng":135.765648},{"code":"26109003051","name":"板橋御香宮門前町","lat":34.933729,"lng":135.767264},{"code":"26109003052","name":"板橋両替町十一丁目","lat":34.940424,"lng":135.764178},{"code":"26109003053","name":"板橋両替町十丁目","lat":34.939287,"lng":135.764168},{"code":"26109003054","name":"板橋両替町九丁目","lat":34.938124,"lng":135.764157},{"code":"26109003055","name":"板橋銀座町四丁目","lat":34.936999,"lng":135.764056},{"code":"26109003056","name":"板橋銀座町三丁目","lat":34.935856,"lng":135.764049},{"code":"26109003057","name":"板橋銀座町二丁目","lat":34.934652,"lng":135.76401},{"code":"26109003058","name":"板橋銀座町一丁目","lat":34.933577,"lng":135.764054},{"code":"26109003059","name":"板橋新町十一丁目","lat":34.940516,"lng":135.763184},{"code":"26109003060","name":"板橋新町十丁目","lat":34.939281,"lng":135.763369},{"code":"26109003061","name":"板橋新町九丁目","lat":34.938164,"lng":135.763321},{"code":"26109003062","name":"板橋新町八丁目","lat":34.937041,"lng":135.763365},{"code":"26109003063","name":"板橋新町七丁目","lat":34.935906,"lng":135.763294},{"code":"26109003064","name":"板橋新町六丁目","lat":34.934746,"lng":135.763207},{"code":"26109003065","name":"板橋新町五丁目","lat":34.933577,"lng":135.763231},{"code":"26109003066","name":"板橋石屋町","lat":34.939627,"lng":135.762734},{"code":"26109003067","name":"板橋紙子屋町","lat":34.940384,"lng":135.761364},{"code":"26109003068","name":"板橋指物町","lat":34.938642,"lng":135.76254},{"code":"26109003069","name":"板橋下板橋町","lat":34.938562,"lng":135.761069},{"code":"26109003070","name":"板橋竹中町","lat":34.936549,"lng":135.762489},{"code":"26109003071","name":"板橋今町","lat":34.935267,"lng":135.76222},{"code":"26109003072","name":"板橋東組町","lat":34.93515,"lng":135.76107},{"code":"26109003073","name":"板橋瀬戸物町","lat":34.934065,"lng":135.762098},{"code":"26109003074","name":"板橋東大手町","lat":34.93296,"lng":135.761833},{"code":"26109003075","name":"板橋桃山町金森出雲","lat":34.933306,"lng":135.761924},{"code":"26109003076","name":"板橋北寝小屋町","lat":34.939236,"lng":135.750425},{"code":"26109003077","name":"板橋南寝小屋町","lat":34.9377,"lng":135.750226},{"code":"26109003078","name":"板橋下鳥羽葭田町","lat":34.937159,"lng":135.749085},{"code":"26109003079","name":"板橋治部町","lat":34.937315,"lng":135.752629},{"code":"26109004001","name":"下鳥羽横大路三栖山城屋敷町","lat":34.932074,"lng":135.752414},{"code":"26109004002","name":"下鳥羽下鳥羽六反長町","lat":34.933693,"lng":135.75238},{"code":"26109004013","name":"下鳥羽中島河原田町","lat":34.947014,"lng":135.741901},{"code":"26109004014","name":"下鳥羽下鳥羽前田町","lat":34.941776,"lng":135.742592},{"code":"26109004015","name":"下鳥羽下鳥羽上向島町","lat":34.942416,"lng":135.741478},{"code":"26109004016","name":"下鳥羽下鳥羽南町前町","lat":34.935112,"lng":135.740031},{"code":"26109004022","name":"下鳥羽下鳥羽長田町","lat":34.939558,"lng":135.743703},{"code":"26109004023","name":"下鳥羽下鳥羽葭田町","lat":34.936991,"lng":135.747857},{"code":"26109004024","name":"下鳥羽下鳥羽平塚町","lat":34.937177,"lng":135.745967},{"code":"26109004026","name":"下鳥羽下鳥羽上三栖町","lat":34.932313,"lng":135.746801},{"code":"26109004027","name":"下鳥羽下鳥羽広長町","lat":34.932184,"lng":135.744431},{"code":"26109004029","name":"下鳥羽下鳥羽澱女町","lat":34.934775,"lng":135.745945},{"code":"26109004032","name":"下鳥羽下鳥羽浄春ケ前町","lat":34.934129,"lng":135.750447},{"code":"26109004033","name":"下鳥羽下鳥羽但馬町","lat":34.931801,"lng":135.749472},{"code":"26109004035","name":"下鳥羽中島流作町","lat":34.952435,"lng":135.742735},{"code":"26109004036","name":"下鳥羽下鳥羽中向島町","lat":34.940753,"lng":135.739566},{"code":"26109004037","name":"下鳥羽下鳥羽下向島町","lat":34.934923,"lng":135.738762},{"code":"26109004038","name":"下鳥羽下鳥羽小柳町","lat":34.934236,"lng":135.748152},{"code":"26109004039","name":"下鳥羽中島鳥羽離宮町","lat":34.950454,"lng":135.746797},{"code":"26109004040","name":"下鳥羽下鳥羽西芹川町","lat":34.942926,"lng":135.747429},{"code":"26109004041","name":"下鳥羽下鳥羽東芹川町","lat":34.942197,"lng":135.75056},{"code":"26109004042","name":"下鳥羽中島秋ノ山町","lat":34.951766,"lng":135.744091},{"code":"26109004043","name":"下鳥羽中島御所ノ内町","lat":34.949398,"lng":135.744145},{"code":"26109004045","name":"下鳥羽中島前山町","lat":34.947441,"lng":135.744344},{"code":"26109004046","name":"下鳥羽中島中道町","lat":34.947681,"lng":135.746545},{"code":"26109004047","name":"下鳥羽中島北ノ口町","lat":34.949585,"lng":135.750959},{"code":"26109004048","name":"下鳥羽中島堀端町","lat":34.947382,"lng":135.748585},{"code":"26109004049","name":"下鳥羽中島外山町","lat":34.945265,"lng":135.74653},{"code":"26109004050","name":"下鳥羽中島樋ノ上町","lat":34.94527,"lng":135.744216},{"code":"26109004052","name":"下鳥羽中島宮ノ前町","lat":34.949446,"lng":135.748262},{"code":"26109004053","name":"下鳥羽下鳥羽城ノ越町","lat":34.942541,"lng":135.744311},{"code":"26109004054","name":"下鳥羽下鳥羽北ノ口町","lat":34.941266,"lng":135.747339},{"code":"26109004056","name":"下鳥羽下鳥羽渡瀬町","lat":34.939565,"lng":135.746599},{"code":"26109004057","name":"下鳥羽下鳥羽南六反長町","lat":34.931662,"lng":135.751878},{"code":"26109004058","name":"下鳥羽下鳥羽北三町","lat":34.937312,"lng":135.741897},{"code":"26109004059","name":"下鳥羽下鳥羽中三町","lat":34.93521,"lng":135.741434},{"code":"26109004060","name":"下鳥羽下鳥羽南三町","lat":34.933041,"lng":135.740264},{"code":"26109004061","name":"下鳥羽下鳥羽西柳長町","lat":34.93726,"lng":135.743161},{"code":"26109004062","name":"下鳥羽下鳥羽東柳長町","lat":34.937017,"lng":135.744412},{"code":"26109004063","name":"下鳥羽下鳥羽南柳長町","lat":34.934959,"lng":135.743772},{"code":"26109004064","name":"下鳥羽下鳥羽北円面田町","lat":34.934041,"lng":135.742664},{"code":"26109004065","name":"下鳥羽下鳥羽中円面田町","lat":34.932807,"lng":135.742032},{"code":"26109004066","name":"下鳥羽下鳥羽南円面田町","lat":34.931513,"lng":135.740533},{"code":"26109004067","name":"下鳥羽北寝小屋町","lat":34.93966,"lng":135.749032},{"code":"26109004068","name":"下鳥羽下鳥羽南寝小屋町","lat":34.936502,"lng":135.750086},{"code":"26109004069","name":"下鳥羽横大路三栖泥町跡町","lat":34.931252,"lng":135.753124},{"code":"26109005001","name":"久我久我石原町","lat":34.948452,"lng":135.730347},{"code":"26109005002","name":"久我久我本町","lat":34.945827,"lng":135.729226},{"code":"26109005003","name":"久我久我御旅町","lat":34.942996,"lng":135.730904},{"code":"26109005004","name":"久我久我森の宮町","lat":34.939662,"lng":135.729972},{"code":"26109005005","name":"久我久我東町","lat":34.938167,"lng":135.731849},{"code":"26109005006","name":"久我羽束師鴨川町","lat":34.938128,"lng":135.735372},{"code":"26109005007","name":"久我久我西出町","lat":34.939928,"lng":135.721921},{"code":"26109006001","name":"久我の杜久我森の宮町","lat":34.937867,"lng":135.726665},{"code":"26109006002","name":"久我の杜久我東町","lat":34.934056,"lng":135.72895},{"code":"26109006003","name":"久我の杜羽束師鴨川町","lat":34.932421,"lng":135.733478},{"code":"26109006004","name":"久我の杜久我西出町","lat":34.935531,"lng":135.724526},{"code":"26109007001","name":"羽束師久我西出町","lat":34.937863,"lng":135.718553},{"code":"26109007002","name":"羽束師羽束師菱川町","lat":34.932626,"lng":135.719012},{"code":"26109007003","name":"羽束師羽束師志水町","lat":34.929972,"lng":135.726852},{"code":"26109007004","name":"羽束師羽束師古川町","lat":34.925651,"lng":135.722773},{"code":"26109008001","name":"淀淀樋爪町","lat":34.91985,"lng":135.719984},{"code":"26109008002","name":"淀淀水垂町","lat":34.913035,"lng":135.714899},{"code":"26109008003","name":"淀淀大下津町","lat":34.906203,"lng":135.709338},{"code":"26109008004","name":"淀淀木津町","lat":34.903083,"lng":135.71356},{"code":"26109008005","name":"淀淀川顔町","lat":34.898701,"lng":135.718244},{"code":"26109008006","name":"淀淀新町","lat":34.900851,"lng":135.718853},{"code":"26109008007","name":"淀淀下津町","lat":34.902645,"lng":135.720502},{"code":"26109008008","name":"淀淀池上町","lat":34.904142,"lng":135.721346},{"code":"26109008009","name":"淀淀本町","lat":34.905789,"lng":135.717862},{"code":"26109009001","name":"美豆淀美豆町","lat":34.898333,"lng":135.710127},{"code":"26109009002","name":"美豆淀際目町","lat":34.89071,"lng":135.715789},{"code":"26109009003","name":"美豆淀生津町","lat":34.882782,"lng":135.72393},{"code":"26109010001","name":"納所納所町","lat":34.909611,"lng":135.719417},{"code":"26109010002","name":"納所納所妙徳寺","lat":34.909228,"lng":135.719702},{"code":"26109010003","name":"納所納所南城堀","lat":34.909009,"lng":135.72043},{"code":"26109010004","name":"納所納所薬師堂","lat":34.909249,"lng":135.722463},{"code":"26109010005","name":"納所納所北城堀","lat":34.911158,"lng":135.720677},{"code":"26109010006","name":"納所納所星柳","lat":34.910934,"lng":135.722573},{"code":"26109010007","name":"納所納所和泉屋","lat":34.912389,"lng":135.724206},{"code":"26109010008","name":"納所納所中河原","lat":34.913396,"lng":135.723289},{"code":"26109010009","name":"納所納所岸ノ下","lat":34.914397,"lng":135.725114},{"code":"26109010010","name":"納所納所大野","lat":34.912303,"lng":135.728109},{"code":"26109010011","name":"納所納所下野","lat":34.910576,"lng":135.724703},{"code":"26109010012","name":"納所向島又兵衛","lat":34.906238,"lng":135.728283},{"code":"26109010013","name":"納所納所外島","lat":34.915716,"lng":135.723436},{"code":"26109010014","name":"納所葭島渡場島町","lat":34.908835,"lng":135.730931},{"code":"26109011001","name":"横大路横大路三栖池田屋敷町","lat":34.927645,"lng":135.748079},{"code":"26109011002","name":"横大路横大路草津町","lat":34.929276,"lng":135.734845},{"code":"26109011003","name":"横大路横大路上ノ浜町","lat":34.926467,"lng":135.732129},{"code":"26109011004","name":"横大路横大路中ノ島町","lat":34.92383,"lng":135.729853},{"code":"26109011005","name":"横大路横大路東裏町","lat":34.9287,"lng":135.736621},{"code":"26109011006","name":"横大路横大路中ノ庄町","lat":34.927545,"lng":135.735361},{"code":"26109011007","name":"横大路横大路畑中町","lat":34.926322,"lng":135.734091},{"code":"26109011008","name":"横大路横大路長畑町","lat":34.924096,"lng":135.732097},{"code":"26109011009","name":"横大路横大路柿ノ本町","lat":34.925643,"lng":135.735971},{"code":"26109011010","name":"横大路横大路下島","lat":34.921035,"lng":135.728004},{"code":"26109011011","name":"横大路横大路貴船","lat":34.928993,"lng":135.738477},{"code":"26109011012","name":"横大路横大路天王後","lat":34.929273,"lng":135.740818},{"code":"26109011013","name":"横大路横大路天王前","lat":34.925303,"lng":135.740734},{"code":"26109011014","name":"横大路横大路朱雀","lat":34.929271,"lng":135.743139},{"code":"26109011015","name":"横大路横大路芝生","lat":34.927957,"lng":135.744992},{"code":"26109011016","name":"横大路横大路橋本","lat":34.925512,"lng":135.743169},{"code":"26109011017","name":"横大路横大路鍬ノ本","lat":34.925155,"lng":135.738238},{"code":"26109011018","name":"横大路横大路菅本","lat":34.922225,"lng":135.737657},{"code":"26109011019","name":"横大路横大路畔ノ内","lat":34.922414,"lng":135.734853},{"code":"26109011020","name":"横大路横大路向ヒ","lat":34.923886,"lng":135.733478},{"code":"26109011021","name":"横大路横大路竜ケ池","lat":34.920928,"lng":135.730978},{"code":"26109011022","name":"横大路横大路一本木","lat":34.919732,"lng":135.73387},{"code":"26109011023","name":"横大路横大路富ノ森町","lat":34.916737,"lng":135.726101},{"code":"26109011024","name":"横大路横大路六反畑","lat":34.918322,"lng":135.729916},{"code":"26109011025","name":"横大路横大路西海道","lat":34.915578,"lng":135.728866},{"code":"26109011026","name":"横大路横大路下ノ坪","lat":34.91387,"lng":135.734404},{"code":"26109011027","name":"横大路横大路松林","lat":34.912026,"lng":135.735692},{"code":"26109011028","name":"横大路横大路下三栖梶原町","lat":34.929507,"lng":135.74849},{"code":"26109011029","name":"横大路横大路下三栖辻堂町","lat":34.928889,"lng":135.750682},{"code":"26109011030","name":"横大路横大路下三栖南郷","lat":34.929772,"lng":135.746659},{"code":"26109011031","name":"横大路横大路下三栖城ノ前町","lat":34.926995,"lng":135.748229},{"code":"26109011032","name":"横大路横大路下三栖宮ノ後","lat":34.92531,"lng":135.746996},{"code":"26109011033","name":"横大路横大路下三栖里ノ内","lat":34.921374,"lng":135.749226},{"code":"26109011034","name":"横大路横大路千両松町","lat":34.919315,"lng":135.741543},{"code":"26109011038","name":"横大路横大路南島","lat":34.918816,"lng":135.725569},{"code":"26109011039","name":"横大路横大路前川町","lat":34.917847,"lng":135.72744},{"code":"26109011040","name":"横大路横大路八反田","lat":34.917079,"lng":135.735247},{"code":"26109011041","name":"横大路横大路北ノ口町","lat":34.917519,"lng":135.732536},{"code":"26109011042","name":"横大路横大路神宮寺","lat":34.913477,"lng":135.73131},{"code":"26109012001","name":"南浜両替町一丁目","lat":34.928752,"lng":135.764022},{"code":"26109012002","name":"南浜両替町二丁目","lat":34.93027,"lng":135.763864},{"code":"26109012003","name":"南浜両替町三丁目","lat":34.931191,"lng":135.763902},{"code":"26109012004","name":"南浜両替町四丁目","lat":34.932445,"lng":135.764055},{"code":"26109012005","name":"南浜新町一丁目","lat":34.92917,"lng":135.763291},{"code":"26109012006","name":"南浜新町二丁目","lat":34.930238,"lng":135.763238},{"code":"26109012007","name":"南浜新町三丁目","lat":34.93108,"lng":135.763145},{"code":"26109012008","name":"南浜新町四丁目","lat":34.932456,"lng":135.763269},{"code":"26109012009","name":"南浜京町一丁目","lat":34.928646,"lng":135.764683},{"code":"26109012010","name":"南浜京町二丁目","lat":34.930714,"lng":135.764829},{"code":"26109012011","name":"南浜京町三丁目","lat":34.932343,"lng":135.764881},{"code":"26109012012","name":"南浜鍋島町","lat":34.932026,"lng":135.768119},{"code":"26109012013","name":"南浜常盤町","lat":34.931054,"lng":135.769049},{"code":"26109012014","name":"南浜豊後橋町","lat":34.927728,"lng":135.767854},{"code":"26109012015","name":"南浜桃陵町","lat":34.928858,"lng":135.766562},{"code":"26109012016","name":"南浜平戸町","lat":34.926565,"lng":135.766157},{"code":"26109012017","name":"南浜弾正町","lat":34.927645,"lng":135.76539},{"code":"26109012018","name":"南浜柿木浜町","lat":34.927925,"lng":135.762977},{"code":"26109012019","name":"南浜丹後町","lat":34.92942,"lng":135.762667},{"code":"26109012020","name":"南浜本材木町","lat":34.929202,"lng":135.761726},{"code":"26109012021","name":"南浜御堂前町","lat":34.932442,"lng":135.762388},{"code":"26109012022","name":"南浜魚屋町","lat":34.931722,"lng":135.763862},{"code":"26109012023","name":"南浜讃岐町","lat":34.931693,"lng":135.765388},{"code":"26109012024","name":"南浜道阿弥町","lat":34.932375,"lng":135.766024},{"code":"26109012025","name":"南浜片桐町","lat":34.932164,"lng":135.767084},{"code":"26109012026","name":"南浜南浜町","lat":34.930276,"lng":135.760354},{"code":"26109012027","name":"南浜伯耆町","lat":34.932735,"lng":135.760738},{"code":"26109012028","name":"南浜平野町","lat":34.932385,"lng":135.760559},{"code":"26109012029","name":"南浜納屋町","lat":34.932306,"lng":135.759918},{"code":"26109012030","name":"南浜上油掛町","lat":34.930886,"lng":135.761762},{"code":"26109012031","name":"南浜中油掛町","lat":34.931399,"lng":135.760443},{"code":"26109012032","name":"南浜下油掛町","lat":34.931535,"lng":135.759141},{"code":"26109012033","name":"南浜塩屋町","lat":34.930725,"lng":135.760524},{"code":"26109012034","name":"南浜車町","lat":34.930754,"lng":135.759494},{"code":"26109012035","name":"南浜京橋町","lat":34.930688,"lng":135.758724},{"code":"26109012036","name":"南浜周防町","lat":34.93181,"lng":135.758033},{"code":"26109012037","name":"南浜山崎町","lat":34.93069,"lng":135.757736},{"code":"26109012038","name":"南浜村上町","lat":34.931769,"lng":135.756932},{"code":"26109012039","name":"南浜阿波橋町","lat":34.93183,"lng":135.755728},{"code":"26109012040","name":"南浜杉本町","lat":34.9311,"lng":135.75462},{"code":"26109012041","name":"南浜八幡町","lat":34.932011,"lng":135.755039},{"code":"26109012042","name":"南浜三栖半町","lat":34.930576,"lng":135.755721},{"code":"26109012043","name":"南浜北浜町","lat":34.929808,"lng":135.757066},{"code":"26109012044","name":"南浜表町","lat":34.929387,"lng":135.758738},{"code":"26109012045","name":"南浜下中町","lat":34.929305,"lng":135.756513},{"code":"26109012046","name":"南浜上中町","lat":34.929068,"lng":135.757789},{"code":"26109012047","name":"南浜新中町","lat":34.928345,"lng":135.757399},{"code":"26109012048","name":"南浜三栖向町","lat":34.926968,"lng":135.757701},{"code":"26109012049","name":"南浜東浜南町","lat":34.927908,"lng":135.75816},{"code":"26109012050","name":"南浜西浜町","lat":34.928269,"lng":135.756282},{"code":"26109012051","name":"南浜三栖町一丁目","lat":34.929927,"lng":135.75523},{"code":"26109012052","name":"南浜三栖町二丁目","lat":34.928077,"lng":135.755343},{"code":"26109012053","name":"南浜三栖町三丁目","lat":34.926651,"lng":135.755378},{"code":"26109012054","name":"南浜三栖町四丁目","lat":34.924821,"lng":135.755582},{"code":"26109012055","name":"南浜東柳町","lat":34.928989,"lng":135.760503},{"code":"26109012056","name":"南浜西柳町","lat":34.929044,"lng":135.759517},{"code":"26109012057","name":"南浜南新地","lat":34.927565,"lng":135.759803},{"code":"26109012058","name":"南浜葭島矢倉町","lat":34.926002,"lng":135.7614},{"code":"26109012059","name":"南浜桃山町弾正島","lat":34.926294,"lng":135.764333},{"code":"26109012060","name":"南浜葭島金井戸町","lat":34.924485,"lng":135.758096},{"code":"26109012061","name":"南浜桃山町金井戸島","lat":34.924016,"lng":135.757856},{"code":"26109012062","name":"南浜横大路三栖大黒町","lat":34.932825,"lng":135.754158},{"code":"26109012063","name":"南浜横大路三栖木下屋敷町","lat":34.929586,"lng":135.754845},{"code":"26109012064","name":"南浜横大路下三栖東ノ口","lat":34.922525,"lng":135.753558},{"code":"26109012065","name":"南浜横大路三栖泥町跡町","lat":34.930881,"lng":135.75298},{"code":"26109012066","name":"南浜横大路下三栖山殿","lat":34.929181,"lng":135.753264},{"code":"26109012067","name":"南浜東奉行町","lat":34.930894,"lng":135.767526},{"code":"26109012068","name":"南浜西奉行町","lat":34.930525,"lng":135.766697},{"code":"26109012069","name":"南浜奉行前町","lat":34.930591,"lng":135.76552},{"code":"26109012070","name":"南浜大阪町","lat":34.931815,"lng":135.762287},{"code":"26109012071","name":"南浜三栖町五丁目","lat":34.921682,"lng":135.755977},{"code":"26109013001","name":"向島向島渡シ場町","lat":34.917651,"lng":135.787847},{"code":"26109013002","name":"向島向島清水町","lat":34.919471,"lng":135.786062},{"code":"26109013003","name":"向島向島鷹場町","lat":34.921689,"lng":135.784697},{"code":"26109013004","name":"向島向島藤ノ木町","lat":34.923308,"lng":135.781752},{"code":"26109013005","name":"向島向島東泉寺町","lat":34.924583,"lng":135.779123},{"code":"26109013006","name":"向島向島吹田河原町","lat":34.925894,"lng":135.777243},{"code":"26109013007","name":"向島向島立河原町","lat":34.924499,"lng":135.775017},{"code":"26109013008","name":"向島向島庚申町","lat":34.925459,"lng":135.77342},{"code":"26109013009","name":"向島向島善阿弥町","lat":34.92579,"lng":135.770957},{"code":"26109013010","name":"向島向島西堤町","lat":34.925717,"lng":135.76918},{"code":"26109013011","name":"向島向島本丸町","lat":34.923856,"lng":135.771462},{"code":"26109013012","name":"向島向島丸町","lat":34.922316,"lng":135.776701},{"code":"26109013013","name":"向島向島橋詰町","lat":34.92641,"lng":135.769009},{"code":"26109014001","name":"向島南向島庚申町","lat":34.922165,"lng":135.772885},{"code":"26109014002","name":"向島南向島善阿弥町","lat":34.924724,"lng":135.769409},{"code":"26109014003","name":"向島南向島西堤町","lat":34.92503,"lng":135.767101},{"code":"26109014004","name":"向島南向島中島町","lat":34.921773,"lng":135.768782},{"code":"26109014005","name":"向島南向島二ノ丸町","lat":34.919981,"lng":135.771067},{"code":"26109014006","name":"向島南向島本丸町","lat":34.923194,"lng":135.770521},{"code":"26109014007","name":"向島南向島津田町","lat":34.921035,"lng":135.765139},{"code":"26109014008","name":"向島南向島東定請","lat":34.916041,"lng":135.766779},{"code":"26109014009","name":"向島南向島西定請","lat":34.911801,"lng":135.764343},{"code":"26109014010","name":"向島南向島上林町","lat":34.920309,"lng":135.760918},{"code":"26109014011","name":"向島南向島大河原","lat":34.917346,"lng":135.756034},{"code":"26109014012","name":"向島南向島下五反田","lat":34.907634,"lng":135.738196},{"code":"26109014013","name":"向島南向島上五反田","lat":34.911265,"lng":135.742629},{"code":"26109014014","name":"向島南向島中之町","lat":34.9251,"lng":135.768032},{"code":"26109014015","name":"向島南向島下之町","lat":34.923875,"lng":135.768034},{"code":"26109014016","name":"向島南向島新大河原","lat":34.91345,"lng":135.75183},{"code":"26109014017","name":"向島南向島新上林","lat":34.915678,"lng":135.760182},{"code":"26109014018","name":"向島南向島四ツ谷池","lat":34.921214,"lng":135.773975},{"code":"26109014019","name":"向島南向島二本柳","lat":34.913368,"lng":135.760736},{"code":"26109014020","name":"向島南向島黒坊","lat":34.910511,"lng":135.752905},{"code":"26109014021","name":"向島南向島新田","lat":34.90762,"lng":135.755852},{"code":"26109014022","name":"向島南向島大黒","lat":34.915839,"lng":135.748555},{"code":"26109014023","name":"向島南向島柳島","lat":34.91413,"lng":135.74186},{"code":"26109015001","name":"向島二ノ丸向島二ノ丸町","lat":34.916893,"lng":135.774195},{"code":"26109015002","name":"向島二ノ丸向島四ツ谷池","lat":34.918872,"lng":135.776852},{"code":"261090160","name":"向島二ノ丸北","lat":34.917805,"lng":135.770805},{"code":"26109017001","name":"向島藤ノ木向島清水町","lat":34.917853,"lng":135.782365},{"code":"26109017002","name":"向島藤ノ木向島鷹場町","lat":34.919306,"lng":135.780176},{"code":"26109017003","name":"向島藤ノ木向島藤ノ木町","lat":34.920441,"lng":135.779531},{"code":"26109017004","name":"向島藤ノ木向島丸町","lat":34.921314,"lng":135.777038},{"code":"26109018001","name":"桃山桃山町金森出雲","lat":34.934406,"lng":135.766154},{"code":"26109018002","name":"桃山桃山羽柴長吉東町","lat":34.936309,"lng":135.767268},{"code":"26109018003","name":"桃山桃山羽柴長吉中町","lat":34.936363,"lng":135.766454},{"code":"26109018004","name":"桃山桃山羽柴長吉西町","lat":34.936467,"lng":135.765571},{"code":"26109018005","name":"桃山桃山筒井伊賀東町","lat":34.938724,"lng":135.76711},{"code":"26109018006","name":"桃山桃山筒井伊賀西町","lat":34.938648,"lng":135.765822},{"code":"26109018007","name":"桃山桃山井伊掃部東町","lat":34.940968,"lng":135.767335},{"code":"26109018008","name":"桃山桃山井伊掃部西町","lat":34.940946,"lng":135.765903},{"code":"26109018009","name":"桃山桃山水野左近東町","lat":34.942741,"lng":135.768886},{"code":"26109018010","name":"桃山桃山水野左近西町","lat":34.943049,"lng":135.766457},{"code":"26109018011","name":"桃山桃山最上町","lat":34.943646,"lng":135.768989},{"code":"26109018012","name":"桃山桃山町丹下","lat":34.944642,"lng":135.768339},{"code":"26109018013","name":"桃山桃山町正宗","lat":34.943087,"lng":135.773642},{"code":"26109018014","name":"桃山桃山福島太夫西町","lat":34.938597,"lng":135.76853},{"code":"26109018015","name":"桃山桃山福島太夫南町","lat":34.938151,"lng":135.770027},{"code":"26109018016","name":"桃山桃山福島太夫北町","lat":34.939284,"lng":135.76998},{"code":"26109018017","name":"桃山桃山長岡越中東町","lat":34.940447,"lng":135.770488},{"code":"26109018018","name":"桃山桃山長岡越中南町","lat":34.940567,"lng":135.769099},{"code":"26109018019","name":"桃山桃山長岡越中北町","lat":34.941671,"lng":135.769645},{"code":"26109018020","name":"桃山桃山毛利長門東町","lat":34.936174,"lng":135.769694},{"code":"26109018021","name":"桃山桃山毛利長門西町","lat":34.936666,"lng":135.768194},{"code":"26109018022","name":"桃山桃山町松平筑前","lat":34.933908,"lng":135.76868},{"code":"26109018023","name":"桃山桃山筑前台町","lat":34.934265,"lng":135.770523},{"code":"26109018024","name":"桃山桃山町鍋島","lat":34.932733,"lng":135.770393},{"code":"26109018025","name":"桃山桃山町松平武蔵","lat":34.932733,"lng":135.773447},{"code":"26109018026","name":"桃山桃山町立売","lat":34.932025,"lng":135.770064},{"code":"26109018027","name":"桃山桃山町泰長老","lat":34.929746,"lng":135.771582},{"code":"26109018028","name":"桃山桃山町本多上野","lat":34.930223,"lng":135.775227},{"code":"26109018029","name":"桃山桃山町伊賀","lat":34.930967,"lng":135.77823},{"code":"26109018030","name":"桃山桃山町三河","lat":34.935064,"lng":135.773207},{"code":"26109018031","name":"桃山桃山町二ノ丸","lat":34.934673,"lng":135.778486},{"code":"26109018032","name":"桃山桃山町大蔵","lat":34.940439,"lng":135.778317},{"code":"26109018033","name":"桃山桃山町板倉周防","lat":34.93257,"lng":135.776315},{"code":"26109018034","name":"桃山桃山町永井久太郎","lat":34.941245,"lng":135.773255},{"code":"26109018035","name":"桃山桃山町島津","lat":34.938723,"lng":135.772443},{"code":"26109018036","name":"桃山桃山町下野","lat":34.937123,"lng":135.774162},{"code":"26109018037","name":"桃山桃山町泰長老（観月橋団地","lat":34.930554,"lng":135.769641},{"code":"26109018038","name":"桃山桃山町治部少丸","lat":34.936065,"lng":135.776456},{"code":"26109018039","name":"桃山桃山町古城山","lat":34.938941,"lng":135.779906},{"code":"26109019001","name":"桃山東桃山町根来","lat":34.931066,"lng":135.781476},{"code":"26109019002","name":"桃山東桃山町丹後","lat":34.931716,"lng":135.784515},{"code":"26109019003","name":"桃山東桃山町美濃","lat":34.931895,"lng":135.782764},{"code":"26109019004","name":"桃山東桃山町駿河","lat":34.932893,"lng":135.783972},{"code":"26109019005","name":"桃山東桃山町百軒長屋","lat":34.935752,"lng":135.782328},{"code":"26109019006","name":"桃山東桃山町新町","lat":34.933754,"lng":135.786409},{"code":"26109019007","name":"桃山東桃山町和泉","lat":34.932435,"lng":135.787185},{"code":"26109019008","name":"桃山東桃山町大津町","lat":34.933878,"lng":135.78854},{"code":"26109019009","name":"桃山東桃山町西町","lat":34.934082,"lng":135.790474},{"code":"26109019010","name":"桃山東桃山町東町","lat":34.93379,"lng":135.791507},{"code":"26109019011","name":"桃山東桃山町見附町","lat":34.93357,"lng":135.792776},{"code":"26109019012","name":"桃山東桃山町中島町","lat":34.932828,"lng":135.794253},{"code":"26109019013","name":"桃山東桃山町遠山","lat":34.936008,"lng":135.7895},{"code":"26109019014","name":"桃山東桃山町町並","lat":34.933834,"lng":135.793796},{"code":"26109019015","name":"桃山東桃山町西尾","lat":34.934955,"lng":135.793576},{"code":"26109019016","name":"桃山東桃山町安芸山","lat":34.938785,"lng":135.790035},{"code":"26109019017","name":"桃山東桃山町因幡","lat":34.932548,"lng":135.791221},{"code":"26109019018","name":"桃山東桃山町日向","lat":34.939088,"lng":135.792884},{"code":"26109019019","name":"桃山東桃山町山ノ下","lat":34.938191,"lng":135.795145},{"code":"26109019020","name":"桃山東桃山町伊庭","lat":34.935391,"lng":135.786383},{"code":"26109019021","name":"桃山東桃山紅雪町","lat":34.938131,"lng":135.787262},{"code":"26109019022","name":"桃山東桃山町丸山","lat":34.93621,"lng":135.784188},{"code":"26109019023","name":"桃山東桃山町養斉","lat":34.930918,"lng":135.785843},{"code":"26109019024","name":"桃山東桃山町大島","lat":34.931323,"lng":135.789899},{"code":"26109020001","name":"桃山南桃山町丹後","lat":34.930105,"lng":135.783926},{"code":"26109020002","name":"桃山南桃山町養斉","lat":34.929287,"lng":135.78587},{"code":"26109020003","name":"桃山南桃山町大島","lat":34.926657,"lng":135.789812},{"code":"26109020004","name":"桃山南桃山与五郎町","lat":34.928887,"lng":135.780683},{"code":"26109020005","name":"桃山南桃山南大島町","lat":34.925829,"lng":135.785273},{"code":"26109021001","name":"稲荷深草車阪町","lat":34.975136,"lng":135.777201},{"code":"26109021002","name":"稲荷深草南明町","lat":34.97305,"lng":135.775476},{"code":"26109021003","name":"稲荷深草正覚町","lat":34.972809,"lng":135.772261},{"code":"26109021004","name":"稲荷深草願成町","lat":34.971354,"lng":135.774695},{"code":"26109021005","name":"稲荷深草本寺山町","lat":34.97558,"lng":135.775082},{"code":"26109021006","name":"稲荷深草開土町","lat":34.970036,"lng":135.774197},{"code":"26109021007","name":"稲荷深草稲荷榎木橋町","lat":34.969467,"lng":135.770924},{"code":"26109021008","name":"稲荷深草稲荷中之町","lat":34.968435,"lng":135.770956},{"code":"26109021009","name":"稲荷深草開土口町","lat":34.969176,"lng":135.775314},{"code":"26109021010","name":"稲荷深草坊山町","lat":34.963659,"lng":135.781153},{"code":"26109021011","name":"稲荷深草笹山町","lat":34.966325,"lng":135.778209},{"code":"26109021012","name":"稲荷深草僧坊山町","lat":34.962264,"lng":135.78305},{"code":"26109021013","name":"稲荷深草極楽寺山町","lat":34.964589,"lng":135.789247},{"code":"26109021014","name":"稲荷深草藪之内町","lat":34.96663,"lng":135.772977},{"code":"26109021015","name":"稲荷深草稲荷御前町","lat":34.967075,"lng":135.77089},{"code":"26109021016","name":"稲荷深草大門町","lat":34.965022,"lng":135.772866},{"code":"26109021017","name":"稲荷深草直違橋十一丁目","lat":34.965382,"lng":135.771006},{"code":"26109021018","name":"稲荷深草石峰寺山町","lat":34.964917,"lng":135.776265},{"code":"26109021019","name":"稲荷稲荷山官有地","lat":34.968831,"lng":135.782411},{"code":"26109021020","name":"稲荷深草森吉町","lat":34.97164,"lng":135.770201},{"code":"26109021021","name":"稲荷深草上横縄町","lat":34.970638,"lng":135.770373},{"code":"26109021022","name":"稲荷深草下横縄町","lat":34.969518,"lng":135.770471},{"code":"26109021023","name":"稲荷深草一ノ坪町","lat":34.968429,"lng":135.770255},{"code":"26109021024","name":"稲荷深草ス丶ハキ町","lat":34.965589,"lng":135.770473},{"code":"26109021025","name":"稲荷深草野手町","lat":34.963795,"lng":135.773307},{"code":"26109021026","name":"稲荷深草下高松町","lat":34.972711,"lng":135.769538},{"code":"26109021027","name":"稲荷深草相深町","lat":34.972493,"lng":135.770043},{"code":"26109021028","name":"稲荷深草宝塔寺山町","lat":34.963644,"lng":135.775007},{"code":"26109022001","name":"砂川深草大門町","lat":34.964747,"lng":135.771657},{"code":"26109022002","name":"砂川深草森吉町","lat":34.971453,"lng":135.768946},{"code":"26109022003","name":"砂川深草六反田町","lat":34.970578,"lng":135.767408},{"code":"26109022004","name":"砂川深草藤田坪町","lat":34.971853,"lng":135.767331},{"code":"26109022005","name":"砂川深草上横縄町","lat":34.970496,"lng":135.769109},{"code":"26109022006","name":"砂川深草下横縄町","lat":34.969523,"lng":135.769332},{"code":"26109022007","name":"砂川深草中川原町","lat":34.972054,"lng":135.766437},{"code":"26109022008","name":"砂川深草鈴塚町","lat":34.969864,"lng":135.766275},{"code":"26109022009","name":"砂川深草西川原町","lat":34.971697,"lng":135.764597},{"code":"26109022010","name":"砂川深草一ノ坪町","lat":34.968489,"lng":135.768924},{"code":"26109022011","name":"砂川深草秡川町","lat":34.967521,"lng":135.769039},{"code":"26109022012","name":"砂川深草フケノ内町","lat":34.968068,"lng":135.767211},{"code":"26109022013","name":"砂川深草平田町","lat":34.967724,"lng":135.76519},{"code":"26109022014","name":"砂川深草下川原町","lat":34.967617,"lng":135.762944},{"code":"26109022015","name":"砂川深草勧進橋町","lat":34.968724,"lng":135.761931},{"code":"26109022016","name":"砂川深草稲荷鳥居前町","lat":34.966502,"lng":135.76954},{"code":"26109022017","name":"砂川深草ス丶ハキ町","lat":34.965336,"lng":135.769478},{"code":"26109022018","name":"砂川深草野手町","lat":34.963641,"lng":135.772149},{"code":"26109022019","name":"砂川深草直違橋十丁目","lat":34.964314,"lng":135.771175},{"code":"26109022020","name":"砂川深草直違橋九丁目","lat":34.963113,"lng":135.77112},{"code":"26109022021","name":"砂川深草塚本町","lat":34.965015,"lng":135.766741},{"code":"26109022022","name":"砂川深草ケナサ町","lat":34.963863,"lng":135.769619},{"code":"26109022023","name":"砂川深草綿森町","lat":34.96205,"lng":135.769505},{"code":"26109022024","name":"砂川深草町通町","lat":34.960593,"lng":135.769522},{"code":"26109022025","name":"砂川深草野田町","lat":34.959644,"lng":135.76951},{"code":"26109022026","name":"砂川深草ヲカヤ町","lat":34.964231,"lng":135.763872},{"code":"26109022027","name":"砂川深草川久保町","lat":34.965633,"lng":135.763906},{"code":"26109022028","name":"砂川深草向川原町","lat":34.966031,"lng":135.759736},{"code":"26109022029","name":"砂川深草下高松町","lat":34.973041,"lng":135.768289},{"code":"26109022030","name":"砂川深草相深町","lat":34.972428,"lng":135.768586},{"code":"26109022031","name":"砂川深草西浦町一丁目","lat":34.961707,"lng":135.762599},{"code":"26109022032","name":"砂川深草西浦町二丁目","lat":34.961598,"lng":135.76451},{"code":"26109022033","name":"砂川深草西浦町三丁目","lat":34.961106,"lng":135.765978},{"code":"26109022034","name":"砂川深草西浦町四丁目","lat":34.961541,"lng":135.76743},{"code":"26109022036","name":"砂川深草今在家町","lat":34.9649,"lng":135.768974},{"code":"26109023001","name":"深草深草宝塔寺山町","lat":34.962858,"lng":135.776054},{"code":"26109023002","name":"深草深草馬谷町","lat":34.956424,"lng":135.786982},{"code":"26109023003","name":"深草深草極楽寺町","lat":34.962166,"lng":135.772864},{"code":"26109023004","name":"深草深草坊町","lat":34.960369,"lng":135.775495},{"code":"26109023005","name":"深草深草西出町","lat":34.960372,"lng":135.773065},{"code":"26109023006","name":"深草深草直違橋八丁目","lat":34.961849,"lng":135.771164},{"code":"26109023007","name":"深草深草直違橋七丁目","lat":34.96077,"lng":135.771199},{"code":"26109023008","name":"深草深草直違橋六丁目","lat":34.959687,"lng":135.771208},{"code":"26109023009","name":"深草深草田谷町","lat":34.958668,"lng":135.773143},{"code":"26109023010","name":"深草深草僧坊町","lat":34.958458,"lng":135.776092},{"code":"26109023011","name":"深草深草真宗院山町","lat":34.960471,"lng":135.778164},{"code":"26109023012","name":"深草深草瓦町","lat":34.957353,"lng":135.777991},{"code":"26109023013","name":"深草深草東瓦町","lat":34.95811,"lng":135.780408},{"code":"26109023014","name":"深草深草中ノ郷山町","lat":34.95908,"lng":135.783149},{"code":"26109023015","name":"深草深草鞍ケ谷","lat":34.955389,"lng":135.783705},{"code":"26109023016","name":"深草深草東軸町","lat":34.95206,"lng":135.786843},{"code":"26109023017","name":"深草深草砂子谷町","lat":34.951213,"lng":135.785264},{"code":"26109023018","name":"深草深草神明講谷町","lat":34.957795,"lng":135.789783},{"code":"26109023019","name":"深草深草谷口町","lat":34.952141,"lng":135.782196},{"code":"26109023020","name":"深草深草向ケ原町","lat":34.95272,"lng":135.790389},{"code":"26109023021","name":"深草深草東伊達町","lat":34.955472,"lng":135.778282},{"code":"26109023022","name":"深草深草西伊達町","lat":34.956483,"lng":135.773894},{"code":"26109023023","name":"深草深草直違橋五丁目","lat":34.958533,"lng":135.771167},{"code":"26109023024","name":"深草深草直違橋四丁目","lat":34.957335,"lng":135.77121},{"code":"26109023025","name":"深草深草直違橋三丁目","lat":34.956293,"lng":135.771184},{"code":"26109023026","name":"深草深草直違橋二丁目","lat":34.954808,"lng":135.770849},{"code":"26109023027","name":"深草深草枯木町","lat":34.955301,"lng":135.772753},{"code":"26109023028","name":"深草深草キトロ町","lat":34.958245,"lng":135.76961},{"code":"26109023029","name":"深草深草堀田町","lat":34.957133,"lng":135.769337},{"code":"26109023030","name":"深草深草極楽町","lat":34.955802,"lng":135.770189},{"code":"26109023031","name":"深草深草飯食町","lat":34.955364,"lng":135.768926},{"code":"26109023032","name":"深草深草西飯食町","lat":34.955664,"lng":135.767902},{"code":"26109023033","name":"深草深草フチ町","lat":34.955161,"lng":135.76196},{"code":"26109023034","name":"深草深草小久保町","lat":34.952246,"lng":135.761973},{"code":"26109023035","name":"深草深草五反田町","lat":34.956514,"lng":135.761915},{"code":"26109023036","name":"深草深草直違橋北一丁目","lat":34.953769,"lng":135.770645},{"code":"26109023037","name":"深草深草直違橋南一丁目","lat":34.952911,"lng":135.770638},{"code":"26109023038","name":"深草深草寺内町","lat":34.953825,"lng":135.768816},{"code":"26109023039","name":"深草深草七瀬川町","lat":34.952914,"lng":135.767791},{"code":"26109023040","name":"深草深草向畑町","lat":34.953607,"lng":135.773899},{"code":"26109023041","name":"深草深草池ノ内町","lat":34.954806,"lng":135.765033},{"code":"26109023042","name":"深草深草西出山町","lat":34.962724,"lng":135.778153},{"code":"26109023043","name":"深草深草飯食山町","lat":34.95964,"lng":135.787531},{"code":"26109023044","name":"深草深草砥粉山町","lat":34.961631,"lng":135.785637},{"code":"26109023045","name":"深草深草扇ケ原町","lat":34.961435,"lng":135.789409},{"code":"26109023046","name":"深草深草西浦町五丁目","lat":34.957978,"lng":135.767335},{"code":"26109023047","name":"深草深草西浦町六丁目","lat":34.958251,"lng":135.765678},{"code":"26109023048","name":"深草深草西浦町七丁目","lat":34.958414,"lng":135.764088},{"code":"26109023049","name":"深草深草西浦町八丁目","lat":34.95849,"lng":135.762237},{"code":"26109023050","name":"深草深草大亀谷東久宝寺町","lat":34.954263,"lng":135.77984},{"code":"26109023051","name":"深草深草大亀谷西久宝寺町","lat":34.953579,"lng":135.776346},{"code":"26109023052","name":"深草深草新門丈町","lat":34.951043,"lng":135.761072},{"code":"26109023054","name":"深草深草霧ケ谷町","lat":34.952292,"lng":135.789091},{"code":"26109024002","name":"藤ノ森深草直違橋片町","lat":34.951544,"lng":135.770924},{"code":"26109024003","name":"藤ノ森深草藤森町","lat":34.950777,"lng":135.773614},{"code":"26109024004","name":"藤ノ森深草十九軒町","lat":34.951501,"lng":135.769679},{"code":"26109024005","name":"藤ノ森深草藤森玄蕃町","lat":34.950298,"lng":135.769749},{"code":"26109024006","name":"藤ノ森深草鳥居崎町","lat":34.950153,"lng":135.771512},{"code":"26109024007","name":"藤ノ森深草北蓮池町","lat":34.951806,"lng":135.768027},{"code":"26109024008","name":"藤ノ森深草仙石屋敷町","lat":34.952614,"lng":135.7654},{"code":"26109024009","name":"藤ノ森深草関屋敷町","lat":34.951745,"lng":135.766823},{"code":"26109024010","name":"藤ノ森深草南蓮池町","lat":34.950718,"lng":135.767664},{"code":"26109024011","name":"藤ノ森深草大亀谷万帖敷町","lat":34.946486,"lng":135.774914},{"code":"26109024012","name":"藤ノ森深草大亀谷東久宝寺町","lat":34.952858,"lng":135.779328},{"code":"26109024013","name":"藤ノ森深草大亀谷西久宝寺町","lat":34.953448,"lng":135.777226},{"code":"26109024014","name":"藤ノ森深草大亀谷大谷町","lat":34.951489,"lng":135.778498},{"code":"26109024015","name":"藤ノ森深草大亀谷東寺町","lat":34.948903,"lng":135.775843},{"code":"26109024016","name":"藤ノ森深草大亀谷西寺町","lat":34.950638,"lng":135.775902},{"code":"26109024017","name":"藤ノ森深草大亀谷大山町","lat":34.947557,"lng":135.775142},{"code":"26109024018","name":"藤ノ森深草大亀谷八島町","lat":34.94769,"lng":135.773585},{"code":"26109024019","name":"藤ノ森深草大亀谷六躰町","lat":34.94586,"lng":135.774087},{"code":"26109024020","name":"藤ノ森深草大亀谷内膳町","lat":34.945758,"lng":135.772647},{"code":"26109024021","name":"藤ノ森深草大亀谷金森出雲町","lat":34.944629,"lng":135.771246},{"code":"26109024022","name":"藤ノ森深草石橋町","lat":34.94808,"lng":135.771269},{"code":"26109024023","name":"藤ノ森深草紺屋町","lat":34.945615,"lng":135.762652},{"code":"26109024024","name":"藤ノ森深草中ノ島町","lat":34.946185,"lng":135.770533},{"code":"26109024025","name":"藤ノ森深草墨染町","lat":34.946465,"lng":135.767835},{"code":"26109024026","name":"藤ノ森深草北新町","lat":34.948649,"lng":135.769575},{"code":"26109024027","name":"藤ノ森深草芳本町","lat":34.949141,"lng":135.769021},{"code":"26109024028","name":"藤ノ森深草芳永町","lat":34.949259,"lng":135.768482},{"code":"26109024029","name":"藤ノ森深草北鍵屋町","lat":34.949687,"lng":135.767396},{"code":"26109024030","name":"藤ノ森深草山村町","lat":34.948687,"lng":135.767018},{"code":"26109024031","name":"藤ノ森深草大島屋敷町","lat":34.949086,"lng":135.766131},{"code":"26109024032","name":"藤ノ森深草佐野屋敷町","lat":34.947323,"lng":135.765373},{"code":"26109024033","name":"藤ノ森深草越後屋敷町","lat":34.950316,"lng":135.764496},{"code":"26109024034","name":"藤ノ森深草出羽屋敷町","lat":34.947165,"lng":135.76387},{"code":"26109024035","name":"藤ノ森深草新門丈町","lat":34.950056,"lng":135.761151},{"code":"26109024036","name":"藤ノ森深草柴田屋敷町","lat":34.947463,"lng":135.761904},{"code":"26109024037","name":"藤ノ森深草泓ノ壷町","lat":34.948417,"lng":135.759642},{"code":"26109024038","name":"藤ノ森深草善導寺町","lat":34.94624,"lng":135.759271},{"code":"26109024039","name":"藤ノ森深草加賀屋敷町","lat":34.948579,"lng":135.757704},{"code":"26109025002","name":"藤城深草宮谷町","lat":34.949112,"lng":135.781864},{"code":"26109025003","name":"藤城深草大亀谷敦賀町","lat":34.943386,"lng":135.784033},{"code":"26109025004","name":"藤城深草大亀谷万帖敷町","lat":34.944175,"lng":135.779111},{"code":"26109025005","name":"藤城深草大亀谷五郎太町","lat":34.941948,"lng":135.77694},{"code":"26109025006","name":"藤城深草大亀谷岩山町","lat":34.9414,"lng":135.787755},{"code":"26109025007","name":"藤城深草大亀谷古御香町","lat":34.94458,"lng":135.785301},{"code":"26109025008","name":"藤城深草大亀谷安信町","lat":34.940102,"lng":135.784526},{"code":"26109025009","name":"藤城深草大亀谷大谷町","lat":34.948719,"lng":135.781096},{"code":"26109025010","name":"藤城深草大亀谷東寺町","lat":34.949293,"lng":135.777973},{"code":"26109025011","name":"藤城深草大亀谷西寺町","lat":34.951073,"lng":135.776741},{"code":"26109025012","name":"藤城深草大亀谷大山町","lat":34.946699,"lng":135.779797},{"code":"26109025013","name":"藤城深草大亀谷六躰町","lat":34.944556,"lng":135.774931},{"code":"26109025014","name":"藤城深草兜山町","lat":34.94619,"lng":135.787692},{"code":"26109025015","name":"藤城深草大亀谷東古御香町","lat":34.944045,"lng":135.787117},{"code":"26109025016","name":"藤城深草大亀谷東安信町","lat":34.940712,"lng":135.785619},{"code":"26109025017","name":"藤城深草大亀谷古城山","lat":34.939093,"lng":135.7841},{"code":"26109025018","name":"藤城深草鐙ケ谷町","lat":34.948659,"lng":135.789238},{"code":"26109025019","name":"藤城深草白砂町","lat":34.948385,"lng":135.785291},{"code":"26109026001","name":"北醍醐醍醐新町裏町","lat":34.95778,"lng":135.815533},{"code":"26109026002","name":"北醍醐醍醐上ノ山町","lat":34.957627,"lng":135.81435},{"code":"26109026003","name":"北醍醐醍醐柿原町","lat":34.961161,"lng":135.822147},{"code":"26109026004","name":"北醍醐醍醐大畑町","lat":34.961299,"lng":135.823713},{"code":"26109026005","name":"北醍醐醍醐廻り戸町","lat":34.960801,"lng":135.820765},{"code":"26109026006","name":"北醍醐醍醐古道町","lat":34.958735,"lng":135.819894},{"code":"26109026007","name":"北醍醐醍醐切レ戸町","lat":34.956667,"lng":135.817425},{"code":"26109026008","name":"北醍醐醍醐烏橋町","lat":34.95659,"lng":135.819616},{"code":"26109026009","name":"北醍醐醍醐京道町","lat":34.958969,"lng":135.81786},{"code":"26109026010","name":"北醍醐醍醐大高町","lat":34.95898,"lng":135.822397},{"code":"26109026011","name":"北醍醐醍醐狭間","lat":34.963539,"lng":135.820331},{"code":"26109026012","name":"北醍醐醍醐御所ノ内","lat":34.963662,"lng":135.822045},{"code":"26109026013","name":"北醍醐醍醐連蔵","lat":34.962165,"lng":135.820161},{"code":"26109026014","name":"北醍醐醍醐山ケ鼻","lat":34.962256,"lng":135.822533},{"code":"26109027001","name":"醍醐西醍醐上ノ山町","lat":34.955447,"lng":135.814762},{"code":"26109027002","name":"醍醐西醍醐中山町","lat":34.95375,"lng":135.814922},{"code":"26109027003","name":"醍醐西醍醐西大路町","lat":34.950744,"lng":135.814241},{"code":"26109027004","name":"醍醐西醍醐川久保町","lat":34.954166,"lng":135.811781},{"code":"26109027005","name":"醍醐西醍醐北西裏町","lat":34.951654,"lng":135.812817},{"code":"26109027006","name":"醍醐西醍醐折戸町","lat":34.951632,"lng":135.809317},{"code":"26109027007","name":"醍醐西醍醐高畑町","lat":34.950882,"lng":135.810871},{"code":"26109027008","name":"醍醐西醍醐平松町","lat":34.953422,"lng":135.812834},{"code":"26109028001","name":"醍醐醍醐一ノ切町","lat":34.951365,"lng":135.872229},{"code":"26109028002","name":"醍醐醍醐二ノ切町","lat":34.949843,"lng":135.873328},{"code":"26109028003","name":"醍醐醍醐片山町","lat":34.956712,"lng":135.822119},{"code":"26109028004","name":"醍醐醍醐御陵東裏町","lat":34.954756,"lng":135.821884},{"code":"26109028005","name":"醍醐醍醐御陵西裏町","lat":34.955127,"lng":135.820006},{"code":"26109028006","name":"醍醐醍醐赤間南裏町","lat":34.952952,"lng":135.821788},{"code":"26109028007","name":"醍醐醍醐新町裏町","lat":34.954975,"lng":135.81796},{"code":"26109028008","name":"醍醐醍醐東大路町","lat":34.951519,"lng":135.818902},{"code":"26109028009","name":"醍醐醍醐上ノ山町","lat":34.955561,"lng":135.816606},{"code":"26109028010","name":"醍醐醍醐中山町","lat":34.952716,"lng":135.81726},{"code":"26109028011","name":"醍醐醍醐上端山町","lat":34.94677,"lng":135.823468},{"code":"26109028012","name":"醍醐醍醐下端山町","lat":34.947054,"lng":135.819253},{"code":"26109028013","name":"醍醐醍醐落保町","lat":34.948324,"lng":135.818245},{"code":"26109028014","name":"醍醐醍醐西大路町","lat":34.950375,"lng":135.81607},{"code":"26109028015","name":"醍醐醍醐和泉町","lat":34.948277,"lng":135.815695},{"code":"26109028016","name":"醍醐醍醐南里町","lat":34.94636,"lng":135.815401},{"code":"26109028017","name":"醍醐醍醐槇ノ内町","lat":34.945311,"lng":135.816706},{"code":"26109028018","name":"醍醐醍醐三ノ切","lat":34.948548,"lng":135.875315},{"code":"26109028019","name":"醍醐醍醐構口町","lat":34.944363,"lng":135.813659},{"code":"26109028020","name":"醍醐醍醐伽藍町","lat":34.950858,"lng":135.822105},{"code":"26109028021","name":"醍醐醍醐陀羅谷","lat":34.957807,"lng":135.843402},{"code":"26109028022","name":"醍醐醍醐北端山","lat":34.953533,"lng":135.823902},{"code":"26109028023","name":"醍醐醍醐醍醐山","lat":34.942238,"lng":135.839152},{"code":"26109028024","name":"醍醐醍醐勝口町","lat":34.945033,"lng":135.819142},{"code":"26109028025","name":"醍醐醍醐北伽藍町","lat":34.952217,"lng":135.824497},{"code":"26109028026","name":"醍醐醍醐上山田","lat":34.963484,"lng":135.823794},{"code":"26109028027","name":"醍醐醍醐内ケ井戸","lat":34.964088,"lng":135.826371},{"code":"26109028030","name":"醍醐醍醐多近田町","lat":34.944521,"lng":135.812891},{"code":"26109029001","name":"池田醍醐大構町","lat":34.9483,"lng":135.809084},{"code":"26109029002","name":"池田醍醐江奈志町","lat":34.944607,"lng":135.807871},{"code":"26109029003","name":"池田醍醐鍵尾町","lat":34.945541,"lng":135.807556},{"code":"26109029004","name":"池田石田大受町","lat":34.942719,"lng":135.805045},{"code":"26109029005","name":"池田小栗栖小阪町","lat":34.946267,"lng":135.803228},{"code":"26109029006","name":"池田小栗栖南後藤町","lat":34.945021,"lng":135.804382},{"code":"26109029007","name":"池田小栗栖牛ケ淵町","lat":34.948614,"lng":135.80634},{"code":"26109029008","name":"池田小栗栖森ケ淵町","lat":34.948275,"lng":135.807726},{"code":"26109029009","name":"池田小栗栖北後藤町","lat":34.947124,"lng":135.805945},{"code":"26109029010","name":"池田醍醐池田町","lat":34.946596,"lng":135.808551},{"code":"26109029011","name":"池田醍醐高畑町","lat":34.949192,"lng":135.808416},{"code":"26109030001","name":"池田東醍醐御霊ケ下町","lat":34.948284,"lng":135.812515},{"code":"26109030002","name":"池田東石田大受町","lat":34.942869,"lng":135.808348},{"code":"26109030003","name":"池田東醍醐大構町","lat":34.948175,"lng":135.810331},{"code":"26109030004","name":"池田東醍醐池田町","lat":34.946579,"lng":135.810067},{"code":"26109030005","name":"池田東醍醐御園尾町","lat":34.946273,"lng":135.813699},{"code":"26109030006","name":"池田東醍醐僧尊坊町","lat":34.94664,"lng":135.811889},{"code":"26109030007","name":"池田東醍醐南西裏町","lat":34.945709,"lng":135.811988},{"code":"26109030008","name":"池田東醍醐多近田町","lat":34.944631,"lng":135.81195},{"code":"26109030009","name":"池田東醍醐江奈志町","lat":34.944633,"lng":135.809564},{"code":"26109030010","name":"池田東醍醐鍵尾町","lat":34.945581,"lng":135.809871},{"code":"26109030011","name":"池田東醍醐新開","lat":34.943478,"lng":135.809338},{"code":"26109031001","name":"小栗栖小栗栖森本町","lat":34.941786,"lng":135.798854},{"code":"26109031002","name":"小栗栖小栗栖中山田町","lat":34.94182,"lng":135.796171},{"code":"26109031003","name":"小栗栖石田川向","lat":34.941815,"lng":135.800843},{"code":"26109032001","name":"小栗栖宮山小栗栖小阪町","lat":34.946354,"lng":135.801078},{"code":"26109032002","name":"小栗栖宮山小栗栖山口町","lat":34.947802,"lng":135.803186},{"code":"26109032003","name":"小栗栖宮山小栗栖石川町","lat":34.9481,"lng":135.796345},{"code":"26109032004","name":"小栗栖宮山小栗栖森本町","lat":34.944139,"lng":135.79997},{"code":"26109032005","name":"小栗栖宮山小栗栖南後藤町","lat":34.944491,"lng":135.8021},{"code":"26109032006","name":"小栗栖宮山小栗栖中山田町","lat":34.942989,"lng":135.792516},{"code":"26109032007","name":"小栗栖宮山小栗栖牛ケ淵町","lat":34.949441,"lng":135.806025},{"code":"26109032008","name":"小栗栖宮山小栗栖西谷町","lat":34.951058,"lng":135.801557},{"code":"26109032009","name":"小栗栖宮山小栗栖北谷町","lat":34.952822,"lng":135.802993},{"code":"26109032010","name":"小栗栖宮山小栗栖岩ケ淵町","lat":34.951618,"lng":135.807993},{"code":"26109032011","name":"小栗栖宮山小栗栖丸山","lat":34.952352,"lng":135.806608},{"code":"26109033001","name":"石田石田森南町","lat":34.93744,"lng":135.802529},{"code":"26109033002","name":"石田石田森東町","lat":34.940119,"lng":135.803713},{"code":"26109033003","name":"石田石田森西","lat":34.93891,"lng":135.799717},{"code":"26109033004","name":"石田石田西ノ坪","lat":34.936667,"lng":135.800557},{"code":"26109033005","name":"石田石田桜木","lat":34.935152,"lng":135.799577},{"code":"26109033006","name":"石田石田大受町","lat":34.94181,"lng":135.803022},{"code":"26109033007","name":"石田石田川向","lat":34.942081,"lng":135.80275},{"code":"26109034001","name":"日野醍醐岸ノ上町","lat":34.943242,"lng":135.814986},{"code":"26109034002","name":"日野醍醐一言寺裏町","lat":34.943684,"lng":135.818177},{"code":"26109034003","name":"日野醍醐柏森町","lat":34.942675,"lng":135.816847},{"code":"26109034004","name":"日野醍醐上山口町","lat":34.941185,"lng":135.81729},{"code":"26109034005","name":"日野醍醐下山口町","lat":34.941999,"lng":135.814495},{"code":"26109034006","name":"日野醍醐外山街道町","lat":34.937817,"lng":135.814306},{"code":"26109034007","name":"日野醍醐南端山町","lat":34.939232,"lng":135.827556},{"code":"26109034008","name":"日野日野慈悲町","lat":34.935248,"lng":135.81743},{"code":"26109034009","name":"日野日野不動講町","lat":34.936452,"lng":135.815809},{"code":"26109034010","name":"日野日野馬場出町","lat":34.937098,"lng":135.813872},{"code":"26109034011","name":"日野日野岡西町","lat":34.932964,"lng":135.814081},{"code":"26109034012","name":"日野日野西大道町","lat":34.933726,"lng":135.815299},{"code":"26109034013","name":"日野日野西風呂町","lat":34.9357,"lng":135.812872},{"code":"26109034014","name":"日野日野畑出町","lat":34.934151,"lng":135.81729},{"code":"26109034015","name":"日野日野奥出","lat":34.929889,"lng":135.816489},{"code":"26109034016","name":"日野日野野色町","lat":34.929991,"lng":135.81516},{"code":"26109034017","name":"日野日野田頬町","lat":34.933167,"lng":135.812637},{"code":"26109034018","name":"日野日野西川頬","lat":34.937575,"lng":135.810728},{"code":"26109034019","name":"日野日野田中町","lat":34.937674,"lng":135.812287},{"code":"26109034020","name":"日野日野谷寺町","lat":34.939019,"lng":135.81685},{"code":"26109034021","name":"日野日野北川頬","lat":34.935956,"lng":135.820349},{"code":"26109034022","name":"日野日野船尾","lat":34.934225,"lng":135.82232},{"code":"26109034023","name":"日野日野谷田町","lat":34.930366,"lng":135.819712},{"code":"26109034024","name":"日野日野林","lat":34.937482,"lng":135.817373},{"code":"26109034025","name":"日野日野南山","lat":34.930444,"lng":135.82623},{"code":"26109034026","name":"日野日野北山","lat":34.939501,"lng":135.818867},{"code":"26109035001","name":"春日野醍醐合場町","lat":34.943053,"lng":135.811567},{"code":"26109035002","name":"春日野醍醐辰己町","lat":34.941659,"lng":135.813549},{"code":"26109035003","name":"春日野醍醐外山街道町","lat":34.939501,"lng":135.813922},{"code":"26109035004","name":"春日野醍醐東合場町","lat":34.941101,"lng":135.812068},{"code":"26109035005","name":"春日野日野西川頬","lat":34.938492,"lng":135.811016},{"code":"26109035006","name":"春日野石田大山町","lat":34.93796,"lng":135.80805},{"code":"26109035007","name":"春日野石田内里町","lat":34.939934,"lng":135.807504},{"code":"26109035008","name":"春日野石田森南町","lat":34.937927,"lng":135.804342},{"code":"26109035009","name":"春日野石田大受町","lat":34.941879,"lng":135.807564},{"code":"26109035010","name":"春日野石田森東町","lat":34.940476,"lng":135.805215},{"code":"26109035012","name":"春日野日野田中町","lat":34.939233,"lng":135.811863},{"code":"26109035013","name":"春日野醍醐構口町","lat":34.942526,"lng":135.812218}]}
