{"municipality":"26203","name":"綾部市","prefecture":"京都府","source":{"dataset":"frogcat/japan-small-area","census":"平成27年国勢調査 小地域（e-Stat 統計LOD）","license":"MIT（リポジトリ）／政府統計の総合窓口(e-Stat)の利用規約（元データ・出典表記必要）","fetched":"2026-07-06"},"towns":[{"code":"26203001001","name":"奥上林長野","lat":35.367955,"lng":135.431075},{"code":"26203001002","name":"奥上林志古田","lat":35.364103,"lng":135.433054},{"code":"26203001003","name":"奥上林山内","lat":35.372822,"lng":135.438435},{"code":"26203001004","name":"奥上林鳥垣","lat":35.367829,"lng":135.443314},{"code":"26203001005","name":"奥上林草壁","lat":35.368096,"lng":135.455986},{"code":"26203001006","name":"奥上林古屋","lat":35.357872,"lng":135.472656},{"code":"26203001007","name":"奥上林有安","lat":35.378386,"lng":135.445267},{"code":"26203001008","name":"奥上林川原","lat":35.383631,"lng":135.486547},{"code":"26203001009","name":"奥上林小仲","lat":35.392278,"lng":135.463062},{"code":"26203001010","name":"奥上林八代","lat":35.385739,"lng":135.471372},{"code":"26203001011","name":"奥上林古和木","lat":35.397722,"lng":135.48777},{"code":"26203001012","name":"奥上林光野町","lat":35.413077,"lng":135.466175},{"code":"26203001013","name":"奥上林栃","lat":35.4148,"lng":135.460029},{"code":"26203001014","name":"奥上林市茅野","lat":35.439423,"lng":135.482612},{"code":"26203001015","name":"奥上林大唐内","lat":35.436498,"lng":135.473333},{"code":"26203002001","name":"中上林第１区","lat":35.394193,"lng":135.416189},{"code":"26203002002","name":"中上林浅原","lat":35.343576,"lng":135.391311},{"code":"26203002003","name":"中上林真野","lat":35.351645,"lng":135.383554},{"code":"26203002004","name":"中上林小田","lat":35.35469,"lng":135.389248},{"code":"26203002005","name":"中上林引地","lat":35.357171,"lng":135.39297},{"code":"26203002006","name":"中上林西屋","lat":35.346025,"lng":135.407419},{"code":"26203002007","name":"中上林神谷","lat":35.359998,"lng":135.400315},{"code":"26203002008","name":"中上林寺町","lat":35.362523,"lng":135.402871},{"code":"26203002009","name":"中上林日置谷","lat":35.36426,"lng":135.406181},{"code":"26203002010","name":"中上林殿","lat":35.365162,"lng":135.408937},{"code":"26203002011","name":"中上林片山","lat":35.366915,"lng":135.413408},{"code":"26203002012","name":"中上林石橋","lat":35.358919,"lng":135.405173},{"code":"26203002013","name":"中上林馬場","lat":35.357654,"lng":135.408234},{"code":"26203002014","name":"中上林山田","lat":35.35612,"lng":135.411683},{"code":"26203002015","name":"中上林竹原","lat":35.361273,"lng":135.410643},{"code":"26203002016","name":"中上林瀬尾谷","lat":35.362827,"lng":135.415045},{"code":"26203002017","name":"中上林大町","lat":35.369725,"lng":135.421426},{"code":"26203002018","name":"中上林弓削","lat":35.362998,"lng":135.425923},{"code":"26203002019","name":"中上林遊里","lat":35.378007,"lng":135.419011},{"code":"26203002020","name":"中上林清水","lat":35.38776,"lng":135.416539},{"code":"26203002021","name":"中上林睦志","lat":35.395724,"lng":135.415641},{"code":"26203002022","name":"中上林辻","lat":35.400963,"lng":135.415705},{"code":"26203002023","name":"中上林水梨","lat":35.40863,"lng":135.415874},{"code":"26203002024","name":"中上林市之瀬","lat":35.406705,"lng":135.425354},{"code":"26203002025","name":"中上林市志","lat":35.413042,"lng":135.43861},{"code":"26203002026","name":"中上林寺町","lat":35.362377,"lng":135.402989},{"code":"26203003001","name":"口上林十倉志茂町","lat":35.325542,"lng":135.329892},{"code":"26203003002","name":"口上林十倉中町","lat":35.330022,"lng":135.337186},{"code":"26203003003","name":"口上林十倉名畑町","lat":35.336838,"lng":135.350546},{"code":"26203003004","name":"口上林十倉向町","lat":35.332447,"lng":135.348065},{"code":"26203003005","name":"口上林井根町","lat":35.345784,"lng":135.345894},{"code":"26203003006","name":"口上林武吉町","lat":35.324618,"lng":135.356001},{"code":"26203003007","name":"口上林佃町","lat":35.323503,"lng":135.367103},{"code":"26203003008","name":"口上林忠町","lat":35.335086,"lng":135.37601},{"code":"26203003009","name":"口上林十倉中町","lat":35.332328,"lng":135.338499},{"code":"26203003010","name":"口上林十倉名畑町","lat":35.338397,"lng":135.347769},{"code":"26203004001","name":"山家戸奈瀬町","lat":35.287209,"lng":135.33561},{"code":"26203004002","name":"山家釜輪町","lat":35.300682,"lng":135.345793},{"code":"26203004003","name":"山家広瀬町","lat":35.301463,"lng":135.321757},{"code":"26203004004","name":"山家橋上町","lat":35.312447,"lng":135.322167},{"code":"26203004005","name":"山家旭町","lat":35.316202,"lng":135.315411},{"code":"26203004006","name":"山家東山町","lat":35.301387,"lng":135.315322},{"code":"26203004007","name":"山家鷹栖町","lat":35.305045,"lng":135.303548},{"code":"26203004008","name":"山家西原町","lat":35.289687,"lng":135.287939},{"code":"26203004009","name":"山家和木町","lat":35.281486,"lng":135.289786},{"code":"26203004010","name":"山家下原町","lat":35.279055,"lng":135.305997},{"code":"26203004011","name":"山家上原町","lat":35.292401,"lng":135.322688},{"code":"26203004012","name":"山家下替地町","lat":35.28002,"lng":135.332349},{"code":"26203005001","name":"東八田中山","lat":35.331029,"lng":135.299774},{"code":"26203005002","name":"東八田安国寺","lat":35.339272,"lng":135.305267},{"code":"26203005003","name":"東八田鐘鋳場","lat":35.376339,"lng":135.301709},{"code":"26203005004","name":"東八田上町","lat":35.346691,"lng":135.308187},{"code":"26203005005","name":"東八田中町","lat":35.344666,"lng":135.307506},{"code":"26203005006","name":"東八田新町","lat":35.342625,"lng":135.309378},{"code":"26203005007","name":"東八田内谷","lat":35.344973,"lng":135.320118},{"code":"26203005008","name":"東八田高槻","lat":35.360566,"lng":135.305695},{"code":"26203005009","name":"東八田大石","lat":35.352235,"lng":135.306019},{"code":"26203005010","name":"東八田延近","lat":35.356453,"lng":135.313339},{"code":"26203005011","name":"東八田門","lat":35.357407,"lng":135.317832},{"code":"26203005012","name":"東八田久保","lat":35.356199,"lng":135.321552},{"code":"26203005013","name":"東八田施福寺","lat":35.356324,"lng":135.331741},{"code":"26203005014","name":"東八田小嶋","lat":35.360539,"lng":135.322066},{"code":"26203005015","name":"東八田鳥居野","lat":35.362834,"lng":135.317414},{"code":"26203005016","name":"東八田野瀬","lat":35.370019,"lng":135.321707},{"code":"26203005017","name":"東八田下村","lat":35.367322,"lng":135.342565},{"code":"26203005018","name":"東八田中川原","lat":35.375976,"lng":135.349384},{"code":"26203005019","name":"東八田大又","lat":35.382589,"lng":135.356423},{"code":"26203005020","name":"東八田見内","lat":35.375635,"lng":135.332807},{"code":"26203005021","name":"東八田黒谷","lat":35.380043,"lng":135.315246},{"code":"26203005022","name":"東八田八代","lat":35.383079,"lng":135.300786},{"code":"26203005023","name":"東八田愛宕","lat":35.350299,"lng":135.308255},{"code":"26203005024","name":"東八田大野","lat":35.345632,"lng":135.313615},{"code":"26203006001","name":"西八田上八田","lat":35.354221,"lng":135.275287},{"code":"26203006002","name":"西八田七百石","lat":35.356822,"lng":135.293666},{"code":"26203006003","name":"西八田中筋","lat":35.355529,"lng":135.284271},{"code":"26203006004","name":"西八田岡安","lat":35.33725,"lng":135.295244},{"code":"26203006005","name":"西八田渕垣","lat":35.318508,"lng":135.293912},{"code":"26203006006","name":"西八田下八田","lat":35.308157,"lng":135.285373},{"code":"26203006009","name":"西八田あやべ台","lat":35.317982,"lng":135.288736},{"code":"26203007101","name":"吉美桜が丘一丁目","lat":35.326738,"lng":135.285144},{"code":"26203007102","name":"吉美桜が丘二丁目","lat":35.317637,"lng":135.27844},{"code":"26203007201","name":"吉美有岡町","lat":35.335295,"lng":135.263824},{"code":"26203007202","name":"吉美里町","lat":35.312995,"lng":135.26212},{"code":"26203007203","name":"吉美多田町","lat":35.320597,"lng":135.270614},{"code":"26203007204","name":"吉美高倉町","lat":35.320679,"lng":135.275653},{"code":"26203007205","name":"吉美小呂町","lat":35.342422,"lng":135.27122},{"code":"26203007206","name":"吉美星原町","lat":35.337233,"lng":135.264731},{"code":"26203007207","name":"吉美工業団地","lat":35.327991,"lng":135.271907},{"code":"26203008001","name":"綾部東本町","lat":35.297749,"lng":135.258974},{"code":"26203008002","name":"綾部西本町","lat":35.297788,"lng":135.257537},{"code":"26203008003","name":"綾部南西町","lat":35.29853,"lng":135.256645},{"code":"26203008004","name":"綾部北西町","lat":35.301397,"lng":135.256526},{"code":"26203008005","name":"綾部広小路","lat":35.299352,"lng":135.255665},{"code":"26203008006","name":"綾部西新町","lat":35.300385,"lng":135.25318},{"code":"26203008007","name":"綾部新広小路","lat":35.299676,"lng":135.253286},{"code":"26203008008","name":"綾部駅前","lat":35.30112,"lng":135.252393},{"code":"26203008009","name":"綾部相生町","lat":35.300127,"lng":135.254701},{"code":"26203008010","name":"綾部幸通","lat":35.301339,"lng":135.25076},{"code":"26203008011","name":"綾部若松町","lat":35.299538,"lng":135.258305},{"code":"26203008012","name":"綾部上町","lat":35.297905,"lng":135.260233},{"code":"26203008013","name":"綾部並松町","lat":35.294933,"lng":135.262602},{"code":"26203008014","name":"綾部川糸町","lat":35.299839,"lng":135.263054},{"code":"26203008015","name":"綾部新宮町","lat":35.294948,"lng":135.259844},{"code":"26203008016","name":"綾部上野町","lat":35.292099,"lng":135.257501},{"code":"26203008017","name":"綾部新町","lat":35.296236,"lng":135.258685},{"code":"26203008018","name":"綾部田町","lat":35.296617,"lng":135.256766},{"code":"26203008019","name":"綾部月見町","lat":35.296971,"lng":135.255138},{"code":"26203008020","name":"綾部中ノ町","lat":35.29896,"lng":135.25417},{"code":"26203008021","name":"綾部天神町","lat":35.301168,"lng":135.254894},{"code":"26203008022","name":"綾部本町四丁目","lat":35.297986,"lng":135.255308},{"code":"26203008023","name":"綾部本町五丁目","lat":35.29858,"lng":135.253379},{"code":"26203008024","name":"綾部本町七丁目","lat":35.299806,"lng":135.250894},{"code":"26203008025","name":"綾部本町八丁目","lat":35.301544,"lng":135.249399},{"code":"26203008026","name":"綾部東神宮寺","lat":35.296734,"lng":135.25379},{"code":"26203008027","name":"綾部西神宮寺","lat":35.299701,"lng":135.247081},{"code":"26203008028","name":"綾部井倉町","lat":35.305738,"lng":135.2468},{"code":"26203008029","name":"綾部宮代町","lat":35.301972,"lng":135.244428},{"code":"26203008030","name":"綾部青野町","lat":35.306298,"lng":135.260028},{"code":"26203008031","name":"綾部綾中町","lat":35.301344,"lng":135.258955},{"code":"26203008032","name":"綾部味方町","lat":35.299319,"lng":135.273374},{"code":"26203008033","name":"綾部野田町","lat":35.280921,"lng":135.25805},{"code":"26203008034","name":"綾部寺町東","lat":35.290582,"lng":135.26397},{"code":"26203008035","name":"綾部田野町","lat":35.284013,"lng":135.249259},{"code":"26203008037","name":"綾部明知町","lat":35.300285,"lng":135.244382},{"code":"26203008038","name":"綾部中神宮寺","lat":35.29845,"lng":135.250399},{"code":"26203008039","name":"綾部寺町西","lat":35.28917,"lng":135.260041},{"code":"26203008041","name":"綾部紫水ヶ丘","lat":35.300357,"lng":135.271874},{"code":"26203008042","name":"綾部西町団地","lat":35.302578,"lng":135.255046},{"code":"26203008043","name":"綾部弥生団地","lat":35.305818,"lng":135.251684},{"code":"26203008059","name":"綾部井倉新町団地","lat":35.305356,"lng":135.250318},{"code":"26203008060","name":"綾部味方町","lat":35.293388,"lng":135.266665},{"code":"26203008061","name":"綾部井倉町","lat":35.304729,"lng":135.249211},{"code":"26203008062","name":"綾部青野町","lat":35.30433,"lng":135.255784},{"code":"26203008063","name":"綾部青野町","lat":35.305602,"lng":135.25616},{"code":"26203008064","name":"綾部青野町","lat":35.306961,"lng":135.254844},{"code":"26203008065","name":"綾部上野町","lat":35.292587,"lng":135.258549},{"code":"26203008066","name":"綾部上野町","lat":35.29215,"lng":135.261127},{"code":"26203009001","name":"中筋岡町","lat":35.302262,"lng":135.238681},{"code":"26203009002","name":"中筋延町","lat":35.30698,"lng":135.236726},{"code":"26203009003","name":"中筋上延町","lat":35.297205,"lng":135.23526},{"code":"26203009005","name":"中筋高津町","lat":35.289816,"lng":135.219733},{"code":"26203009006","name":"中筋安場町","lat":35.281994,"lng":135.238663},{"code":"26203009007","name":"中筋鳥ヶ坪","lat":35.302557,"lng":135.234742},{"code":"26203009008","name":"中筋夕陽ヶ丘","lat":35.29877,"lng":135.239554},{"code":"26203009009","name":"中筋大島町東","lat":35.304597,"lng":135.230966},{"code":"26203009010","name":"中筋大島町中","lat":35.303338,"lng":135.22679},{"code":"26203009011","name":"中筋大島町西","lat":35.303925,"lng":135.220794},{"code":"26203009012","name":"中筋高津町","lat":35.303941,"lng":135.217062},{"code":"26203009013","name":"中筋高津町","lat":35.304389,"lng":135.217577},{"code":"26203010001","name":"豊里上位田","lat":35.313873,"lng":135.251294},{"code":"26203010002","name":"豊里中位田","lat":35.313547,"lng":135.244949},{"code":"26203010003","name":"豊里下位田","lat":35.313979,"lng":135.234688},{"code":"26203010004","name":"豊里岡倉","lat":35.325702,"lng":135.233086},{"code":"26203010005","name":"豊里栗上","lat":35.313578,"lng":135.225634},{"code":"26203010006","name":"豊里栗橋","lat":35.311585,"lng":135.225469},{"code":"26203010007","name":"豊里栗町","lat":35.311668,"lng":135.216286},{"code":"26203010008","name":"豊里栗揚","lat":35.318063,"lng":135.219226},{"code":"26203010009","name":"豊里豊里","lat":35.33288,"lng":135.214243},{"code":"26203010010","name":"豊里舘","lat":35.326593,"lng":135.21572},{"code":"26203010011","name":"豊里今田","lat":35.333471,"lng":135.212362},{"code":"26203010012","name":"豊里大畠","lat":35.3312,"lng":135.223969},{"code":"26203010013","name":"豊里小西","lat":35.329606,"lng":135.203936},{"code":"26203010014","name":"豊里鍛治屋","lat":35.342046,"lng":135.203906},{"code":"26203010015","name":"豊里中","lat":35.344874,"lng":135.194832},{"code":"26203010016","name":"豊里日向","lat":35.349708,"lng":135.196465},{"code":"26203010017","name":"豊里本城奥","lat":35.346785,"lng":135.186489},{"code":"26203010018","name":"豊里小貝","lat":35.309619,"lng":135.206041},{"code":"26203010019","name":"豊里湯殿","lat":35.310189,"lng":135.19841},{"code":"26203010020","name":"豊里石原","lat":35.315723,"lng":135.207692},{"code":"26203010021","name":"豊里私市東","lat":35.314067,"lng":135.201046},{"code":"26203010022","name":"豊里私市","lat":35.31388,"lng":135.190633},{"code":"26203010023","name":"豊里旭ヶ丘","lat":35.315232,"lng":135.232771},{"code":"26203010024","name":"豊里高谷","lat":35.331936,"lng":135.217005},{"code":"26203010025","name":"豊里鍛治屋","lat":35.34402,"lng":135.205348},{"code":"26203010026","name":"豊里舘","lat":35.32707,"lng":135.214487},{"code":"26203011001","name":"物部下市","lat":35.363421,"lng":135.206227},{"code":"26203011002","name":"物部上市","lat":35.360189,"lng":135.220618},{"code":"26203011003","name":"物部須波岐","lat":35.348745,"lng":135.226305},{"code":"26203011004","name":"物部岸田","lat":35.357243,"lng":135.231496},{"code":"26203011005","name":"物部新庄","lat":35.346581,"lng":135.230749},{"code":"26203011006","name":"物部西坂","lat":35.3656,"lng":135.196824},{"code":"26203011007","name":"物部白道路","lat":35.352387,"lng":135.245886},{"code":"26203012001","name":"志賀郷志賀郷","lat":35.380878,"lng":135.247301},{"code":"26203012002","name":"志賀郷志賀町","lat":35.361357,"lng":135.237709},{"code":"26203012003","name":"志賀郷向田","lat":35.3635,"lng":135.248959},{"code":"26203012004","name":"志賀郷篠田","lat":35.369717,"lng":135.272532},{"code":"26203012005","name":"志賀郷別所","lat":35.371382,"lng":135.262048},{"code":"26203012006","name":"志賀郷内久井","lat":35.38767,"lng":135.259146},{"code":"26203012007","name":"志賀郷金河内","lat":35.386485,"lng":135.249566},{"code":"26203012008","name":"志賀郷坊口","lat":35.386969,"lng":135.239221},{"code":"26203012009","name":"志賀郷仁和","lat":35.379826,"lng":135.237206},{"code":"26203012010","name":"志賀郷西方","lat":35.379863,"lng":135.221015}]}
