{"municipality":"26465","name":"与謝郡与謝野町","prefecture":"京都府","source":{"dataset":"frogcat/japan-small-area","census":"平成27年国勢調査 小地域（e-Stat 統計LOD）","license":"MIT（リポジトリ）／政府統計の総合窓口(e-Stat)の利用規約（元データ・出典表記必要）","fetched":"2026-07-06"},"towns":[{"code":"26465001001","name":"字弓木石田","lat":35.555868,"lng":135.13535},{"code":"26465001002","name":"字弓木弓木","lat":35.56335,"lng":135.141532},{"code":"26465001004","name":"字弓木浜町","lat":35.557708,"lng":135.155002},{"code":"26465002002","name":"字岩滝弓木","lat":35.561213,"lng":135.149383},{"code":"26465002003","name":"字岩滝立町","lat":35.564417,"lng":135.149892},{"code":"26465002004","name":"字岩滝浜町","lat":35.561658,"lng":135.154948},{"code":"26465002005","name":"字岩滝薮後","lat":35.569124,"lng":135.142807},{"code":"26465002006","name":"字岩滝東町","lat":35.573331,"lng":135.149653},{"code":"26465002007","name":"字岩滝男山","lat":35.572248,"lng":135.157749},{"code":"264650030","name":"字男山","lat":35.587179,"lng":135.165676},{"code":"264650040","name":"字弓木","lat":35.565406,"lng":135.144779},{"code":"264650050","name":"字三河内","lat":35.518011,"lng":135.088334},{"code":"264650060","name":"字岩屋","lat":35.525415,"lng":135.060583},{"code":"264650070","name":"字幾地","lat":35.534892,"lng":135.08956},{"code":"264650080","name":"字四辻","lat":35.532917,"lng":135.100364},{"code":"264650090","name":"字上山田","lat":35.540673,"lng":135.108456},{"code":"264650100","name":"字下山田","lat":35.54557,"lng":135.124341},{"code":"264650110","name":"字石川","lat":35.525692,"lng":135.139099},{"code":"26465012001","name":"加悦加悦奥","lat":35.50136,"lng":135.06387},{"code":"26465012002","name":"加悦算所","lat":35.509629,"lng":135.096528},{"code":"26465012003","name":"加悦加悦","lat":35.503955,"lng":135.095922},{"code":"26465012004","name":"加悦宇後野","lat":35.495872,"lng":135.097192},{"code":"26465013001","name":"桑飼明石","lat":35.512423,"lng":135.112001},{"code":"26465013002","name":"桑飼香河","lat":35.50306,"lng":135.136434},{"code":"26465013003","name":"桑飼温江","lat":35.491047,"lng":135.120186},{"code":"26465014001","name":"与謝金屋","lat":35.487359,"lng":135.094972},{"code":"26465014002","name":"与謝滝（奥滝）","lat":35.473637,"lng":135.056163},{"code":"26465014003","name":"与謝滝（口滝）","lat":35.475986,"lng":135.100172},{"code":"26465014004","name":"与謝与謝","lat":35.458327,"lng":135.084525}]}
