{"municipality":"27102","name":"大阪市都島区","prefecture":"大阪府","source":{"dataset":"frogcat/japan-small-area","census":"平成27年国勢調査 小地域（e-Stat 統計LOD）","license":"MIT（リポジトリ）／政府統計の総合窓口(e-Stat)の利用規約（元データ・出典表記必要）","fetched":"2026-07-06"},"towns":[{"code":"27102001001","name":"片町１丁目","lat":34.69252,"lng":135.524924},{"code":"27102001002","name":"片町２丁目","lat":34.695162,"lng":135.531167},{"code":"271020020","name":"網島町","lat":34.694878,"lng":135.524074},{"code":"27102003001","name":"東野田町１丁目","lat":34.696307,"lng":135.528316},{"code":"27102003002","name":"東野田町２丁目","lat":34.697517,"lng":135.531688},{"code":"27102003003","name":"東野田町３丁目","lat":34.698091,"lng":135.534755},{"code":"27102003004","name":"東野田町４丁目","lat":34.6993,"lng":135.529464},{"code":"27102003005","name":"東野田町５丁目","lat":34.700328,"lng":135.534837},{"code":"27102004001","name":"中野町１丁目","lat":34.699494,"lng":135.523582},{"code":"27102004002","name":"中野町２丁目","lat":34.700361,"lng":135.526406},{"code":"27102004003","name":"中野町３丁目","lat":34.702802,"lng":135.525577},{"code":"27102004004","name":"中野町４丁目","lat":34.70318,"lng":135.521667},{"code":"27102004005","name":"中野町５丁目","lat":34.70644,"lng":135.520926},{"code":"27102005001","name":"都島南通１丁目","lat":34.704084,"lng":135.52693},{"code":"27102005002","name":"都島南通２丁目","lat":34.701718,"lng":135.532267},{"code":"27102006001","name":"都島中通１丁目","lat":34.70508,"lng":135.528788},{"code":"27102006002","name":"都島中通２丁目","lat":34.704379,"lng":135.532254},{"code":"27102006003","name":"都島中通３丁目","lat":34.703981,"lng":135.535271},{"code":"27102007001","name":"都島本通１丁目","lat":34.709443,"lng":135.521884},{"code":"27102007002","name":"都島本通２丁目","lat":34.707504,"lng":135.524811},{"code":"27102007003","name":"都島本通３丁目","lat":34.707532,"lng":135.528282},{"code":"27102007004","name":"都島本通４丁目","lat":34.707284,"lng":135.532407},{"code":"27102007005","name":"都島本通５丁目","lat":34.707024,"lng":135.535211},{"code":"27102008001","name":"都島北通１丁目","lat":34.710395,"lng":135.528886},{"code":"27102008002","name":"都島北通２丁目","lat":34.71035,"lng":135.532703},{"code":"27102009001","name":"善源寺町１丁目","lat":34.710894,"lng":135.524039},{"code":"27102009002","name":"善源寺町２丁目","lat":34.712486,"lng":135.525154},{"code":"27102010001","name":"高倉町１丁目","lat":34.713387,"lng":135.530955},{"code":"27102010002","name":"高倉町２丁目","lat":34.716247,"lng":135.531663},{"code":"27102010003","name":"高倉町３丁目","lat":34.71924,"lng":135.532292},{"code":"27102011001","name":"御幸町１丁目","lat":34.713318,"lng":135.53376},{"code":"27102011002","name":"御幸町２丁目","lat":34.716329,"lng":135.534092},{"code":"27102012001","name":"内代町１丁目","lat":34.709624,"lng":135.536692},{"code":"27102012002","name":"内代町２丁目","lat":34.711687,"lng":135.537651},{"code":"27102012003","name":"内代町３丁目","lat":34.713549,"lng":135.53682},{"code":"27102012004","name":"内代町４丁目","lat":34.715548,"lng":135.536193},{"code":"27102013001","name":"友渕町１丁目","lat":34.716978,"lng":135.525806},{"code":"27102013002","name":"友渕町２丁目","lat":34.714591,"lng":135.528943},{"code":"27102013003","name":"友渕町３丁目","lat":34.720215,"lng":135.52967},{"code":"27102014001","name":"大東町１丁目","lat":34.722821,"lng":135.529643},{"code":"27102014002","name":"大東町２丁目","lat":34.724534,"lng":135.527548},{"code":"27102014003","name":"大東町３丁目","lat":34.728542,"lng":135.526462},{"code":"27102015001","name":"毛馬町１丁目","lat":34.718938,"lng":135.521005},{"code":"27102015002","name":"毛馬町２丁目","lat":34.722228,"lng":135.524363},{"code":"27102015003","name":"毛馬町３丁目","lat":34.721228,"lng":135.518098},{"code":"27102015004","name":"毛馬町４丁目","lat":34.724032,"lng":135.519667},{"code":"27102015005","name":"毛馬町５丁目","lat":34.727044,"lng":135.523439}]}
