{"municipality":"27115","name":"大阪市東成区","prefecture":"大阪府","source":{"dataset":"frogcat/japan-small-area","census":"平成27年国勢調査 小地域（e-Stat 統計LOD）","license":"MIT（リポジトリ）／政府統計の総合窓口(e-Stat)の利用規約（元データ・出典表記必要）","fetched":"2026-07-06"},"towns":[{"code":"27115001001","name":"中道１丁目","lat":34.679792,"lng":135.53564},{"code":"27115001002","name":"中道２丁目","lat":34.679566,"lng":135.538616},{"code":"27115001003","name":"中道３丁目","lat":34.676044,"lng":135.535072},{"code":"27115001004","name":"中道４丁目","lat":34.675569,"lng":135.537653},{"code":"27115002001","name":"東小橋１丁目","lat":34.672488,"lng":135.534356},{"code":"27115002002","name":"東小橋２丁目","lat":34.66949,"lng":135.533447},{"code":"27115002003","name":"東小橋３丁目","lat":34.666871,"lng":135.532648},{"code":"27115003001","name":"玉津１丁目","lat":34.67236,"lng":135.537655},{"code":"27115003002","name":"玉津２丁目","lat":34.668733,"lng":135.536876},{"code":"27115003003","name":"玉津３丁目","lat":34.666375,"lng":135.537124},{"code":"27115004001","name":"中本１丁目","lat":34.681827,"lng":135.542194},{"code":"27115004002","name":"中本２丁目","lat":34.680009,"lng":135.541647},{"code":"27115004003","name":"中本３丁目","lat":34.678865,"lng":135.542807},{"code":"27115004004","name":"中本４丁目","lat":34.676264,"lng":135.539766},{"code":"27115004005","name":"中本５丁目","lat":34.676176,"lng":135.542426},{"code":"27115005001","name":"大今里西１丁目","lat":34.672294,"lng":135.541684},{"code":"27115005002","name":"大今里西２丁目","lat":34.669684,"lng":135.540336},{"code":"27115005003","name":"大今里西３丁目","lat":34.667008,"lng":135.541064},{"code":"27115006001","name":"東中本１丁目","lat":34.681002,"lng":135.547081},{"code":"27115006002","name":"東中本２丁目","lat":34.679008,"lng":135.546706},{"code":"27115006003","name":"東中本３丁目","lat":34.675956,"lng":135.54624},{"code":"27115007001","name":"東今里１丁目","lat":34.680429,"lng":135.55153},{"code":"27115007002","name":"東今里２丁目","lat":34.678473,"lng":135.551191},{"code":"27115007003","name":"東今里３丁目","lat":34.675616,"lng":135.550594},{"code":"27115008001","name":"大今里１丁目","lat":34.672761,"lng":135.545922},{"code":"27115008002","name":"大今里２丁目","lat":34.672263,"lng":135.55012},{"code":"27115008003","name":"大今里３丁目","lat":34.669733,"lng":135.545434},{"code":"27115008004","name":"大今里４丁目","lat":34.6692,"lng":135.549536},{"code":"27115009001","name":"大今里南１丁目","lat":34.666958,"lng":135.544193},{"code":"27115009002","name":"大今里南２丁目","lat":34.666406,"lng":135.547231},{"code":"27115009003","name":"大今里南３丁目","lat":34.66643,"lng":135.549962},{"code":"27115009004","name":"大今里南４丁目","lat":34.666302,"lng":135.552171},{"code":"27115009005","name":"大今里南５丁目","lat":34.666462,"lng":135.554074},{"code":"27115009006","name":"大今里南６丁目","lat":34.666301,"lng":135.556123},{"code":"27115010001","name":"神路１丁目","lat":34.678389,"lng":135.554519},{"code":"27115010002","name":"神路２丁目","lat":34.675032,"lng":135.554018},{"code":"27115010003","name":"神路３丁目","lat":34.671893,"lng":135.553522},{"code":"27115010004","name":"神路４丁目","lat":34.669095,"lng":135.553097},{"code":"27115011001","name":"深江北１丁目","lat":34.676393,"lng":135.556681},{"code":"27115011002","name":"深江北２丁目","lat":34.676106,"lng":135.558844},{"code":"27115011003","name":"深江北３丁目","lat":34.675948,"lng":135.561415},{"code":"27115012001","name":"深江南１丁目","lat":34.670842,"lng":135.556003},{"code":"27115012002","name":"深江南２丁目","lat":34.670665,"lng":135.558403},{"code":"27115012003","name":"深江南３丁目","lat":34.67057,"lng":135.560803}]}
