{"municipality":"27125","name":"大阪市住之江区","prefecture":"大阪府","source":{"dataset":"frogcat/japan-small-area","census":"平成27年国勢調査 小地域（e-Stat 統計LOD）","license":"MIT（リポジトリ）／政府統計の総合窓口(e-Stat)の利用規約（元データ・出典表記必要）","fetched":"2026-07-06"},"towns":[{"code":"27125001001","name":"粉浜１丁目","lat":34.621011,"lng":135.491029},{"code":"27125001002","name":"粉浜２丁目","lat":34.617711,"lng":135.489866},{"code":"27125001003","name":"粉浜３丁目","lat":34.615158,"lng":135.489132},{"code":"27125002001","name":"粉浜西１丁目","lat":34.621412,"lng":135.488158},{"code":"27125002002","name":"粉浜西２丁目","lat":34.618547,"lng":135.487108},{"code":"27125002003","name":"粉浜西３丁目","lat":34.6156,"lng":135.486102},{"code":"27125003001","name":"安立１丁目","lat":34.608409,"lng":135.489787},{"code":"27125003002","name":"安立２丁目","lat":34.605146,"lng":135.489257},{"code":"27125003003","name":"安立３丁目","lat":34.602239,"lng":135.488449},{"code":"27125003004","name":"安立４丁目","lat":34.59859,"lng":135.487094},{"code":"27125004001","name":"浜口東１丁目","lat":34.612384,"lng":135.488545},{"code":"27125004002","name":"浜口東２丁目","lat":34.610135,"lng":135.487772},{"code":"27125004003","name":"浜口東３丁目","lat":34.608338,"lng":135.487064},{"code":"27125005001","name":"浜口西１丁目","lat":34.612696,"lng":135.485357},{"code":"27125005002","name":"浜口西２丁目","lat":34.61037,"lng":135.484665},{"code":"27125005003","name":"浜口西３丁目","lat":34.606801,"lng":135.483819},{"code":"27125006001","name":"住之江１丁目","lat":34.605361,"lng":135.487987},{"code":"27125006002","name":"住之江２丁目","lat":34.6026,"lng":135.486863},{"code":"27125006003","name":"住之江３丁目","lat":34.599034,"lng":135.485514},{"code":"27125007001","name":"西住之江１丁目","lat":34.606065,"lng":135.486102},{"code":"27125007002","name":"西住之江２丁目","lat":34.603251,"lng":135.484635},{"code":"27125007003","name":"西住之江３丁目","lat":34.600579,"lng":135.483495},{"code":"27125007004","name":"西住之江４丁目","lat":34.598304,"lng":135.482639},{"code":"27125008001","name":"御崎１丁目","lat":34.611786,"lng":135.482033},{"code":"27125008002","name":"御崎２丁目","lat":34.612225,"lng":135.478936},{"code":"27125008003","name":"御崎３丁目","lat":34.609811,"lng":135.481658},{"code":"27125008004","name":"御崎４丁目","lat":34.609967,"lng":135.478353},{"code":"27125008005","name":"御崎５丁目","lat":34.607533,"lng":135.481538},{"code":"27125008006","name":"御崎６丁目","lat":34.607657,"lng":135.4781},{"code":"27125008007","name":"御崎７丁目","lat":34.604313,"lng":135.48111},{"code":"27125008008","name":"御崎８丁目","lat":34.605515,"lng":135.47774},{"code":"27125009001","name":"北加賀屋１丁目","lat":34.62349,"lng":135.480598},{"code":"27125009002","name":"北加賀屋２丁目","lat":34.622421,"lng":135.47827},{"code":"27125009003","name":"北加賀屋３丁目","lat":34.625217,"lng":135.476788},{"code":"27125009004","name":"北加賀屋４丁目","lat":34.62593,"lng":135.472475},{"code":"27125009005","name":"北加賀屋５丁目","lat":34.622578,"lng":135.47311},{"code":"27125010001","name":"東加賀屋１丁目","lat":34.620452,"lng":135.484346},{"code":"27125010002","name":"東加賀屋２丁目","lat":34.6176,"lng":135.483486},{"code":"27125010003","name":"東加賀屋３丁目","lat":34.615513,"lng":135.482994},{"code":"27125010004","name":"東加賀屋４丁目","lat":34.61375,"lng":135.482507},{"code":"27125011001","name":"中加賀屋１丁目","lat":34.620346,"lng":135.480718},{"code":"27125011002","name":"中加賀屋２丁目","lat":34.618098,"lng":135.480314},{"code":"27125011003","name":"中加賀屋３丁目","lat":34.616039,"lng":135.479885},{"code":"27125011004","name":"中加賀屋４丁目","lat":34.614151,"lng":135.479457},{"code":"27125012001","name":"西加賀屋１丁目","lat":34.62031,"lng":135.477556},{"code":"27125012002","name":"西加賀屋２丁目","lat":34.618657,"lng":135.476842},{"code":"27125012003","name":"西加賀屋３丁目","lat":34.616687,"lng":135.476117},{"code":"27125012004","name":"西加賀屋４丁目","lat":34.614914,"lng":135.475842},{"code":"27125013001","name":"南加賀屋１丁目","lat":34.611576,"lng":135.47513},{"code":"27125013002","name":"南加賀屋２丁目","lat":34.607848,"lng":135.47461},{"code":"27125013003","name":"南加賀屋３丁目","lat":34.605742,"lng":135.474287},{"code":"27125013004","name":"南加賀屋４丁目","lat":34.602358,"lng":135.474138},{"code":"27125014001","name":"緑木１丁目","lat":34.618581,"lng":135.472237},{"code":"27125014002","name":"緑木２丁目","lat":34.615387,"lng":135.471711},{"code":"27125015001","name":"柴谷１丁目","lat":34.622806,"lng":135.466154},{"code":"27125015002","name":"柴谷２丁目","lat":34.617721,"lng":135.465996},{"code":"27125016001","name":"泉１丁目","lat":34.612024,"lng":135.469817},{"code":"27125016002","name":"泉２丁目","lat":34.612764,"lng":135.463686},{"code":"27125017001","name":"北島１丁目","lat":34.600754,"lng":135.480603},{"code":"27125017002","name":"北島２丁目","lat":34.60339,"lng":135.477401},{"code":"27125017003","name":"北島３丁目","lat":34.60041,"lng":135.477988},{"code":"27125018001","name":"新北島１丁目","lat":34.606952,"lng":135.471532},{"code":"27125018002","name":"新北島２丁目","lat":34.603212,"lng":135.470795},{"code":"27125018003","name":"新北島３丁目","lat":34.607611,"lng":135.467989},{"code":"27125018004","name":"新北島４丁目","lat":34.604344,"lng":135.466831},{"code":"27125018005","name":"新北島５丁目","lat":34.608458,"lng":135.464363},{"code":"27125018006","name":"新北島６丁目","lat":34.605436,"lng":135.463087},{"code":"27125018007","name":"新北島７丁目","lat":34.609086,"lng":135.461359},{"code":"27125018008","name":"新北島８丁目","lat":34.606371,"lng":135.460129},{"code":"27125019001","name":"平林北１丁目","lat":34.622437,"lng":135.455664},{"code":"27125019002","name":"平林北２丁目","lat":34.619166,"lng":135.455052},{"code":"27125020001","name":"平林南１丁目","lat":34.614272,"lng":135.454359},{"code":"27125020002","name":"平林南２丁目","lat":34.609495,"lng":135.45275},{"code":"27125021001","name":"南港北１丁目","lat":34.639988,"lng":135.418447},{"code":"27125021002","name":"南港北２丁目","lat":34.638177,"lng":135.407296},{"code":"27125021003","name":"南港北３丁目","lat":34.634448,"lng":135.402182},{"code":"27125022001","name":"南港東１丁目","lat":34.613781,"lng":135.445174},{"code":"27125022002","name":"南港東２丁目","lat":34.613796,"lng":135.440259},{"code":"27125022003","name":"南港東３丁目","lat":34.617299,"lng":135.440549},{"code":"27125022004","name":"南港東４丁目","lat":34.621797,"lng":135.438021},{"code":"27125022005","name":"南港東５丁目","lat":34.627291,"lng":135.435615},{"code":"27125022006","name":"南港東６丁目","lat":34.635111,"lng":135.438455},{"code":"27125022007","name":"南港東７丁目","lat":34.634072,"lng":135.435711},{"code":"27125022008","name":"南港東８丁目","lat":34.633075,"lng":135.431998},{"code":"27125022009","name":"南港東９丁目","lat":34.640953,"lng":135.430667},{"code":"27125023001","name":"南港中１丁目","lat":34.62483,"lng":135.426898},{"code":"27125023002","name":"南港中２丁目","lat":34.629397,"lng":135.428529},{"code":"27125023003","name":"南港中３丁目","lat":34.628845,"lng":135.423566},{"code":"27125023004","name":"南港中４丁目","lat":34.634171,"lng":135.425855},{"code":"27125023005","name":"南港中５丁目","lat":34.633959,"lng":135.420461},{"code":"27125023006","name":"南港中６丁目","lat":34.631105,"lng":135.416154},{"code":"27125023007","name":"南港中７丁目","lat":34.627276,"lng":135.417285},{"code":"27125023008","name":"南港中８丁目","lat":34.629816,"lng":135.411438},{"code":"27125024001","name":"南港南１丁目","lat":34.611243,"lng":135.43536},{"code":"27125024002","name":"南港南２丁目","lat":34.616694,"lng":135.433681},{"code":"27125024003","name":"南港南３丁目","lat":34.614111,"lng":135.426137},{"code":"27125024004","name":"南港南４丁目","lat":34.61353,"lng":135.414883},{"code":"27125024005","name":"南港南５丁目","lat":34.616606,"lng":135.416188},{"code":"27125024006","name":"南港南６丁目","lat":34.613486,"lng":135.406869},{"code":"27125024007","name":"南港南７丁目","lat":34.617563,"lng":135.405931}]}
