{"municipality":"27211","name":"茨木市","prefecture":"大阪府","source":{"dataset":"frogcat/japan-small-area","census":"平成27年国勢調査 小地域（e-Stat 統計LOD）","license":"MIT（リポジトリ）／政府統計の総合窓口(e-Stat)の利用規約（元データ・出典表記必要）","fetched":"2026-07-06"},"towns":[{"code":"272110010","name":"大字安威","lat":34.862421,"lng":135.564478},{"code":"27211002001","name":"安威一丁目","lat":34.84686,"lng":135.563835},{"code":"27211002002","name":"安威二丁目","lat":34.849685,"lng":135.563706},{"code":"27211002003","name":"安威三丁目","lat":34.853132,"lng":135.564463},{"code":"27211002004","name":"安威四丁目","lat":34.856504,"lng":135.564273},{"code":"272110030","name":"大字粟生岩阪","lat":34.865245,"lng":135.519726},{"code":"27211004001","name":"鮎川一丁目","lat":34.817255,"lng":135.592712},{"code":"27211004002","name":"鮎川二丁目","lat":34.820253,"lng":135.591832},{"code":"27211004003","name":"鮎川三丁目","lat":34.819735,"lng":135.596382},{"code":"27211004004","name":"鮎川四丁目","lat":34.816868,"lng":135.595818},{"code":"27211004005","name":"鮎川五丁目","lat":34.813813,"lng":135.596875},{"code":"272110050","name":"主原町","lat":34.810567,"lng":135.572514},{"code":"272110060","name":"五十鈴町","lat":34.813426,"lng":135.587987},{"code":"272110070","name":"大字泉原","lat":34.886373,"lng":135.515034},{"code":"27211008001","name":"五日市一丁目","lat":34.832632,"lng":135.567576},{"code":"27211008002","name":"五日市二丁目","lat":34.832648,"lng":135.563505},{"code":"272110090","name":"五日市緑町","lat":34.830441,"lng":135.561763},{"code":"272110100","name":"稲葉町","lat":34.811557,"lng":135.575256},{"code":"272110110","name":"岩倉町","lat":34.810229,"lng":135.561339},{"code":"272110120","name":"上野町","lat":34.835754,"lng":135.56047},{"code":"27211013001","name":"丑寅一丁目","lat":34.799638,"lng":135.559313},{"code":"27211013002","name":"丑寅二丁目","lat":34.796303,"lng":135.559246},{"code":"27211014001","name":"宇野辺一丁目","lat":34.806416,"lng":135.556281},{"code":"27211014002","name":"宇野辺二丁目","lat":34.802656,"lng":135.555195},{"code":"272110150","name":"永代町","lat":34.817607,"lng":135.575838},{"code":"27211016001","name":"駅前一丁目","lat":34.815842,"lng":135.564287},{"code":"27211016002","name":"駅前二丁目","lat":34.817826,"lng":135.565186},{"code":"27211016003","name":"駅前三丁目","lat":34.815959,"lng":135.567915},{"code":"27211016004","name":"駅前四丁目","lat":34.817986,"lng":135.56793},{"code":"27211017001","name":"大池一丁目","lat":34.811242,"lng":135.578948},{"code":"27211017002","name":"大池二丁目","lat":34.810776,"lng":135.582589},{"code":"272110180","name":"大字大岩","lat":34.880555,"lng":135.545409},{"code":"272110190","name":"大住町","lat":34.823522,"lng":135.575761},{"code":"27211020001","name":"太田一丁目","lat":34.840102,"lng":135.573922},{"code":"27211020002","name":"太田二丁目","lat":34.842427,"lng":135.573929},{"code":"27211020003","name":"太田三丁目","lat":34.844204,"lng":135.577905},{"code":"272110210","name":"太田東芝町","lat":34.83953,"lng":135.57742},{"code":"272110220","name":"大手町","lat":34.815939,"lng":135.571479},{"code":"272110230","name":"小川町","lat":34.809716,"lng":135.569062},{"code":"27211024001","name":"春日一丁目","lat":34.818542,"lng":135.562986},{"code":"27211024002","name":"春日二丁目","lat":34.818321,"lng":135.560095},{"code":"27211024003","name":"春日三丁目","lat":34.821153,"lng":135.563885},{"code":"27211024004","name":"春日四丁目","lat":34.823121,"lng":135.566343},{"code":"27211024005","name":"春日五丁目","lat":34.824306,"lng":135.563259},{"code":"272110250","name":"片桐町","lat":34.82044,"lng":135.571483},{"code":"272110260","name":"上泉町","lat":34.823418,"lng":135.572362},{"code":"272110270","name":"大字上音羽","lat":34.902932,"lng":135.522223},{"code":"27211028001","name":"上郡一丁目","lat":34.83458,"lng":135.558037},{"code":"27211028002","name":"上郡二丁目","lat":34.837596,"lng":135.556063},{"code":"27211029001","name":"上中条一丁目","lat":34.820027,"lng":135.567868},{"code":"27211029002","name":"上中条二丁目","lat":34.822488,"lng":135.569451},{"code":"272110300","name":"大字上穂積","lat":34.827065,"lng":135.541922},{"code":"27211031001","name":"上穂積一丁目","lat":34.821117,"lng":135.558253},{"code":"27211031002","name":"上穂積二丁目","lat":34.823933,"lng":135.559117},{"code":"27211031003","name":"上穂積三丁目","lat":34.823992,"lng":135.555969},{"code":"27211031004","name":"上穂積四丁目","lat":34.828067,"lng":135.559273},{"code":"272110320","name":"上穂東町","lat":34.822211,"lng":135.560817},{"code":"272110330","name":"学園町","lat":34.817279,"lng":135.589538},{"code":"272110340","name":"学園南町","lat":34.814184,"lng":135.591454},{"code":"27211035001","name":"北春日丘一丁目","lat":34.819804,"lng":135.548415},{"code":"27211035002","name":"北春日丘二丁目","lat":34.82075,"lng":135.543317},{"code":"27211035003","name":"北春日丘三丁目","lat":34.820014,"lng":135.539006},{"code":"27211035004","name":"北春日丘四丁目","lat":34.821229,"lng":135.533582},{"code":"272110360","name":"大字清阪","lat":34.912696,"lng":135.562608},{"code":"27211037001","name":"蔵垣内一丁目","lat":34.798772,"lng":135.556411},{"code":"27211037002","name":"蔵垣内二丁目","lat":34.795527,"lng":135.555609},{"code":"27211037003","name":"蔵垣内三丁目","lat":34.793341,"lng":135.556164},{"code":"272110380","name":"大字車作","lat":34.891638,"lng":135.56121},{"code":"272110390","name":"桑田町","lat":34.812269,"lng":135.585514},{"code":"272110400","name":"大字桑原","lat":34.862067,"lng":135.561735},{"code":"27211041001","name":"郡一丁目","lat":34.827076,"lng":135.554069},{"code":"27211041002","name":"郡二丁目","lat":34.828256,"lng":135.550633},{"code":"27211041003","name":"郡三丁目","lat":34.830174,"lng":135.555352},{"code":"27211041004","name":"郡四丁目","lat":34.832231,"lng":135.55718},{"code":"27211041005","name":"郡五丁目","lat":34.834415,"lng":135.553442},{"code":"27211042001","name":"郡山一丁目","lat":34.831091,"lng":135.550818},{"code":"27211042002","name":"郡山二丁目","lat":34.834049,"lng":135.548567},{"code":"272110430","name":"小柳町","lat":34.795713,"lng":135.579811},{"code":"272110440","name":"大字道祖本","lat":34.830757,"lng":135.5381},{"code":"272110450","name":"大字佐保","lat":34.870936,"lng":135.529795},{"code":"27211046001","name":"沢良宜西一丁目","lat":34.799659,"lng":135.564975},{"code":"27211046002","name":"沢良宜西二丁目","lat":34.796176,"lng":135.564799},{"code":"27211046003","name":"沢良宜西三丁目","lat":34.795266,"lng":135.562375},{"code":"27211046004","name":"沢良宜西四丁目","lat":34.791311,"lng":135.563579},{"code":"27211047001","name":"沢良宜浜一丁目","lat":34.793723,"lng":135.568706},{"code":"27211047002","name":"沢良宜浜二丁目","lat":34.793942,"lng":135.571174},{"code":"27211047003","name":"沢良宜浜三丁目","lat":34.794138,"lng":135.573722},{"code":"272110480","name":"沢良宜東町","lat":34.797874,"lng":135.571289},{"code":"27211049001","name":"島一丁目","lat":34.793311,"lng":135.578817},{"code":"27211049002","name":"島二丁目","lat":34.792116,"lng":135.575784},{"code":"27211049003","name":"島三丁目","lat":34.789771,"lng":135.574059},{"code":"27211049004","name":"島四丁目","lat":34.788819,"lng":135.570281},{"code":"27211050001","name":"清水一丁目","lat":34.837324,"lng":135.530423},{"code":"27211050002","name":"清水二丁目","lat":34.83824,"lng":135.522515},{"code":"272110510","name":"紫明園","lat":34.813334,"lng":135.549508},{"code":"272110520","name":"下井町","lat":34.837011,"lng":135.550234},{"code":"272110530","name":"大字下音羽","lat":34.906156,"lng":135.549822},{"code":"272110540","name":"下中条町","lat":34.812972,"lng":135.566338},{"code":"27211055001","name":"下穂積一丁目","lat":34.811342,"lng":135.556874},{"code":"27211055002","name":"下穂積二丁目","lat":34.810035,"lng":135.554746},{"code":"27211055003","name":"下穂積三丁目","lat":34.813719,"lng":135.553571},{"code":"27211055004","name":"下穂積四丁目","lat":34.81137,"lng":135.552682},{"code":"272110560","name":"宿川原町","lat":34.835103,"lng":135.543025},{"code":"272110570","name":"大字宿久庄","lat":34.852804,"lng":135.536593},{"code":"27211058001","name":"宿久庄一丁目","lat":34.842156,"lng":135.542265},{"code":"27211058002","name":"宿久庄二丁目","lat":34.84117,"lng":135.537015},{"code":"27211058003","name":"宿久庄三丁目","lat":34.838586,"lng":135.533298},{"code":"27211058004","name":"宿久庄四丁目","lat":34.842544,"lng":135.531102},{"code":"27211058005","name":"宿久庄五丁目","lat":34.840027,"lng":135.526398},{"code":"27211058006","name":"宿久庄六丁目","lat":34.843343,"lng":135.527283},{"code":"27211058007","name":"宿久庄七丁目","lat":34.846041,"lng":135.527496},{"code":"27211059001","name":"庄一丁目","lat":34.825809,"lng":135.577837},{"code":"27211059002","name":"庄二丁目","lat":34.825464,"lng":135.581318},{"code":"272110600","name":"大字生保","lat":34.87524,"lng":135.560037},{"code":"27211061001","name":"白川一丁目","lat":34.816681,"lng":135.598796},{"code":"27211061002","name":"白川二丁目","lat":34.816616,"lng":135.601724},{"code":"27211061003","name":"白川三丁目","lat":34.817327,"lng":135.604753},{"code":"272110620","name":"城の前町","lat":34.837133,"lng":135.574606},{"code":"27211063001","name":"新郡山一丁目","lat":34.830879,"lng":135.546474},{"code":"27211063002","name":"新郡山二丁目","lat":34.830929,"lng":135.543878},{"code":"272110640","name":"新庄町","lat":34.813554,"lng":135.571663},{"code":"272110650","name":"新中条町","lat":34.809686,"lng":135.565862},{"code":"27211066001","name":"新堂一丁目","lat":34.810706,"lng":135.592028},{"code":"27211066002","name":"新堂二丁目","lat":34.811689,"lng":135.596234},{"code":"27211066003","name":"新堂三丁目","lat":34.809726,"lng":135.596244},{"code":"272110670","name":"新和町","lat":34.79594,"lng":135.576496},{"code":"272110680","name":"末広町","lat":34.819105,"lng":135.579394},{"code":"272110690","name":"大字千提寺","lat":34.885505,"lng":135.535833},{"code":"272110700","name":"大字銭原","lat":34.91754,"lng":135.530505},{"code":"27211071001","name":"総持寺一丁目","lat":34.829504,"lng":135.58193},{"code":"27211071002","name":"総持寺二丁目","lat":34.83045,"lng":135.585406},{"code":"272110720","name":"総持寺駅前町","lat":34.828067,"lng":135.58359},{"code":"272110730","name":"総持寺台","lat":34.823822,"lng":135.586442},{"code":"272110740","name":"園田町","lat":34.813834,"lng":135.581807},{"code":"272110750","name":"大正町","lat":34.793584,"lng":135.559868},{"code":"272110760","name":"高田町","lat":34.845294,"lng":135.580969},{"code":"272110770","name":"高浜町","lat":34.791875,"lng":135.56571},{"code":"272110780","name":"竹橋町","lat":34.820257,"lng":135.576791},{"code":"272110790","name":"田中町","lat":34.827323,"lng":135.570989},{"code":"27211080001","name":"玉櫛一丁目","lat":34.802118,"lng":135.571686},{"code":"27211080002","name":"玉櫛二丁目","lat":34.80209,"lng":135.575352},{"code":"27211081001","name":"玉島一丁目","lat":34.80027,"lng":135.586645},{"code":"27211081002","name":"玉島二丁目","lat":34.800994,"lng":135.589046},{"code":"272110820","name":"玉島台","lat":34.801207,"lng":135.584545},{"code":"272110830","name":"玉瀬町","lat":34.805897,"lng":135.581855},{"code":"272110840","name":"玉水町","lat":34.807001,"lng":135.57159},{"code":"272110850","name":"大同町","lat":34.808965,"lng":135.586154},{"code":"272110860","name":"大字大門寺","lat":34.869884,"lng":135.55614},{"code":"272110870","name":"寺田町","lat":34.816836,"lng":135.585566},{"code":"27211088001","name":"天王一丁目","lat":34.804905,"lng":135.561734},{"code":"27211088002","name":"天王二丁目","lat":34.800865,"lng":135.562911},{"code":"272110890","name":"東宮町","lat":34.823937,"lng":135.574037},{"code":"272110900","name":"十日市町","lat":34.843202,"lng":135.568985},{"code":"272110910","name":"戸伏町","lat":34.822283,"lng":135.578321},{"code":"27211092001","name":"豊川一丁目","lat":34.834289,"lng":135.537843},{"code":"27211092002","name":"豊川二丁目","lat":34.832619,"lng":135.534252},{"code":"27211092003","name":"豊川三丁目","lat":34.835303,"lng":135.52886},{"code":"27211092004","name":"豊川四丁目","lat":34.833481,"lng":135.530412},{"code":"27211092005","name":"豊川五丁目","lat":34.830755,"lng":135.530049},{"code":"272110930","name":"豊原町","lat":34.838939,"lng":135.546822},{"code":"272110940","name":"中河原町","lat":34.839024,"lng":135.554098},{"code":"272110950","name":"中総持寺町","lat":34.826174,"lng":135.585173},{"code":"272110960","name":"中津町","lat":34.816298,"lng":135.581721},{"code":"27211097001","name":"中穂積一丁目","lat":34.817472,"lng":135.557843},{"code":"27211097002","name":"中穂積二丁目","lat":34.817957,"lng":135.554144},{"code":"27211097003","name":"中穂積三丁目","lat":34.816222,"lng":135.552488},{"code":"272110980","name":"中村町","lat":34.819217,"lng":135.582658},{"code":"272110990","name":"大字長谷","lat":34.913262,"lng":135.547625},{"code":"272111000","name":"並木町","lat":34.80853,"lng":135.579818},{"code":"272111010","name":"奈良町","lat":34.80725,"lng":135.56503},{"code":"27211102001","name":"西安威一丁目","lat":34.844751,"lng":135.55767},{"code":"27211102002","name":"西安威二丁目","lat":34.847792,"lng":135.55836},{"code":"272111030","name":"西駅前町","lat":34.815814,"lng":135.560392},{"code":"272111040","name":"西太田町","lat":34.838214,"lng":135.571071},{"code":"27211105001","name":"西河原一丁目","lat":34.828665,"lng":135.574669},{"code":"27211105002","name":"西河原二丁目","lat":34.831641,"lng":135.574999},{"code":"27211105003","name":"西河原三丁目","lat":34.834655,"lng":135.573876},{"code":"272111060","name":"西河原北町","lat":34.83435,"lng":135.570935},{"code":"272111070","name":"西田中町","lat":34.824935,"lng":135.56805},{"code":"272111080","name":"西中条町","lat":34.813042,"lng":135.563474},{"code":"272111090","name":"西豊川町","lat":34.83214,"lng":135.525614},{"code":"27211110001","name":"西福井一丁目","lat":34.8412,"lng":135.551561},{"code":"27211110002","name":"西福井二丁目","lat":34.839979,"lng":135.549263},{"code":"27211110003","name":"西福井三丁目","lat":34.844537,"lng":135.550309},{"code":"27211110004","name":"西福井四丁目","lat":34.849306,"lng":135.549303},{"code":"272111110","name":"西穂積町","lat":34.823992,"lng":135.552048},{"code":"272111120","name":"大字忍頂寺","lat":34.897776,"lng":135.544552},{"code":"27211113001","name":"野々宮一丁目","lat":34.79614,"lng":135.583391},{"code":"27211113002","name":"野々宮二丁目","lat":34.796103,"lng":135.587654},{"code":"27211114001","name":"橋の内一丁目","lat":34.819694,"lng":135.587677},{"code":"27211114002","name":"橋の内二丁目","lat":34.822264,"lng":135.583611},{"code":"27211114003","name":"橋の内三丁目","lat":34.821799,"lng":135.58804},{"code":"272111150","name":"畑田町","lat":34.828573,"lng":135.564284},{"code":"27211116001","name":"花園一丁目","lat":34.844364,"lng":135.572744},{"code":"27211116002","name":"花園二丁目","lat":34.847508,"lng":135.574912},{"code":"27211117001","name":"東安威一丁目","lat":34.847668,"lng":135.569181},{"code":"27211117002","name":"東安威二丁目","lat":34.852027,"lng":135.568591},{"code":"272111180","name":"東宇野辺町","lat":34.803811,"lng":135.55913},{"code":"27211119001","name":"東太田一丁目","lat":34.836011,"lng":135.578912},{"code":"27211119002","name":"東太田二丁目","lat":34.839793,"lng":135.579775},{"code":"27211119003","name":"東太田三丁目","lat":34.838839,"lng":135.581999},{"code":"27211119004","name":"東太田四丁目","lat":34.841638,"lng":135.58327},{"code":"272111200","name":"東中条町","lat":34.812871,"lng":135.568903},{"code":"27211121001","name":"東奈良一丁目","lat":34.807476,"lng":135.569962},{"code":"27211121002","name":"東奈良二丁目","lat":34.803562,"lng":135.569561},{"code":"27211121003","name":"東奈良三丁目","lat":34.803264,"lng":135.567282},{"code":"272111220","name":"東野々宮町","lat":34.796907,"lng":135.592373},{"code":"27211123001","name":"東福井一丁目","lat":34.842387,"lng":135.555047},{"code":"27211123002","name":"東福井二丁目","lat":34.847379,"lng":135.554043},{"code":"27211123003","name":"東福井三丁目","lat":34.852476,"lng":135.55017},{"code":"27211123004","name":"東福井四丁目","lat":34.856776,"lng":135.547376},{"code":"27211124001","name":"平田一丁目","lat":34.805371,"lng":135.586708},{"code":"27211124002","name":"平田二丁目","lat":34.805152,"lng":135.589699},{"code":"272111250","name":"平田台","lat":34.805535,"lng":135.584885},{"code":"272111260","name":"大字福井","lat":34.862388,"lng":135.548638},{"code":"27211127001","name":"藤の里一丁目","lat":34.838497,"lng":135.543764},{"code":"27211127002","name":"藤の里二丁目","lat":34.83794,"lng":135.539352},{"code":"272111280","name":"双葉町","lat":34.816413,"lng":135.577521},{"code":"272111290","name":"舟木町","lat":34.814099,"lng":135.576596},{"code":"272111300","name":"別院町","lat":34.816773,"lng":135.574111},{"code":"272111310","name":"星見町","lat":34.80887,"lng":135.589295},{"code":"272111320","name":"穂積台","lat":34.810636,"lng":135.549278},{"code":"272111330","name":"本町","lat":34.819264,"lng":135.573004},{"code":"27211134001","name":"真砂一丁目","lat":34.799024,"lng":135.575768},{"code":"27211134002","name":"真砂二丁目","lat":34.799894,"lng":135.580507},{"code":"27211134003","name":"真砂三丁目","lat":34.797794,"lng":135.580363},{"code":"272111350","name":"松ケ本町","lat":34.811518,"lng":135.558827},{"code":"272111360","name":"松下町","lat":34.828137,"lng":135.567541},{"code":"272111370","name":"三咲町","lat":34.830859,"lng":135.570704},{"code":"272111380","name":"美沢町","lat":34.798634,"lng":135.56797},{"code":"27211139001","name":"三島丘一丁目","lat":34.83329,"lng":135.578407},{"code":"27211139002","name":"三島丘二丁目","lat":34.833727,"lng":135.581809},{"code":"272111400","name":"三島町","lat":34.830709,"lng":135.57947},{"code":"27211141001","name":"水尾一丁目","lat":34.808436,"lng":135.574792},{"code":"27211141002","name":"水尾二丁目","lat":34.806002,"lng":135.575035},{"code":"27211141003","name":"水尾三丁目","lat":34.804051,"lng":135.575185},{"code":"27211141004","name":"水尾四丁目","lat":34.806198,"lng":135.578501},{"code":"27211142001","name":"見付山一丁目","lat":34.819332,"lng":135.555205},{"code":"27211142002","name":"見付山二丁目","lat":34.821267,"lng":135.554818},{"code":"27211143001","name":"南安威一丁目","lat":34.84389,"lng":135.565635},{"code":"27211143002","name":"南安威二丁目","lat":34.843765,"lng":135.561524},{"code":"27211143003","name":"南安威三丁目","lat":34.842527,"lng":135.558368},{"code":"27211144001","name":"南春日丘一丁目","lat":34.813554,"lng":135.545273},{"code":"27211144002","name":"南春日丘二丁目","lat":34.816398,"lng":135.545263},{"code":"27211144003","name":"南春日丘三丁目","lat":34.815313,"lng":135.540237},{"code":"27211144004","name":"南春日丘四丁目","lat":34.817957,"lng":135.542503},{"code":"27211144005","name":"南春日丘五丁目","lat":34.816325,"lng":135.534514},{"code":"27211144006","name":"南春日丘六丁目","lat":34.818118,"lng":135.534919},{"code":"27211144007","name":"南春日丘七丁目","lat":34.819404,"lng":135.531344},{"code":"272111450","name":"南清水町","lat":34.835663,"lng":135.533071},{"code":"27211146001","name":"南耳原一丁目","lat":34.834774,"lng":135.566777},{"code":"27211146002","name":"南耳原二丁目","lat":34.837044,"lng":135.567844},{"code":"27211147001","name":"南目垣一丁目","lat":34.80255,"lng":135.597742},{"code":"27211147002","name":"南目垣二丁目","lat":34.801975,"lng":135.59524},{"code":"27211147003","name":"南目垣三丁目","lat":34.799599,"lng":135.593115},{"code":"27211148001","name":"耳原一丁目","lat":34.837033,"lng":135.564135},{"code":"27211148002","name":"耳原二丁目","lat":34.839189,"lng":135.564984},{"code":"27211148003","name":"耳原三丁目","lat":34.840853,"lng":135.562624},{"code":"272111490","name":"美穂ケ丘","lat":34.823852,"lng":135.526863},{"code":"27211150001","name":"宮島一丁目","lat":34.791318,"lng":135.583307},{"code":"27211150002","name":"宮島二丁目","lat":34.78634,"lng":135.575572},{"code":"27211150003","name":"宮島三丁目","lat":34.780458,"lng":135.570536},{"code":"272111510","name":"宮元町","lat":34.82041,"lng":135.574351},{"code":"27211152001","name":"室山一丁目","lat":34.843632,"lng":135.545971},{"code":"27211152002","name":"室山二丁目","lat":34.847445,"lng":135.54303},{"code":"27211153001","name":"目垣一丁目","lat":34.803588,"lng":135.592261},{"code":"27211153002","name":"目垣二丁目","lat":34.807644,"lng":135.595987},{"code":"27211153003","name":"目垣三丁目","lat":34.805191,"lng":135.595457},{"code":"272111540","name":"元町","lat":34.817822,"lng":135.571321},{"code":"272111550","name":"大字安元","lat":34.890561,"lng":135.546781},{"code":"27211156001","name":"山手台一丁目","lat":34.855233,"lng":135.55796},{"code":"27211156002","name":"山手台二丁目","lat":34.858885,"lng":135.557348},{"code":"27211156003","name":"山手台三丁目","lat":34.860311,"lng":135.553869},{"code":"27211156004","name":"山手台四丁目","lat":34.862553,"lng":135.555169},{"code":"27211156005","name":"山手台五丁目","lat":34.865919,"lng":135.549843},{"code":"27211156006","name":"山手台六丁目","lat":34.868156,"lng":135.548},{"code":"27211156007","name":"山手台七丁目","lat":34.87087,"lng":135.54851},{"code":"27211157001","name":"横江一丁目","lat":34.789509,"lng":135.567815},{"code":"27211157002","name":"横江二丁目","lat":34.786115,"lng":135.564908},{"code":"272111580","name":"若草町","lat":34.804679,"lng":135.565464},{"code":"272111590","name":"若園町","lat":34.802502,"lng":135.581111},{"code":"272111600","name":"大字中穂積","lat":34.824821,"lng":135.537598},{"code":"272111610","name":"茨木市飛地（小坪井）","lat":34.806678,"lng":135.545466},{"code":"27211166001","name":"彩都あさぎ一丁目","lat":34.85403,"lng":135.523691},{"code":"27211166002","name":"彩都あさぎ二丁目","lat":34.851846,"lng":135.524537},{"code":"27211166003","name":"彩都あさぎ三丁目","lat":34.849162,"lng":135.524551},{"code":"27211166004","name":"彩都あさぎ四丁目","lat":34.848501,"lng":135.528606},{"code":"27211166005","name":"彩都あさぎ五丁目","lat":34.851528,"lng":135.527858},{"code":"27211166006","name":"彩都あさぎ六丁目","lat":34.852652,"lng":135.531365},{"code":"27211166007","name":"彩都あさぎ七丁目","lat":34.856346,"lng":135.527118},{"code":"272111670","name":"大字清水","lat":34.860383,"lng":135.532681},{"code":"272111680","name":"大字蔵垣内","lat":34.79795,"lng":135.54944},{"code":"27211169001","name":"彩都やまぶき一丁目","lat":34.854806,"lng":135.520947},{"code":"27211169002","name":"彩都やまぶき二丁目","lat":34.858238,"lng":135.523493},{"code":"27211169003","name":"彩都やまぶき三丁目","lat":34.859008,"lng":135.518236},{"code":"27211169004","name":"彩都やまぶき四丁目","lat":34.860256,"lng":135.522194},{"code":"27211169005","name":"彩都やまぶき五丁目","lat":34.861963,"lng":135.517269},{"code":"272111700","name":"井口台","lat":34.832074,"lng":135.541751},{"code":"272111710","name":"山手台東町","lat":34.86315,"lng":135.559713},{"code":"27211172001","name":"山手台新町一丁目","lat":34.864884,"lng":135.555859},{"code":"27211172002","name":"山手台新町二丁目","lat":34.866704,"lng":135.553542},{"code":"27211172003","name":"山手台新町三丁目","lat":34.866808,"lng":135.556908},{"code":"272111730","name":"真砂玉島台","lat":34.798723,"lng":135.583834}]}
