{"municipality":"27213","name":"泉佐野市","prefecture":"大阪府","source":{"dataset":"frogcat/japan-small-area","census":"平成27年国勢調査 小地域（e-Stat 統計LOD）","license":"MIT（リポジトリ）／政府統計の総合窓口(e-Stat)の利用規約（元データ・出典表記必要）","fetched":"2026-07-06"},"towns":[{"code":"27213001001","name":"新町１丁目","lat":34.416513,"lng":135.318368},{"code":"27213001002","name":"新町２丁目","lat":34.419203,"lng":135.317279},{"code":"27213001003","name":"新町３丁目","lat":34.416795,"lng":135.319995},{"code":"272130020","name":"春日町","lat":34.415908,"lng":135.316941},{"code":"272130030","name":"旭町","lat":34.414274,"lng":135.321258},{"code":"272130040","name":"本町","lat":34.415156,"lng":135.315395},{"code":"272130050","name":"元町","lat":34.414489,"lng":135.314028},{"code":"272130060","name":"野出町","lat":34.414221,"lng":135.310602},{"code":"272130070","name":"西本町","lat":34.412593,"lng":135.311727},{"code":"27213008001","name":"笠松１丁目","lat":34.410944,"lng":135.306724},{"code":"27213008002","name":"笠松２丁目","lat":34.408976,"lng":135.306225},{"code":"27213009001","name":"松原１丁目","lat":34.404438,"lng":135.304648},{"code":"27213009002","name":"松原２丁目","lat":34.405749,"lng":135.302967},{"code":"27213009003","name":"松原３丁目","lat":34.406884,"lng":135.300844},{"code":"27213010001","name":"羽倉崎１丁目","lat":34.401401,"lng":135.300222},{"code":"27213010002","name":"羽倉崎２丁目","lat":34.398995,"lng":135.297089},{"code":"27213010003","name":"羽倉崎３丁目","lat":34.401338,"lng":135.295405},{"code":"27213010004","name":"羽倉崎４丁目","lat":34.403764,"lng":135.298359},{"code":"272130110","name":"大宮町","lat":34.413138,"lng":135.318982},{"code":"272130120","name":"栄町","lat":34.412473,"lng":135.317086},{"code":"272130130","name":"若宮町","lat":34.4118,"lng":135.315449},{"code":"27213014001","name":"大西１丁目","lat":34.410608,"lng":135.312486},{"code":"27213014002","name":"大西２丁目","lat":34.407697,"lng":135.308692},{"code":"27213015001","name":"上町１丁目","lat":34.409758,"lng":135.32388},{"code":"27213015002","name":"上町２丁目","lat":34.411427,"lng":135.321656},{"code":"27213015003","name":"上町３丁目","lat":34.409957,"lng":135.318326},{"code":"27213016001","name":"市場東１丁目","lat":34.405362,"lng":135.328148},{"code":"27213016002","name":"市場東２丁目","lat":34.406376,"lng":135.324682},{"code":"27213016003","name":"市場東３丁目","lat":34.408215,"lng":135.327216},{"code":"27213017001","name":"市場西１丁目","lat":34.40307,"lng":135.322516},{"code":"27213017002","name":"市場西２丁目","lat":34.404979,"lng":135.320371},{"code":"27213017003","name":"市場西３丁目","lat":34.407334,"lng":135.319954},{"code":"27213018101","name":"市場南１丁目","lat":34.402953,"lng":135.325083},{"code":"27213018102","name":"市場南２丁目","lat":34.401759,"lng":135.327841},{"code":"27213018103","name":"市場南３丁目","lat":34.400615,"lng":135.330532},{"code":"27213019001","name":"高松東１丁目","lat":34.40662,"lng":135.316845},{"code":"27213019002","name":"高松東２丁目","lat":34.404537,"lng":135.314673},{"code":"27213020001","name":"高松西１丁目","lat":34.405587,"lng":135.309798},{"code":"27213020002","name":"高松西２丁目","lat":34.403228,"lng":135.306967},{"code":"27213021001","name":"高松南１丁目","lat":34.403329,"lng":135.312562},{"code":"27213021002","name":"高松南２丁目","lat":34.402271,"lng":135.310999},{"code":"27213021003","name":"高松南３丁目","lat":34.401291,"lng":135.309367},{"code":"27213022001","name":"高松北１丁目","lat":34.409126,"lng":135.315402},{"code":"27213022002","name":"高松北２丁目","lat":34.407743,"lng":135.312863},{"code":"27213023001","name":"中町１丁目","lat":34.402614,"lng":135.318363},{"code":"27213023002","name":"中町２丁目","lat":34.401266,"lng":135.316612},{"code":"27213023003","name":"中町３丁目","lat":34.400012,"lng":135.315211},{"code":"27213023004","name":"中町４丁目","lat":34.399385,"lng":135.313388},{"code":"27213024001","name":"葵町１丁目","lat":34.400776,"lng":135.32178},{"code":"27213024002","name":"葵町２丁目","lat":34.399302,"lng":135.321105},{"code":"27213024003","name":"葵町３丁目","lat":34.397903,"lng":135.320333},{"code":"27213024004","name":"葵町４丁目","lat":34.396709,"lng":135.319629},{"code":"272130250","name":"長滝","lat":34.394395,"lng":135.32103},{"code":"272130260","name":"東羽倉崎町","lat":34.40072,"lng":135.303862},{"code":"27213027101","name":"羽倉崎上町１丁目","lat":34.398606,"lng":135.301062},{"code":"27213027102","name":"羽倉崎上町２丁目","lat":34.396396,"lng":135.301513},{"code":"27213027103","name":"羽倉崎上町３丁目","lat":34.396522,"lng":135.298489},{"code":"27213028001","name":"泉ケ丘１丁目","lat":34.413047,"lng":135.350563},{"code":"27213028002","name":"泉ケ丘２丁目","lat":34.409061,"lng":135.352813},{"code":"27213028003","name":"泉ケ丘３丁目","lat":34.414263,"lng":135.352678},{"code":"27213028004","name":"泉ケ丘４丁目","lat":34.416724,"lng":135.353306},{"code":"27213028005","name":"泉ケ丘５丁目","lat":34.418435,"lng":135.354845},{"code":"272130300","name":"鶴原","lat":34.418314,"lng":135.348644},{"code":"272130310","name":"鶴原","lat":34.421822,"lng":135.348691},{"code":"272130320","name":"鶴原","lat":34.418765,"lng":135.345559},{"code":"272130330","name":"鶴原","lat":34.415697,"lng":135.347593},{"code":"272130340","name":"鶴原","lat":34.423342,"lng":135.344999},{"code":"272130350","name":"鶴原","lat":34.418579,"lng":135.342685},{"code":"272130360","name":"下瓦屋","lat":34.417746,"lng":135.340196},{"code":"272130370","name":"鶴原","lat":34.427922,"lng":135.341613},{"code":"27213038000","name":"鶴原","lat":34.424574,"lng":135.339391},{"code":"27213038001","name":"鶴原１丁目","lat":34.425952,"lng":135.336575},{"code":"27213038002","name":"鶴原２丁目","lat":34.427275,"lng":135.334585},{"code":"27213038003","name":"鶴原３丁目","lat":34.428444,"lng":135.331587},{"code":"27213038004","name":"鶴原４丁目","lat":34.430497,"lng":135.335482},{"code":"27213038005","name":"鶴原５丁目","lat":34.428317,"lng":135.339141},{"code":"27213039000","name":"下瓦屋","lat":34.420369,"lng":135.334814},{"code":"27213039001","name":"下瓦屋１丁目","lat":34.419407,"lng":135.329365},{"code":"27213039002","name":"下瓦屋２丁目","lat":34.422327,"lng":135.326695},{"code":"27213039003","name":"下瓦屋３丁目","lat":34.424022,"lng":135.329563},{"code":"27213039004","name":"下瓦屋４丁目","lat":34.421798,"lng":135.331959},{"code":"27213039005","name":"下瓦屋５丁目","lat":34.425528,"lng":135.331304},{"code":"27213039006","name":"下瓦屋６丁目","lat":34.423752,"lng":135.334133},{"code":"272130400","name":"上瓦屋","lat":34.413913,"lng":135.336352},{"code":"272130410","name":"中庄","lat":34.409702,"lng":135.33147},{"code":"272130420","name":"中庄","lat":34.403529,"lng":135.335673},{"code":"27213043001","name":"湊１丁目","lat":34.415581,"lng":135.324002},{"code":"27213043002","name":"湊２丁目","lat":34.418026,"lng":135.321966},{"code":"27213043003","name":"湊３丁目","lat":34.419863,"lng":135.324701},{"code":"27213043004","name":"湊４丁目","lat":34.417923,"lng":135.326716},{"code":"272130450","name":"住吉町","lat":34.428884,"lng":135.323209},{"code":"272130460","name":"新浜町","lat":34.420867,"lng":135.320387},{"code":"272130470","name":"佐野台","lat":34.412427,"lng":135.343969},{"code":"272130480","name":"佐野台","lat":34.410643,"lng":135.342224},{"code":"272130490","name":"東佐野台","lat":34.410111,"lng":135.345482},{"code":"27213050001","name":"南泉ケ丘１丁目","lat":34.412387,"lng":135.348083},{"code":"27213050002","name":"南泉ケ丘２丁目","lat":34.410191,"lng":135.349564},{"code":"27213050003","name":"南泉ケ丘３丁目","lat":34.407922,"lng":135.351784},{"code":"27213051001","name":"日根野東上","lat":34.375915,"lng":135.348108},{"code":"27213051002","name":"日根野久ノ木","lat":34.378805,"lng":135.34233},{"code":"27213051003","name":"日根野中筋","lat":34.380828,"lng":135.339653},{"code":"27213051004","name":"日根野西出","lat":34.379178,"lng":135.331566},{"code":"27213051005","name":"日根野野口","lat":34.380933,"lng":135.32712},{"code":"27213051006","name":"日根野西上","lat":34.387152,"lng":135.338115},{"code":"27213051007","name":"日根野新道出","lat":34.385416,"lng":135.331428},{"code":"27213051008","name":"日根野野々地蔵","lat":34.39165,"lng":135.33043},{"code":"272130520","name":"俵屋","lat":34.397436,"lng":135.326299},{"code":"27213053001","name":"長滝長滝東","lat":34.38485,"lng":135.320259},{"code":"27213053002","name":"長滝長滝中","lat":34.388178,"lng":135.315854},{"code":"27213053003","name":"長滝長滝西","lat":34.386801,"lng":135.311266},{"code":"272130540","name":"長滝","lat":34.386431,"lng":135.324743},{"code":"272130550","name":"長滝","lat":34.390018,"lng":135.31504},{"code":"27213056001","name":"上之郷母山","lat":34.352316,"lng":135.344941},{"code":"27213056002","name":"上之郷机場","lat":34.37422,"lng":135.332182},{"code":"27213056003","name":"上之郷女形","lat":34.372839,"lng":135.329981},{"code":"27213056004","name":"上之郷上村","lat":34.375842,"lng":135.328157},{"code":"27213056005","name":"上之郷中村","lat":34.374745,"lng":135.324571},{"code":"27213056006","name":"上之郷下村","lat":34.374247,"lng":135.318759},{"code":"27213056007","name":"上之郷郷田","lat":34.382812,"lng":135.30646},{"code":"272130570","name":"南中安松","lat":34.392888,"lng":135.308381},{"code":"27213058001","name":"新安松１丁目","lat":34.399602,"lng":135.308044},{"code":"27213058002","name":"新安松２丁目","lat":34.396764,"lng":135.306946},{"code":"27213058003","name":"新安松３丁目","lat":34.397685,"lng":135.304658},{"code":"272130590","name":"南中岡本","lat":34.390753,"lng":135.30096},{"code":"272130600","name":"南中樫井","lat":34.383279,"lng":135.299223},{"code":"272130610","name":"南中樫井","lat":34.381891,"lng":135.291778},{"code":"272130620","name":"土丸","lat":34.367154,"lng":135.358882},{"code":"27213063001","name":"大木下大木","lat":34.358375,"lng":135.3678},{"code":"27213063002","name":"大木中大木","lat":34.35342,"lng":135.372807},{"code":"27213063003","name":"大木上大木","lat":34.341078,"lng":135.386764},{"code":"272130640","name":"大口新田","lat":34.353253,"lng":135.29868},{"code":"27213065101","name":"松風台１丁目","lat":34.400744,"lng":135.333508},{"code":"27213065102","name":"松風台２丁目","lat":34.399066,"lng":135.334261},{"code":"27213065103","name":"松風台３丁目","lat":34.397468,"lng":135.33268},{"code":"272130660","name":"りんくう往来北","lat":34.414774,"lng":135.304703},{"code":"272130670","name":"りんくう往来南","lat":34.407278,"lng":135.295053},{"code":"272130680","name":"泉州空港北","lat":34.441853,"lng":135.248263}]}
