{"municipality":"27230","name":"交野市","prefecture":"大阪府","source":{"dataset":"frogcat/japan-small-area","census":"平成27年国勢調査 小地域（e-Stat 統計LOD）","license":"MIT（リポジトリ）／政府統計の総合窓口(e-Stat)の利用規約（元データ・出典表記必要）","fetched":"2026-07-06"},"towns":[{"code":"27230101001","name":"青山１丁目","lat":34.787411,"lng":135.688143},{"code":"27230101002","name":"青山２丁目","lat":34.787802,"lng":135.690664},{"code":"27230101003","name":"青山３丁目","lat":34.790014,"lng":135.691037},{"code":"27230101004","name":"青山４丁目","lat":34.790497,"lng":135.694645},{"code":"27230101005","name":"青山５丁目","lat":34.787263,"lng":135.693246},{"code":"27230102001","name":"天野が原町１丁目","lat":34.780164,"lng":135.67944},{"code":"27230102002","name":"天野が原町２丁目","lat":34.779239,"lng":135.677417},{"code":"27230102003","name":"天野が原町３丁目","lat":34.779837,"lng":135.674958},{"code":"27230102004","name":"天野が原町４丁目","lat":34.77606,"lng":135.677052},{"code":"27230102005","name":"天野が原町５丁目","lat":34.776262,"lng":135.680612},{"code":"27230103001","name":"幾野１丁目","lat":34.79252,"lng":135.681422},{"code":"27230103002","name":"幾野２丁目","lat":34.794031,"lng":135.68196},{"code":"27230103003","name":"幾野３丁目","lat":34.7964,"lng":135.680405},{"code":"27230103004","name":"幾野４丁目","lat":34.796286,"lng":135.682976},{"code":"27230103005","name":"幾野５丁目","lat":34.798468,"lng":135.680845},{"code":"27230103006","name":"幾野６丁目","lat":34.800826,"lng":135.678673},{"code":"272301040","name":"梅が枝","lat":34.789562,"lng":135.671348},{"code":"27230105001","name":"私市１丁目","lat":34.772816,"lng":135.687509},{"code":"27230105002","name":"私市２丁目","lat":34.774611,"lng":135.68258},{"code":"27230105003","name":"私市３丁目","lat":34.773044,"lng":135.682345},{"code":"27230105004","name":"私市４丁目","lat":34.771274,"lng":135.683317},{"code":"27230105005","name":"私市５丁目","lat":34.771843,"lng":135.679424},{"code":"27230105006","name":"私市６丁目","lat":34.768808,"lng":135.684646},{"code":"27230105007","name":"私市７丁目","lat":34.767687,"lng":135.682247},{"code":"27230105008","name":"私市８丁目","lat":34.765494,"lng":135.688386},{"code":"27230105009","name":"私市９丁目","lat":34.75853,"lng":135.689304},{"code":"272301060","name":"大字私市","lat":34.758183,"lng":135.695672},{"code":"27230107001","name":"私市山手１丁目","lat":34.770231,"lng":135.688309},{"code":"27230107002","name":"私市山手２丁目","lat":34.770086,"lng":135.690005},{"code":"27230107003","name":"私市山手３丁目","lat":34.768464,"lng":135.688294},{"code":"27230107004","name":"私市山手４丁目","lat":34.767597,"lng":135.689698},{"code":"27230107005","name":"私市山手５丁目","lat":34.766419,"lng":135.689922},{"code":"272301080","name":"大字私部","lat":34.768563,"lng":135.705161},{"code":"27230109001","name":"倉治１丁目","lat":34.793177,"lng":135.693732},{"code":"27230109002","name":"倉治２丁目","lat":34.792835,"lng":135.688938},{"code":"27230109003","name":"倉治３丁目","lat":34.794202,"lng":135.687014},{"code":"27230109004","name":"倉治４丁目","lat":34.796278,"lng":135.686171},{"code":"27230109005","name":"倉治５丁目","lat":34.797613,"lng":135.688068},{"code":"27230109006","name":"倉治６丁目","lat":34.79697,"lng":135.691779},{"code":"27230109007","name":"倉治７丁目","lat":34.796945,"lng":135.69595},{"code":"27230109008","name":"倉治８丁目","lat":34.799407,"lng":135.693348},{"code":"27230109009","name":"倉治９丁目","lat":34.7992,"lng":135.685783},{"code":"272301100","name":"大字倉治","lat":34.789092,"lng":135.708767},{"code":"27230111001","name":"郡津１丁目","lat":34.792875,"lng":135.676886},{"code":"27230111002","name":"郡津２丁目","lat":34.798199,"lng":135.677085},{"code":"27230111003","name":"郡津３丁目","lat":34.796203,"lng":135.674333},{"code":"27230111004","name":"郡津４丁目","lat":34.792604,"lng":135.673181},{"code":"27230111005","name":"郡津５丁目","lat":34.796892,"lng":135.670783},{"code":"27230113001","name":"神宮寺１丁目","lat":34.789749,"lng":135.697194},{"code":"27230113002","name":"神宮寺２丁目","lat":34.78947,"lng":135.699463},{"code":"27230114001","name":"寺１丁目","lat":34.782488,"lng":135.692277},{"code":"27230114002","name":"寺２丁目","lat":34.780816,"lng":135.694142},{"code":"27230114003","name":"寺３丁目","lat":34.784405,"lng":135.697132},{"code":"27230114004","name":"寺４丁目","lat":34.785279,"lng":135.694921},{"code":"272301150","name":"大字寺","lat":34.779486,"lng":135.699376},{"code":"272301160","name":"寺南野","lat":34.780862,"lng":135.688329},{"code":"27230117001","name":"南星台１丁目","lat":34.760433,"lng":135.671348},{"code":"27230117002","name":"南星台２丁目","lat":34.75826,"lng":135.671287},{"code":"27230117003","name":"南星台３丁目","lat":34.757585,"lng":135.673048},{"code":"27230117004","name":"南星台４丁目","lat":34.755736,"lng":135.674469},{"code":"27230117005","name":"南星台５丁目","lat":34.754601,"lng":135.676985},{"code":"27230118001","name":"東倉治１丁目","lat":34.79286,"lng":135.698882},{"code":"27230118002","name":"東倉治２丁目","lat":34.793844,"lng":135.700558},{"code":"27230118003","name":"東倉治３丁目","lat":34.794942,"lng":135.702633},{"code":"27230118004","name":"東倉治４丁目","lat":34.797976,"lng":135.700255},{"code":"27230118005","name":"東倉治５丁目","lat":34.797165,"lng":135.704578},{"code":"27230119001","name":"藤が尾１丁目","lat":34.772035,"lng":135.67638},{"code":"27230119002","name":"藤が尾２丁目","lat":34.769984,"lng":135.677942},{"code":"27230119003","name":"藤が尾３丁目","lat":34.76825,"lng":135.676107},{"code":"27230119004","name":"藤が尾４丁目","lat":34.770412,"lng":135.675366},{"code":"27230119005","name":"藤が尾５丁目","lat":34.768453,"lng":135.673727},{"code":"27230119006","name":"藤が尾６丁目","lat":34.770427,"lng":135.672876},{"code":"272301200","name":"大字傍示","lat":34.776562,"lng":135.706088},{"code":"272301210","name":"大字星田","lat":34.750542,"lng":135.677797},{"code":"27230122001","name":"星田山手１丁目","lat":34.758401,"lng":135.667425},{"code":"27230122002","name":"星田山手２丁目","lat":34.757132,"lng":135.667085},{"code":"27230122003","name":"星田山手３丁目","lat":34.756087,"lng":135.665497},{"code":"27230122004","name":"星田山手４丁目","lat":34.75442,"lng":135.664601},{"code":"27230122005","name":"星田山手５丁目","lat":34.754675,"lng":135.666922},{"code":"272301230","name":"松塚","lat":34.7942,"lng":135.667995},{"code":"27230124001","name":"妙見坂１丁目","lat":34.765886,"lng":135.679224},{"code":"27230124002","name":"妙見坂２丁目","lat":34.767488,"lng":135.678487},{"code":"27230124003","name":"妙見坂３丁目","lat":34.766833,"lng":135.676771},{"code":"27230124004","name":"妙見坂４丁目","lat":34.76453,"lng":135.678017},{"code":"27230124005","name":"妙見坂５丁目","lat":34.765103,"lng":135.676953},{"code":"27230124006","name":"妙見坂６丁目","lat":34.76506,"lng":135.675453},{"code":"27230124007","name":"妙見坂７丁目","lat":34.762598,"lng":135.676384},{"code":"27230125001","name":"妙見東１丁目","lat":34.761181,"lng":135.679417},{"code":"27230125002","name":"妙見東２丁目","lat":34.759395,"lng":135.680919},{"code":"27230125003","name":"妙見東３丁目","lat":34.758022,"lng":135.681277},{"code":"27230125004","name":"妙見東４丁目","lat":34.757226,"lng":135.68296},{"code":"27230125005","name":"妙見東５丁目","lat":34.75605,"lng":135.682055},{"code":"27230126001","name":"向井田１丁目","lat":34.784417,"lng":135.684807},{"code":"27230126002","name":"向井田２丁目","lat":34.78465,"lng":135.687782},{"code":"27230126003","name":"向井田３丁目","lat":34.78407,"lng":135.690524},{"code":"272301270","name":"大字森","lat":34.773786,"lng":135.696995},{"code":"27230128001","name":"森北１丁目","lat":34.778061,"lng":135.684618},{"code":"27230128002","name":"森北２丁目","lat":34.779245,"lng":135.687572},{"code":"27230129001","name":"森南１丁目","lat":34.776093,"lng":135.686388},{"code":"27230129002","name":"森南２丁目","lat":34.775056,"lng":135.688607},{"code":"27230129003","name":"森南３丁目","lat":34.778554,"lng":135.689847},{"code":"27230130001","name":"私部１丁目","lat":34.786772,"lng":135.682774},{"code":"27230130002","name":"私部２丁目","lat":34.785988,"lng":135.678362},{"code":"27230130003","name":"私部３丁目","lat":34.788232,"lng":135.677362},{"code":"27230130004","name":"私部４丁目","lat":34.789862,"lng":135.675639},{"code":"27230130005","name":"私部５丁目","lat":34.789165,"lng":135.682349},{"code":"27230130006","name":"私部６丁目","lat":34.790881,"lng":135.681778},{"code":"27230130007","name":"私部７丁目","lat":34.789036,"lng":135.68634},{"code":"27230130008","name":"私部８丁目","lat":34.790808,"lng":135.686713},{"code":"27230131001","name":"私部西１丁目","lat":34.787074,"lng":135.67377},{"code":"27230131002","name":"私部西２丁目","lat":34.78379,"lng":135.676128},{"code":"27230131003","name":"私部西３丁目","lat":34.783399,"lng":135.673674},{"code":"27230131004","name":"私部西４丁目","lat":34.783795,"lng":135.671315},{"code":"27230131005","name":"私部西５丁目","lat":34.780529,"lng":135.672688},{"code":"27230132001","name":"私部南１丁目","lat":34.782635,"lng":135.679815},{"code":"27230132002","name":"私部南２丁目","lat":34.782667,"lng":135.681968},{"code":"27230132003","name":"私部南３丁目","lat":34.78186,"lng":135.685547},{"code":"27230132004","name":"私部南４丁目","lat":34.780095,"lng":135.683066},{"code":"27230133001","name":"星田１丁目","lat":34.768331,"lng":135.669732},{"code":"27230133002","name":"星田２丁目","lat":34.765834,"lng":135.673153},{"code":"27230133003","name":"星田３丁目","lat":34.765811,"lng":135.669274},{"code":"27230133004","name":"星田４丁目","lat":34.764723,"lng":135.665146},{"code":"27230133005","name":"星田５丁目","lat":34.766409,"lng":135.663808},{"code":"27230133006","name":"星田６丁目","lat":34.762367,"lng":135.662877},{"code":"27230133007","name":"星田７丁目","lat":34.761097,"lng":135.667091},{"code":"27230133008","name":"星田８丁目","lat":34.762938,"lng":135.669316},{"code":"27230133009","name":"星田９丁目","lat":34.759939,"lng":135.676187},{"code":"27230134001","name":"星田北１丁目","lat":34.776158,"lng":135.674003},{"code":"27230134002","name":"星田北２丁目","lat":34.773192,"lng":135.674056},{"code":"27230134003","name":"星田北３丁目","lat":34.771208,"lng":135.669507},{"code":"27230134004","name":"星田北４丁目","lat":34.775721,"lng":135.671008},{"code":"27230134005","name":"星田北５丁目","lat":34.77497,"lng":135.667776},{"code":"27230134006","name":"星田北６丁目","lat":34.771452,"lng":135.665492},{"code":"27230134007","name":"星田北７丁目","lat":34.769467,"lng":135.663061},{"code":"27230134008","name":"星田北８丁目","lat":34.773422,"lng":135.661247},{"code":"27230134009","name":"星田北９丁目","lat":34.775088,"lng":135.663495},{"code":"27230135001","name":"星田西１丁目","lat":34.758993,"lng":135.66102},{"code":"27230135002","name":"星田西２丁目","lat":34.758351,"lng":135.664309},{"code":"27230135003","name":"星田西３丁目","lat":34.754211,"lng":135.662443},{"code":"27230135004","name":"星田西４丁目","lat":34.754756,"lng":135.659946},{"code":"27230135005","name":"星田西５丁目","lat":34.750583,"lng":135.660933}]}
