{"municipality":"27232","name":"阪南市","prefecture":"大阪府","source":{"dataset":"frogcat/japan-small-area","census":"平成27年国勢調査 小地域（e-Stat 統計LOD）","license":"MIT（リポジトリ）／政府統計の総合窓口(e-Stat)の利用規約（元データ・出典表記必要）","fetched":"2026-07-06"},"towns":[{"code":"27232001000","name":"尾崎町","lat":34.36968,"lng":135.24774},{"code":"27232001001","name":"尾崎町１丁目","lat":34.361153,"lng":135.237539},{"code":"27232001002","name":"尾崎町２丁目","lat":34.363309,"lng":135.239874},{"code":"27232001003","name":"尾崎町３丁目","lat":34.365055,"lng":135.241651},{"code":"27232001004","name":"尾崎町４丁目","lat":34.365708,"lng":135.244442},{"code":"27232001005","name":"尾崎町５丁目","lat":34.367168,"lng":135.247642},{"code":"27232001006","name":"尾崎町６丁目","lat":34.368029,"lng":135.243476},{"code":"27232001007","name":"尾崎町７丁目","lat":34.369916,"lng":135.245622},{"code":"27232001008","name":"尾崎町８丁目","lat":34.37287,"lng":135.248155},{"code":"272320080","name":"新町","lat":34.35757,"lng":135.235146},{"code":"272320090","name":"鳥取","lat":34.351428,"lng":135.233574},{"code":"27232013001","name":"舞１丁目","lat":34.346649,"lng":135.230381},{"code":"27232013002","name":"舞２丁目","lat":34.345647,"lng":135.22815},{"code":"27232013003","name":"舞３丁目","lat":34.342335,"lng":135.232926},{"code":"27232013004","name":"舞４丁目","lat":34.340629,"lng":135.229896},{"code":"27232013005","name":"舞５丁目","lat":34.33914,"lng":135.233644},{"code":"272320150","name":"鳥取三井","lat":34.345136,"lng":135.234701},{"code":"27232017001","name":"光陽台１丁目","lat":34.347774,"lng":135.236193},{"code":"27232017002","name":"光陽台２丁目","lat":34.344756,"lng":135.237955},{"code":"27232017003","name":"光陽台３丁目","lat":34.342147,"lng":135.237531},{"code":"27232017004","name":"光陽台４丁目","lat":34.339611,"lng":135.236861},{"code":"272320180","name":"貝掛","lat":34.335921,"lng":135.227229},{"code":"27232021000","name":"箱作","lat":34.330453,"lng":135.216771},{"code":"27232021001","name":"箱作","lat":34.336154,"lng":135.204183},{"code":"27232021008","name":"箱作","lat":34.332484,"lng":135.210033},{"code":"272320230","name":"箱作","lat":34.334231,"lng":135.210188},{"code":"272320290","name":"南山中","lat":34.321595,"lng":135.203482},{"code":"272320300","name":"箱の浦","lat":34.334085,"lng":135.195426},{"code":"272320320","name":"黒田","lat":34.354639,"lng":135.241513},{"code":"272320330","name":"下出","lat":34.360023,"lng":135.24663},{"code":"272320340","name":"鳥取中","lat":34.354898,"lng":135.253394},{"code":"272320350","name":"桑畑","lat":34.319198,"lng":135.239996},{"code":"27232036000","name":"石田","lat":34.346787,"lng":135.245731},{"code":"27232036001","name":"石田","lat":34.350614,"lng":135.245551},{"code":"27232038001","name":"さつき台１丁目","lat":34.340243,"lng":135.251173},{"code":"27232038002","name":"さつき台２丁目","lat":34.337253,"lng":135.249924},{"code":"27232038003","name":"さつき台３丁目","lat":34.335154,"lng":135.248702},{"code":"27232039001","name":"自然田","lat":34.33174,"lng":135.25458},{"code":"27232039002","name":"自然田","lat":34.348467,"lng":135.250369},{"code":"27232039003","name":"自然田","lat":34.349579,"lng":135.256338},{"code":"27232039004","name":"自然田","lat":34.343834,"lng":135.256035},{"code":"27232039005","name":"自然田","lat":34.347778,"lng":135.263048},{"code":"272320400","name":"和泉鳥取","lat":34.343903,"lng":135.262794},{"code":"272320410","name":"山中渓","lat":34.324875,"lng":135.272413},{"code":"27232042001","name":"緑ヶ丘１丁目","lat":34.338768,"lng":135.259665},{"code":"27232042002","name":"緑ヶ丘２丁目","lat":34.336481,"lng":135.262195},{"code":"27232042003","name":"緑ヶ丘３丁目","lat":34.334774,"lng":135.262468},{"code":"27232044003","name":"桃の木台３丁目","lat":34.33087,"lng":135.222012},{"code":"27232044004","name":"桃の木台４丁目","lat":34.329076,"lng":135.221638},{"code":"27232044005","name":"桃の木台５丁目","lat":34.328231,"lng":135.218603},{"code":"27232044006","name":"桃の木台６丁目","lat":34.326569,"lng":135.216739},{"code":"27232044007","name":"桃の木台７丁目","lat":34.326045,"lng":135.224155}]}
