{"municipality":"28208","name":"相生市","prefecture":"兵庫県","source":{"dataset":"frogcat/japan-small-area","census":"平成27年国勢調査 小地域（e-Stat 統計LOD）","license":"MIT（リポジトリ）／政府統計の総合窓口(e-Stat)の利用規約（元データ・出典表記必要）","fetched":"2026-07-06"},"towns":[{"code":"28208001001","name":"相生１丁目","lat":34.799446,"lng":134.471861},{"code":"28208001002","name":"相生２丁目","lat":34.798441,"lng":134.472181},{"code":"28208001003","name":"相生３丁目","lat":34.797047,"lng":134.473485},{"code":"28208001004","name":"相生４丁目","lat":34.795036,"lng":134.471364},{"code":"28208001005","name":"相生５丁目","lat":34.796589,"lng":134.47536},{"code":"28208001006","name":"相生６丁目","lat":34.797663,"lng":134.470627},{"code":"282080060","name":"大谷町","lat":34.797009,"lng":134.479125},{"code":"282080070","name":"川原町","lat":34.798899,"lng":134.477923},{"code":"282080080","name":"野瀬","lat":34.78624,"lng":134.481469},{"code":"28208009001","name":"旭１丁目","lat":34.80317,"lng":134.467519},{"code":"28208009002","name":"旭２丁目","lat":34.803578,"lng":134.473551},{"code":"28208009003","name":"旭３丁目","lat":34.805852,"lng":134.470534},{"code":"28208009004","name":"旭４丁目","lat":34.808011,"lng":134.470464},{"code":"28208009005","name":"旭５丁目","lat":34.809437,"lng":134.473815},{"code":"28208009006","name":"旭６丁目","lat":34.807772,"lng":134.476395},{"code":"282080150","name":"垣内町","lat":34.812818,"lng":134.475395},{"code":"282080160","name":"本郷町","lat":34.817385,"lng":134.472942},{"code":"282080170","name":"大石町","lat":34.817062,"lng":134.477185},{"code":"282080180","name":"栄町","lat":34.815946,"lng":134.470827},{"code":"282080190","name":"陸本町","lat":34.814634,"lng":134.473254},{"code":"282080201","name":"菅原町","lat":34.81908,"lng":134.470892},{"code":"282080202","name":"ひかりが丘","lat":34.821979,"lng":134.467362},{"code":"28208021001","name":"山手１丁目","lat":34.821082,"lng":134.476287},{"code":"28208021002","name":"山手２丁目","lat":34.820969,"lng":134.480865},{"code":"282080230","name":"那波","lat":34.811784,"lng":134.453546},{"code":"282080240","name":"大島町","lat":34.807601,"lng":134.46865},{"code":"282080250","name":"那波本町","lat":34.811722,"lng":134.467002},{"code":"282080260","name":"那波東本町","lat":34.816583,"lng":134.468374},{"code":"282080270","name":"那波南本町","lat":34.806152,"lng":134.46266},{"code":"282080280","name":"那波西本町","lat":34.808488,"lng":134.461304},{"code":"282080290","name":"那波大浜町","lat":34.810285,"lng":134.468928},{"code":"282080300","name":"竜泉町","lat":34.827738,"lng":134.461745},{"code":"28208031001","name":"緑ケ丘１丁目","lat":34.819793,"lng":134.453277},{"code":"28208031002","name":"緑ケ丘２丁目","lat":34.82161,"lng":134.455493},{"code":"28208031003","name":"緑ケ丘３丁目","lat":34.822546,"lng":134.457617},{"code":"28208031004","name":"緑ケ丘４丁目","lat":34.820085,"lng":134.457755},{"code":"282080350","name":"青葉台","lat":34.812614,"lng":134.45138},{"code":"28208037001","name":"佐方１丁目","lat":34.803733,"lng":134.45009},{"code":"28208037002","name":"佐方２丁目","lat":34.801283,"lng":134.450087},{"code":"28208037003","name":"佐方３丁目","lat":34.800768,"lng":134.443157},{"code":"282080400","name":"山崎町","lat":34.807219,"lng":134.451019},{"code":"282080410","name":"千尋町","lat":34.801093,"lng":134.45389},{"code":"282080420","name":"那波野","lat":34.823872,"lng":134.493626},{"code":"28208043001","name":"那波野１丁目","lat":34.814998,"lng":134.492588},{"code":"28208043002","name":"那波野２丁目","lat":34.818133,"lng":134.490832},{"code":"28208043003","name":"那波野３丁目","lat":34.818821,"lng":134.49644},{"code":"28208046001","name":"古池１丁目","lat":34.810543,"lng":134.488095},{"code":"28208046002","name":"古池２丁目","lat":34.808319,"lng":134.485736},{"code":"282080480","name":"若狭野町野々","lat":34.830383,"lng":134.438806},{"code":"282080490","name":"若狭野町入野","lat":34.824702,"lng":134.443815},{"code":"282080500","name":"若狭野町","lat":34.828838,"lng":134.455075},{"code":"282080510","name":"若狭野町東後明","lat":34.834122,"lng":134.459238},{"code":"282080520","name":"若狭野町西後明","lat":34.83453,"lng":134.452075},{"code":"282080530","name":"若狭野町上松","lat":34.827546,"lng":134.447872},{"code":"282080540","name":"若狭野町八洞","lat":34.834129,"lng":134.433412},{"code":"282080550","name":"若狭野町寺田","lat":34.841789,"lng":134.437176},{"code":"282080560","name":"若狭野町下土井","lat":34.843288,"lng":134.431452},{"code":"282080570","name":"若狭野町出","lat":34.833664,"lng":134.429992},{"code":"282080580","name":"若狭野町福井","lat":34.836105,"lng":134.425458},{"code":"282080590","name":"若狭野町若狭野","lat":34.833037,"lng":134.417318},{"code":"282080600","name":"若狭野町雨内","lat":34.825123,"lng":134.424247},{"code":"282080610","name":"矢野町瓜生","lat":34.873123,"lng":134.445607},{"code":"282080620","name":"矢野町上","lat":34.866513,"lng":134.447439},{"code":"282080630","name":"矢野町菅谷","lat":34.863589,"lng":134.443526},{"code":"282080640","name":"矢野町二木","lat":34.859667,"lng":134.453239},{"code":"282080650","name":"矢野町真広","lat":34.855878,"lng":134.445692},{"code":"282080660","name":"矢野町下田","lat":34.847555,"lng":134.446003},{"code":"282080670","name":"矢野町上土井","lat":34.852651,"lng":134.437419},{"code":"282080680","name":"矢野町小河","lat":34.864575,"lng":134.432135},{"code":"282080690","name":"矢野町森","lat":34.877733,"lng":134.454734},{"code":"282080700","name":"矢野町中野","lat":34.875474,"lng":134.460079},{"code":"282080710","name":"矢野町金坂","lat":34.876876,"lng":134.469742},{"code":"282080720","name":"矢野町釜出","lat":34.882036,"lng":134.476697},{"code":"282080730","name":"矢野町榊","lat":34.885901,"lng":134.467119},{"code":"282080740","name":"矢野町能下","lat":34.889574,"lng":134.458106},{"code":"282080750","name":"相生","lat":34.775181,"lng":134.463342},{"code":"282080760","name":"池之内","lat":34.818519,"lng":134.484735},{"code":"282080770","name":"汐見台","lat":34.822256,"lng":134.484982},{"code":"282080780","name":"陸","lat":34.82525,"lng":134.480904},{"code":"282080790","name":"桜ケ丘町","lat":34.800376,"lng":134.46107},{"code":"282080800","name":"西谷町","lat":34.809379,"lng":134.451565},{"code":"282080840","name":"那波野","lat":34.815643,"lng":134.497031},{"code":"282080850","name":"陸，那波","lat":34.845751,"lng":134.456201},{"code":"282080860","name":"古池本町","lat":34.809771,"lng":134.484466},{"code":"282080870","name":"向陽台","lat":34.81341,"lng":134.487971},{"code":"28208088001","name":"双葉１丁目","lat":34.813716,"lng":134.47916},{"code":"28208088002","name":"双葉２丁目","lat":34.815371,"lng":134.481563},{"code":"28208088003","name":"双葉３丁目","lat":34.812049,"lng":134.482346},{"code":"28208091001","name":"赤坂１丁目","lat":34.814688,"lng":134.485611},{"code":"28208091002","name":"赤坂２丁目","lat":34.816458,"lng":134.485827}]}
