{"municipality":"28226","name":"淡路市","prefecture":"兵庫県","source":{"dataset":"frogcat/japan-small-area","census":"平成27年国勢調査 小地域（e-Stat 統計LOD）","license":"MIT（リポジトリ）／政府統計の総合窓口(e-Stat)の利用規約（元データ・出典表記必要）","fetched":"2026-07-06"},"towns":[{"code":"28226001001","name":"岩屋鵜崎","lat":34.576,"lng":135.021594},{"code":"28226001002","name":"岩屋田代","lat":34.58097,"lng":135.020782},{"code":"28226001003","name":"岩屋神前","lat":34.587509,"lng":135.02124},{"code":"28226001004","name":"岩屋東町","lat":34.588167,"lng":135.019229},{"code":"28226001005","name":"岩屋中町","lat":34.587614,"lng":135.017449},{"code":"28226001006","name":"岩屋茶間","lat":34.587604,"lng":135.014436},{"code":"28226001007","name":"岩屋橋本","lat":34.589561,"lng":135.016773},{"code":"28226001008","name":"岩屋西町","lat":34.590559,"lng":135.015122},{"code":"28226001009","name":"岩屋片浜","lat":34.592078,"lng":135.012476},{"code":"28226001010","name":"岩屋西岡","lat":34.59533,"lng":135.008798},{"code":"28226001011","name":"岩屋長浜","lat":34.597068,"lng":135.01072},{"code":"28226001012","name":"岩屋松帆","lat":34.605022,"lng":135.004421},{"code":"28226001013","name":"岩屋開京","lat":34.582648,"lng":134.999736},{"code":"28226001014","name":"岩屋大谷川","lat":34.603565,"lng":135.000506},{"code":"28226001015","name":"岩屋竜松","lat":34.599286,"lng":135.00793},{"code":"28226001016","name":"岩屋淡路サービスエリア","lat":34.58318,"lng":135.016213},{"code":"28226001017","name":"岩屋長谷","lat":34.595316,"lng":134.997499},{"code":"28226001018","name":"岩屋田ノ脇","lat":34.596743,"lng":135.003521},{"code":"28226001019","name":"岩屋淡路ハイウェイオアシス","lat":34.578139,"lng":135.011488},{"code":"28226001020","name":"岩屋開京","lat":34.586334,"lng":134.996064},{"code":"28226002001","name":"楠本谷山","lat":34.571491,"lng":134.986551},{"code":"28226002002","name":"楠本別所","lat":34.569976,"lng":135.002488},{"code":"28226002003","name":"楠本南鵜崎","lat":34.570387,"lng":135.017359},{"code":"28226002004","name":"楠本別所","lat":34.566118,"lng":135.016296},{"code":"28226002005","name":"楠本別所","lat":34.573528,"lng":135.011867},{"code":"282260030","name":"久留麻","lat":34.522829,"lng":134.990245},{"code":"282260040","name":"釜口","lat":34.491195,"lng":134.959153},{"code":"282260050","name":"楠本","lat":34.559724,"lng":134.993823},{"code":"282260060","name":"大磯","lat":34.553314,"lng":135.002158},{"code":"282260070","name":"小磯","lat":34.548199,"lng":134.997444},{"code":"282260080","name":"楠本","lat":34.548549,"lng":134.995737},{"code":"282260090","name":"浦","lat":34.541322,"lng":134.987291},{"code":"282260100","name":"白山","lat":34.534651,"lng":134.974665},{"code":"282260110","name":"中持","lat":34.544242,"lng":134.97121},{"code":"282260120","name":"河内","lat":34.527936,"lng":134.966501},{"code":"282260130","name":"久留麻","lat":34.523342,"lng":134.979153},{"code":"282260140","name":"仮屋","lat":34.514091,"lng":134.986128},{"code":"282260150","name":"谷","lat":34.512691,"lng":134.977567},{"code":"282260160","name":"下田","lat":34.509907,"lng":134.980262},{"code":"282260170","name":"釜口","lat":34.500817,"lng":134.960757},{"code":"282260180","name":"里","lat":34.400238,"lng":134.887779},{"code":"282260190","name":"下司","lat":34.410759,"lng":134.884869},{"code":"28226020001","name":"塩尾在","lat":34.413322,"lng":134.891844},{"code":"28226020002","name":"塩尾南","lat":34.409927,"lng":134.896295},{"code":"28226020003","name":"塩尾網城","lat":34.416942,"lng":134.894875},{"code":"282260210","name":"塩田新島","lat":34.418101,"lng":134.898484},{"code":"28226022001","name":"志筑天神","lat":34.443077,"lng":134.891233},{"code":"28226022002","name":"志筑天神の郷","lat":34.447376,"lng":134.89373},{"code":"28226022003","name":"志筑田井","lat":34.439548,"lng":134.899116},{"code":"28226022004","name":"志筑西谷","lat":34.432525,"lng":134.894346},{"code":"28226022005","name":"志筑連上","lat":34.433972,"lng":134.900562},{"code":"28226022006","name":"志筑連東","lat":34.435709,"lng":134.901653},{"code":"28226022007","name":"志筑殿下","lat":34.430441,"lng":134.899551},{"code":"28226022008","name":"志筑明神","lat":34.424117,"lng":134.892884},{"code":"28226022009","name":"志筑南","lat":34.431589,"lng":134.902996},{"code":"28226022010","name":"志筑北","lat":34.433484,"lng":134.904912},{"code":"28226022011","name":"志筑石神","lat":34.436524,"lng":134.907726},{"code":"28226022012","name":"志筑緑ヶ丘","lat":34.435864,"lng":134.89304},{"code":"282260230","name":"志筑新島","lat":34.426228,"lng":134.904469},{"code":"28226024001","name":"中田","lat":34.436605,"lng":134.887215},{"code":"28226024002","name":"中田","lat":34.438354,"lng":134.889026},{"code":"28226024003","name":"中田","lat":34.425268,"lng":134.881745},{"code":"28226024004","name":"中田","lat":34.432063,"lng":134.880023},{"code":"28226024005","name":"中田","lat":34.436092,"lng":134.877557},{"code":"28226024006","name":"中田","lat":34.434666,"lng":134.870365},{"code":"28226024007","name":"中田","lat":34.440905,"lng":134.876558},{"code":"28226024008","name":"中田","lat":34.441878,"lng":134.882566},{"code":"282260250","name":"池ノ内","lat":34.45727,"lng":134.882412},{"code":"282260260","name":"王子","lat":34.451512,"lng":134.88772},{"code":"28226027001","name":"野田尾","lat":34.475428,"lng":134.915248},{"code":"28226027002","name":"野田尾","lat":34.468108,"lng":134.913041},{"code":"28226027003","name":"野田尾","lat":34.470146,"lng":134.901739},{"code":"28226028001","name":"生穂","lat":34.465823,"lng":134.896874},{"code":"28226028002","name":"生穂","lat":34.458883,"lng":134.904195},{"code":"28226028003","name":"生穂","lat":34.456362,"lng":134.907148},{"code":"28226028004","name":"生穂","lat":34.454865,"lng":134.912411},{"code":"28226028005","name":"生穂","lat":34.452748,"lng":134.908557},{"code":"28226028006","name":"生穂","lat":34.46173,"lng":134.908772},{"code":"28226028007","name":"生穂林","lat":34.463921,"lng":134.917722},{"code":"28226028008","name":"生穂雨乞","lat":34.457531,"lng":134.919695},{"code":"28226028009","name":"生穂段","lat":34.455613,"lng":134.915437},{"code":"28226028010","name":"生穂浜北","lat":34.449086,"lng":134.920325},{"code":"28226028011","name":"生穂浜東","lat":34.448709,"lng":134.919664},{"code":"28226028012","name":"生穂浜中","lat":34.449516,"lng":134.918589},{"code":"28226028013","name":"生穂浜西","lat":34.448788,"lng":134.918185},{"code":"28226028014","name":"生穂浜南","lat":34.44795,"lng":134.918075},{"code":"28226028015","name":"生穂札場","lat":34.450977,"lng":134.919852},{"code":"28226028016","name":"生穂土器屋","lat":34.45246,"lng":134.922525},{"code":"28226028017","name":"生穂近江ケ原","lat":34.456828,"lng":134.92437},{"code":"28226029001","name":"大谷","lat":34.453805,"lng":134.897196},{"code":"28226029002","name":"大谷","lat":34.450825,"lng":134.902564},{"code":"28226029003","name":"大谷東","lat":34.450467,"lng":134.909385},{"code":"28226029004","name":"大谷南","lat":34.441888,"lng":134.91272},{"code":"28226029005","name":"大谷八幡","lat":34.448762,"lng":134.914075},{"code":"28226029006","name":"大谷覗","lat":34.446456,"lng":134.916735},{"code":"28226030001","name":"長沢","lat":34.484544,"lng":134.915531},{"code":"28226030002","name":"長沢","lat":34.487225,"lng":134.905131},{"code":"28226030003","name":"長沢","lat":34.481757,"lng":134.905366},{"code":"28226030004","name":"長沢","lat":34.478967,"lng":134.892939},{"code":"28226030005","name":"長沢","lat":34.485584,"lng":134.89778},{"code":"28226031001","name":"佐野小井","lat":34.482247,"lng":134.947652},{"code":"28226031002","name":"佐野柏原","lat":34.473935,"lng":134.94083},{"code":"28226031003","name":"佐野井筒","lat":34.466081,"lng":134.940466},{"code":"28226031004","name":"佐野神原","lat":34.468853,"lng":134.934082},{"code":"28226031005","name":"佐野梅里","lat":34.465972,"lng":134.931568},{"code":"28226031006","name":"佐野神ノ内","lat":34.463848,"lng":134.929126},{"code":"28226031007","name":"佐野小田ノ前","lat":34.459378,"lng":134.930274},{"code":"28226031008","name":"佐野畦ケ内","lat":34.456676,"lng":134.928547},{"code":"28226031009","name":"佐野北浜","lat":34.463546,"lng":134.938622},{"code":"28226031010","name":"佐野中浜","lat":34.462061,"lng":134.937062},{"code":"28226031011","name":"佐野南浜","lat":34.460035,"lng":134.934479},{"code":"282260320","name":"興隆寺","lat":34.489305,"lng":134.931904},{"code":"282260330","name":"大町上","lat":34.429368,"lng":134.851848},{"code":"282260340","name":"大町下","lat":34.437821,"lng":134.849567},{"code":"282260350","name":"大町畑","lat":34.427958,"lng":134.867015},{"code":"282260360","name":"木曽下","lat":34.420954,"lng":134.849532},{"code":"28226037001","name":"木曽上","lat":34.416931,"lng":134.867705},{"code":"28226037002","name":"木曽上","lat":34.413186,"lng":134.850857},{"code":"282260380","name":"木曽上畑","lat":34.408179,"lng":134.854566},{"code":"282260390","name":"尾崎","lat":34.491389,"lng":134.866071},{"code":"282260400","name":"新村","lat":34.474351,"lng":134.868202},{"code":"282260410","name":"遠田","lat":34.476487,"lng":134.87697},{"code":"282260420","name":"北山","lat":34.471705,"lng":134.855899},{"code":"282260430","name":"郡家","lat":34.478679,"lng":134.850508},{"code":"282260440","name":"多賀","lat":34.461959,"lng":134.845479},{"code":"282260450","name":"下河合","lat":34.458427,"lng":134.862972},{"code":"282260460","name":"上河合","lat":34.450927,"lng":134.871269},{"code":"282260470","name":"竹谷","lat":34.442536,"lng":134.866227},{"code":"282260480","name":"井手","lat":34.447245,"lng":134.857739},{"code":"282260490","name":"中村","lat":34.453236,"lng":134.853973},{"code":"282260500","name":"江井","lat":34.458843,"lng":134.822538},{"code":"282260510","name":"柳沢","lat":34.447963,"lng":134.837375},{"code":"282260520","name":"明神","lat":34.447377,"lng":134.799475},{"code":"282260530","name":"草香北","lat":34.448399,"lng":134.808184},{"code":"282260540","name":"高山","lat":34.442403,"lng":134.819228},{"code":"282260550","name":"草香","lat":34.438783,"lng":134.805691},{"code":"282260560","name":"南","lat":34.432601,"lng":134.803317},{"code":"282260570","name":"深草","lat":34.428897,"lng":134.797431},{"code":"282260580","name":"山田","lat":34.429737,"lng":134.820844},{"code":"282260590","name":"入野","lat":34.428742,"lng":134.831501},{"code":"28226061001","name":"仁井本村","lat":34.528464,"lng":134.944148},{"code":"28226061002","name":"仁井原田","lat":34.516568,"lng":134.940184},{"code":"282260620","name":"野島常盤","lat":34.558253,"lng":134.961483},{"code":"28226063001","name":"富島東之町","lat":34.547389,"lng":134.9348},{"code":"28226063002","name":"富島中之町","lat":34.54602,"lng":134.92872},{"code":"28226063003","name":"富島西之町","lat":34.545325,"lng":134.925624},{"code":"28226063005","name":"富島岡畑","lat":34.544339,"lng":134.922796},{"code":"28226065001","name":"育波浜東","lat":34.528672,"lng":134.895007},{"code":"28226065002","name":"育波浜中","lat":34.527913,"lng":134.891668},{"code":"28226065003","name":"育波戌亥","lat":34.527239,"lng":134.889656},{"code":"28226065004","name":"育波西ノ町","lat":34.524418,"lng":134.88648},{"code":"28226065005","name":"育波里","lat":34.522183,"lng":134.900631},{"code":"28226066001","name":"室津小川","lat":34.515562,"lng":134.874321},{"code":"28226066002","name":"室津南","lat":34.519435,"lng":134.877471},{"code":"28226066003","name":"室津中所","lat":34.520543,"lng":134.87834},{"code":"28226066004","name":"室津八幡","lat":34.521634,"lng":134.878714},{"code":"28226066005","name":"室津東","lat":34.523014,"lng":134.879278},{"code":"28226066006","name":"室津森下","lat":34.521289,"lng":134.88122},{"code":"28226066007","name":"室津里","lat":34.509454,"lng":134.883579},{"code":"282260670","name":"富島","lat":34.539499,"lng":134.929945},{"code":"282260680","name":"久野々","lat":34.514216,"lng":134.927714},{"code":"282260690","name":"長畠","lat":34.535564,"lng":134.938944},{"code":"282260700","name":"舟木","lat":34.541964,"lng":134.948154},{"code":"28226071001","name":"小田太田","lat":34.533113,"lng":134.955041},{"code":"28226071002","name":"小田霊仙","lat":34.516995,"lng":134.953205},{"code":"28226072001","name":"野島蟇浦梨本","lat":34.553767,"lng":134.941279},{"code":"28226072002","name":"野島蟇浦里","lat":34.556271,"lng":134.945428},{"code":"28226072003","name":"野島蟇浦浜","lat":34.558668,"lng":134.944779},{"code":"28226072004","name":"野島蟇浦大石","lat":34.562152,"lng":134.95036},{"code":"282260730","name":"野島轟木","lat":34.570911,"lng":134.958006},{"code":"282260740","name":"野島大川","lat":34.580878,"lng":134.96536},{"code":"282260750","name":"野島平林","lat":34.586864,"lng":134.96906},{"code":"282260760","name":"野島江崎","lat":34.588961,"lng":134.980567},{"code":"282260770","name":"野島貴船","lat":34.584296,"lng":134.974063},{"code":"282260780","name":"斗ノ内","lat":34.526567,"lng":134.911304},{"code":"282260790","name":"浅野神田","lat":34.534141,"lng":134.914019},{"code":"282260800","name":"浅野南","lat":34.532825,"lng":134.921771},{"code":"28226081001","name":"黒谷","lat":34.51641,"lng":134.90048},{"code":"28226081002","name":"黒谷五斗長","lat":34.509302,"lng":134.904541},{"code":"282260820","name":"生田畑","lat":34.499018,"lng":134.910521},{"code":"282260830","name":"生田大坪","lat":34.505707,"lng":134.89477},{"code":"28226084001","name":"生田田尻","lat":34.49391,"lng":134.898835},{"code":"28226084002","name":"生田田尻","lat":34.491649,"lng":134.886518}]}
