{"municipality":"29212","name":"宇陀市","prefecture":"奈良県","source":{"dataset":"frogcat/japan-small-area","census":"平成27年国勢調査 小地域（e-Stat 統計LOD）","license":"MIT（リポジトリ）／政府統計の総合窓口(e-Stat)の利用規約（元データ・出典表記必要）","fetched":"2026-07-06"},"towns":[{"code":"292120010","name":"大字万六","lat":34.474609,"lng":135.934105},{"code":"292120020","name":"大字出新","lat":34.47597,"lng":135.933969},{"code":"292120040","name":"大字上新","lat":34.478616,"lng":135.932521},{"code":"292120050","name":"大字中新","lat":34.479951,"lng":135.932708},{"code":"292120070","name":"大字上中","lat":34.481443,"lng":135.932927},{"code":"292120080","name":"大字上本","lat":34.483118,"lng":135.93256},{"code":"292120100","name":"大字下茶","lat":34.483935,"lng":135.932011},{"code":"292120110","name":"大字下本","lat":34.482721,"lng":135.931462},{"code":"292120120","name":"大字下中","lat":34.481786,"lng":135.932287},{"code":"292120130","name":"大字下出口","lat":34.481607,"lng":135.931543},{"code":"292120140","name":"大字小出口","lat":34.480602,"lng":135.931725},{"code":"292120160","name":"大字宮奥","lat":34.453524,"lng":135.904258},{"code":"292120170","name":"大字下宮奥","lat":34.458272,"lng":135.925162},{"code":"292120180","name":"大字関戸","lat":34.462206,"lng":135.932457},{"code":"292120190","name":"大字大東","lat":34.469544,"lng":135.935994},{"code":"292120200","name":"大字黒木","lat":34.465937,"lng":135.919367},{"code":"292120210","name":"大字本郷","lat":34.474777,"lng":135.904146},{"code":"292120220","name":"大字迫間","lat":34.481018,"lng":135.922625},{"code":"292120240","name":"大字中庄","lat":34.478657,"lng":135.925479},{"code":"292120250","name":"大字拾生","lat":34.475033,"lng":135.932058},{"code":"292120270","name":"大字春日","lat":34.484236,"lng":135.936342},{"code":"292120290","name":"大字西山","lat":34.484187,"lng":135.923026},{"code":"292120330","name":"大字岩室","lat":34.489179,"lng":135.924675},{"code":"292120370","name":"大字下竹","lat":34.488552,"lng":135.931754},{"code":"292120380","name":"大字小附","lat":34.494284,"lng":135.928854},{"code":"292120410","name":"大字嬉河原","lat":34.488096,"lng":135.912865},{"code":"292120420","name":"大字芝生","lat":34.493408,"lng":135.91777},{"code":"292120430","name":"大字半阪","lat":34.491955,"lng":135.904851},{"code":"292120440","name":"大字馬取柿","lat":34.495501,"lng":135.91213},{"code":"292120450","name":"大字麻生田","lat":34.500703,"lng":135.913975},{"code":"292120460","name":"大字内原","lat":34.498279,"lng":135.929488},{"code":"292120470","name":"大字口今井","lat":34.505605,"lng":135.926148},{"code":"292120480","name":"大字野依","lat":34.501291,"lng":135.935392},{"code":"292120490","name":"大字平尾","lat":34.510484,"lng":135.935236},{"code":"292120500","name":"大字五津","lat":34.516363,"lng":135.940431},{"code":"292120510","name":"大字岩清水","lat":34.480543,"lng":135.945042},{"code":"292120520","name":"大字調子","lat":34.487132,"lng":135.952219},{"code":"292120530","name":"大字塚脇","lat":34.488579,"lng":135.947317},{"code":"292120540","name":"大字藤井","lat":34.483179,"lng":135.957944},{"code":"292120550","name":"大字才ケ辻","lat":34.477632,"lng":135.955931},{"code":"292120560","name":"大字守道","lat":34.467492,"lng":135.949791},{"code":"292120610","name":"大字山口","lat":34.456987,"lng":135.949885},{"code":"292120620","name":"大字白鳥居","lat":34.454128,"lng":135.953716},{"code":"292120630","name":"大字上品","lat":34.458251,"lng":135.961293},{"code":"292120640","name":"大字下品","lat":34.461943,"lng":135.961071},{"code":"292120650","name":"大字和田","lat":34.466591,"lng":135.963769},{"code":"292120660","name":"大字小和田","lat":34.454209,"lng":135.968075},{"code":"292120670","name":"大字牧","lat":34.433453,"lng":135.936608},{"code":"292120680","name":"大字栗野","lat":34.448546,"lng":135.932432},{"code":"292120690","name":"大字田原","lat":34.440685,"lng":135.948363},{"code":"292120700","name":"大字上片岡","lat":34.440644,"lng":135.95963},{"code":"292120710","name":"大字下片岡","lat":34.449927,"lng":135.958015},{"code":"292120720","name":"大字東平尾","lat":34.448155,"lng":135.966096},{"code":"292120730","name":"大字大熊","lat":34.443431,"lng":135.970354},{"code":"292120740","name":"大字古市場","lat":34.472763,"lng":135.968793},{"code":"292120750","name":"大字岩崎","lat":34.475995,"lng":135.961669},{"code":"292120760","name":"大字別所","lat":34.480977,"lng":135.965302},{"code":"292120770","name":"大字平井","lat":34.48866,"lng":135.981618},{"code":"292120780","name":"大字見田","lat":34.48139,"lng":135.978685},{"code":"292120790","name":"大字大沢","lat":34.478179,"lng":135.974759},{"code":"292120800","name":"大字大神","lat":34.481032,"lng":135.988944},{"code":"292120810","name":"大字松井","lat":34.471248,"lng":135.978966},{"code":"292120820","name":"大字稲戸","lat":34.462304,"lng":135.970695},{"code":"292120830","name":"大字駒帰","lat":34.463319,"lng":135.97882},{"code":"292120840","name":"大字佐倉","lat":34.447775,"lng":135.980466},{"code":"292120850","name":"大字宇賀志","lat":34.452642,"lng":135.995938},{"code":"292120860","name":"大字東郷","lat":34.469798,"lng":135.986717},{"code":"292120870","name":"大字入谷","lat":34.478294,"lng":135.995446},{"code":"292120880","name":"大字下芳野","lat":34.470858,"lng":136.002346},{"code":"292120890","name":"大字上芳野","lat":34.463754,"lng":136.016496},{"code":"292120900","name":"大字岩端","lat":34.469315,"lng":136.036122},{"code":"292120910","name":"大字戒場","lat":34.561625,"lng":135.982185},{"code":"292120920","name":"大字山辺三","lat":34.549042,"lng":135.988926},{"code":"292120930","name":"大字額井","lat":34.55394,"lng":135.9722},{"code":"292120940","name":"大字赤瀬","lat":34.552938,"lng":135.960813},{"code":"292120950","name":"大字長峯","lat":34.539294,"lng":135.972511},{"code":"29212096001","name":"大字福地","lat":34.53352,"lng":135.966014},{"code":"29212096002","name":"大字福地","lat":34.537053,"lng":135.963136},{"code":"29212097001","name":"大字萩原","lat":34.54911,"lng":135.951923},{"code":"29212097002","name":"大字萩原","lat":34.542547,"lng":135.952708},{"code":"29212097003","name":"大字萩原","lat":34.539804,"lng":135.946658},{"code":"29212097004","name":"大字萩原","lat":34.534882,"lng":135.955777},{"code":"29212097005","name":"大字萩原","lat":34.532593,"lng":135.956076},{"code":"29212097006","name":"大字萩原","lat":34.532063,"lng":135.957929},{"code":"29212097007","name":"大字萩原","lat":34.53189,"lng":135.957134},{"code":"29212097008","name":"大字萩原","lat":34.531644,"lng":135.959626},{"code":"29212097009","name":"大字萩原","lat":34.533012,"lng":135.960193},{"code":"29212097010","name":"大字萩原","lat":34.530332,"lng":135.958501},{"code":"29212097011","name":"大字萩原","lat":34.528033,"lng":135.961193},{"code":"29212097012","name":"大字萩原","lat":34.528973,"lng":135.958436},{"code":"29212097013","name":"大字萩原","lat":34.528918,"lng":135.956464},{"code":"29212097014","name":"大字萩原","lat":34.528851,"lng":135.955149},{"code":"29212097015","name":"大字萩原","lat":34.530816,"lng":135.956971},{"code":"29212097016","name":"大字萩原","lat":34.530476,"lng":135.955579},{"code":"29212097017","name":"大字萩原","lat":34.536055,"lng":135.952326},{"code":"29212097018","name":"大字萩原","lat":34.525603,"lng":135.957984},{"code":"292120980","name":"萩乃里","lat":34.525819,"lng":135.954903},{"code":"292120990","name":"大字下井足","lat":34.524005,"lng":135.951123},{"code":"29212100001","name":"大字篠楽","lat":34.523423,"lng":135.940905},{"code":"29212100002","name":"大字篠楽","lat":34.526436,"lng":135.945093},{"code":"292121010","name":"大字雨師","lat":34.520963,"lng":135.931037},{"code":"292121020","name":"大字安田","lat":34.518419,"lng":135.926503},{"code":"292121030","name":"大字笠間","lat":34.513187,"lng":135.918238},{"code":"292121040","name":"大字上井足","lat":34.512973,"lng":135.956174},{"code":"292121050","name":"大字足立","lat":34.507975,"lng":135.945297},{"code":"292121060","name":"大字池上","lat":34.505171,"lng":135.949442},{"code":"292121070","name":"大字高塚","lat":34.501932,"lng":135.946198},{"code":"292121080","name":"大字福西","lat":34.501873,"lng":135.941934},{"code":"292121090","name":"大字栗谷","lat":34.502149,"lng":135.953049},{"code":"292121100","name":"大字比布","lat":34.494979,"lng":135.944695},{"code":"292121110","name":"大字石田","lat":34.498818,"lng":135.956558},{"code":"292121120","name":"大字山路","lat":34.500763,"lng":135.962558},{"code":"292121130","name":"大字大貝","lat":34.498068,"lng":135.96667},{"code":"292121140","name":"大字澤","lat":34.49359,"lng":135.971628},{"code":"292121150","name":"大字三宮寺","lat":34.487038,"lng":135.963153},{"code":"292121160","name":"大字母里","lat":34.490571,"lng":135.955462},{"code":"292121170","name":"大字内牧","lat":34.487972,"lng":136.015576},{"code":"292121180","name":"大字八滝","lat":34.5011,"lng":135.985115},{"code":"292121190","name":"大字諸木野","lat":34.500386,"lng":136.020687},{"code":"29212120001","name":"大字赤埴","lat":34.505124,"lng":136.003073},{"code":"29212120002","name":"大字赤埴","lat":34.512553,"lng":136.013857},{"code":"292121210","name":"大字高井","lat":34.51527,"lng":135.993317},{"code":"292121220","name":"大字自明","lat":34.513541,"lng":135.9789},{"code":"29212123001","name":"大字桧牧","lat":34.521918,"lng":135.970082},{"code":"29212123002","name":"大字桧牧","lat":34.531765,"lng":135.985682},{"code":"292121240","name":"大字荷阪","lat":34.534364,"lng":136.007078},{"code":"292121250","name":"大字角柄","lat":34.534842,"lng":135.941698},{"code":"292121260","name":"大字柳","lat":34.528497,"lng":135.936202},{"code":"29212127001","name":"天満台西１丁目","lat":34.541643,"lng":135.968339},{"code":"29212127002","name":"天満台西２丁目","lat":34.543693,"lng":135.967434},{"code":"29212127003","name":"天満台西３丁目","lat":34.543877,"lng":135.971748},{"code":"29212127004","name":"天満台西４丁目","lat":34.546058,"lng":135.970144},{"code":"29212128001","name":"天満台東１丁目","lat":34.545984,"lng":135.975589},{"code":"29212128002","name":"天満台東２丁目","lat":34.547673,"lng":135.974468},{"code":"29212128003","name":"天満台東３丁目","lat":34.548283,"lng":135.979224},{"code":"29212128004","name":"天満台東４丁目","lat":34.549374,"lng":135.97818},{"code":"29212129001","name":"あかね台１丁目","lat":34.532412,"lng":135.951651},{"code":"29212129002","name":"あかね台２丁目","lat":34.535002,"lng":135.948241},{"code":"29212130001","name":"ひのき坂１丁目","lat":34.535791,"lng":135.959668},{"code":"29212130002","name":"ひのき坂２丁目","lat":34.536737,"lng":135.961407},{"code":"29212130003","name":"ひのき坂３丁目","lat":34.538498,"lng":135.959133},{"code":"292121310","name":"桜が丘","lat":34.533808,"lng":135.958632},{"code":"292121320","name":"高萩台","lat":34.530705,"lng":135.953065},{"code":"29212133001","name":"榛見が丘１丁目","lat":34.530312,"lng":135.949292},{"code":"29212133002","name":"榛見が丘２丁目","lat":34.53202,"lng":135.948208},{"code":"29212134001","name":"大字向渕","lat":34.589943,"lng":136.011351},{"code":"29212134002","name":"大字向渕","lat":34.576213,"lng":136.000649},{"code":"29212134003","name":"大字向渕","lat":34.580484,"lng":135.985158},{"code":"29212134004","name":"大字向渕","lat":34.570597,"lng":135.987023},{"code":"29212135001","name":"大字大野","lat":34.571546,"lng":136.007757},{"code":"29212135002","name":"大字大野","lat":34.558107,"lng":136.018532},{"code":"29212135003","name":"大字大野","lat":34.557872,"lng":136.003541},{"code":"29212135004","name":"大字大野","lat":34.556787,"lng":135.993956},{"code":"29212136001","name":"大字三本松","lat":34.578369,"lng":136.020371},{"code":"29212136002","name":"大字三本松","lat":34.567973,"lng":136.024416},{"code":"29212136003","name":"大字三本松","lat":34.570931,"lng":136.031579},{"code":"29212136004","name":"大字三本松","lat":34.579422,"lng":136.035607},{"code":"29212136005","name":"大字三本松","lat":34.579254,"lng":136.045501},{"code":"292121370","name":"大字砥取","lat":34.557289,"lng":136.034734},{"code":"292121380","name":"大字瀧谷","lat":34.55826,"lng":136.045069},{"code":"29212139001","name":"大字西谷","lat":34.543894,"lng":136.064481},{"code":"29212139002","name":"大字西谷","lat":34.57167,"lng":136.051437},{"code":"292121400","name":"大字竜口","lat":34.550927,"lng":136.083044},{"code":"292121410","name":"大字黒岩","lat":34.500119,"lng":136.071673},{"code":"29212142001","name":"大字田口元上田口","lat":34.497811,"lng":136.043332},{"code":"29212142002","name":"大字田口元上田口","lat":34.485047,"lng":136.056121},{"code":"292121430","name":"大字田口元角川","lat":34.509416,"lng":136.062825},{"code":"29212144001","name":"大字下田口","lat":34.51514,"lng":136.055629},{"code":"29212144002","name":"大字下田口","lat":34.512107,"lng":136.038107},{"code":"29212144003","name":"大字下田口","lat":34.520344,"lng":136.072423},{"code":"29212145001","name":"大字室生","lat":34.53261,"lng":136.049184},{"code":"29212145002","name":"大字室生","lat":34.543291,"lng":136.030753},{"code":"29212145003","name":"大字室生","lat":34.526034,"lng":136.028649},{"code":"29212146001","name":"大字無山","lat":34.588201,"lng":135.978563},{"code":"29212146002","name":"大字無山","lat":34.587351,"lng":135.972483},{"code":"292121470","name":"大字多田","lat":34.594196,"lng":135.989678},{"code":"292121480","name":"大字染田","lat":34.603739,"lng":135.989484},{"code":"292121490","name":"大字小原","lat":34.60989,"lng":136.00303},{"code":"29212150001","name":"大字上笠間","lat":34.604287,"lng":136.013822},{"code":"29212150002","name":"大字上笠間","lat":34.612487,"lng":136.019079},{"code":"29212150003","name":"大字上笠間","lat":34.610335,"lng":136.028116},{"code":"29212150004","name":"大字上笠間","lat":34.611521,"lng":136.039332},{"code":"29212150005","name":"大字上笠間","lat":34.612058,"lng":136.050793},{"code":"29212150006","name":"大字上笠間","lat":34.601679,"lng":136.032138},{"code":"292121510","name":"大字下笠間","lat":34.623077,"lng":136.020624},{"code":"292121520","name":"大字深野","lat":34.593978,"lng":136.040346}]}
