{"municipality":"29322","name":"山辺郡山添村","prefecture":"奈良県","source":{"dataset":"frogcat/japan-small-area","census":"平成27年国勢調査 小地域（e-Stat 統計LOD）","license":"MIT（リポジトリ）／政府統計の総合窓口(e-Stat)の利用規約（元データ・出典表記必要）","fetched":"2026-07-06"},"towns":[{"code":"293220010","name":"大字室津","lat":34.681143,"lng":135.961002},{"code":"293220020","name":"大字松尾","lat":34.675213,"lng":135.963705},{"code":"293220030","name":"大字的野","lat":34.663233,"lng":135.967969},{"code":"293220040","name":"大字峰寺","lat":34.670006,"lng":135.978075},{"code":"293220050","name":"大字桐山","lat":34.684874,"lng":135.974319},{"code":"293220060","name":"大字北野","lat":34.680889,"lng":135.990303},{"code":"293220070","name":"大字春日","lat":34.680784,"lng":136.050963},{"code":"293220080","name":"大字大西","lat":34.682705,"lng":136.040861},{"code":"293220090","name":"大字菅生","lat":34.667788,"lng":136.041108},{"code":"293220100","name":"大字上津","lat":34.681231,"lng":136.025867},{"code":"293220110","name":"大字下津","lat":34.689328,"lng":136.035211},{"code":"293220120","name":"大字遅瀬","lat":34.695966,"lng":136.048481},{"code":"293220130","name":"大字中峰山","lat":34.692897,"lng":136.067074},{"code":"293220140","name":"大字広代","lat":34.674725,"lng":136.056828},{"code":"293220150","name":"大字中之庄","lat":34.678379,"lng":136.064991},{"code":"293220160","name":"大字吉田","lat":34.683049,"lng":136.073998},{"code":"293220170","name":"大字広瀬","lat":34.676578,"lng":136.079735},{"code":"293220180","name":"大字鵜山","lat":34.664232,"lng":136.074912},{"code":"293220190","name":"大字片平","lat":34.665613,"lng":136.0651},{"code":"293220200","name":"大字葛尾","lat":34.655223,"lng":136.062968},{"code":"293220210","name":"大字三ケ谷","lat":34.654427,"lng":136.020494},{"code":"293220220","name":"大字勝原","lat":34.64813,"lng":136.034509},{"code":"293220230","name":"大字岩屋","lat":34.639869,"lng":136.05895},{"code":"293220240","name":"大字毛原","lat":34.630437,"lng":136.045245},{"code":"293220250","name":"大字切幡","lat":34.636311,"lng":136.007441},{"code":"293220260","name":"大字伏拝","lat":34.662432,"lng":135.997758},{"code":"293220270","name":"大字助命","lat":34.654407,"lng":136.003729},{"code":"293220280","name":"大字箕輪","lat":34.665162,"lng":136.014821},{"code":"293220290","name":"大字大塩","lat":34.675141,"lng":136.010579},{"code":"293220300","name":"大字堂前","lat":34.663849,"lng":136.015897}]}
