{"municipality":"29342","name":"生駒郡平群町","prefecture":"奈良県","source":{"dataset":"frogcat/japan-small-area","census":"平成27年国勢調査 小地域（e-Stat 統計LOD）","license":"MIT（リポジトリ）／政府統計の総合窓口(e-Stat)の利用規約（元データ・出典表記必要）","fetched":"2026-07-06"},"towns":[{"code":"293420010","name":"大字鳴川","lat":34.65714,"lng":135.679644},{"code":"293420020","name":"大字櫟原","lat":34.646887,"lng":135.68013},{"code":"29342003001","name":"椿台１丁目","lat":34.642094,"lng":135.695623},{"code":"29342003002","name":"椿台２丁目","lat":34.641177,"lng":135.693495},{"code":"29342003003","name":"椿台３丁目","lat":34.642517,"lng":135.692336},{"code":"29342003004","name":"椿台４丁目","lat":34.64353,"lng":135.693951},{"code":"293420040","name":"大字椣原","lat":34.644459,"lng":135.70912},{"code":"29342005001","name":"緑ケ丘１丁目","lat":34.644055,"lng":135.697991},{"code":"29342005002","name":"緑ケ丘２丁目","lat":34.642936,"lng":135.699795},{"code":"29342005003","name":"緑ケ丘３丁目","lat":34.644922,"lng":135.702603},{"code":"29342005004","name":"緑ケ丘４丁目","lat":34.646161,"lng":135.700798},{"code":"29342005005","name":"緑ケ丘５丁目","lat":34.646371,"lng":135.698909},{"code":"29342005006","name":"緑ケ丘６丁目","lat":34.648303,"lng":135.697656},{"code":"293420060","name":"大字西向","lat":34.639447,"lng":135.697695},{"code":"29342007001","name":"上庄１丁目","lat":34.639616,"lng":135.702688},{"code":"29342007002","name":"上庄２丁目","lat":34.640575,"lng":135.705141},{"code":"29342007003","name":"上庄３丁目","lat":34.640616,"lng":135.707406},{"code":"29342007004","name":"上庄４丁目","lat":34.636991,"lng":135.706549},{"code":"29342007005","name":"上庄５丁目","lat":34.637216,"lng":135.702164},{"code":"29342008001","name":"大字梨本","lat":34.634423,"lng":135.700666},{"code":"29342008002","name":"大字梨本","lat":34.633453,"lng":135.704473},{"code":"29342008003","name":"大字梨本","lat":34.632489,"lng":135.696469},{"code":"29342008004","name":"大字梨本","lat":34.639881,"lng":135.711841},{"code":"29342009001","name":"若葉台１丁目","lat":34.636109,"lng":135.695644},{"code":"29342009002","name":"若葉台２丁目","lat":34.638777,"lng":135.693629},{"code":"29342009003","name":"若葉台３丁目","lat":34.636637,"lng":135.69062},{"code":"29342009004","name":"若葉台４丁目","lat":34.635494,"lng":135.692518},{"code":"29342009005","name":"若葉台５丁目","lat":34.634485,"lng":135.694636},{"code":"29342010001","name":"吉新１丁目","lat":34.62856,"lng":135.701655},{"code":"29342010002","name":"吉新２丁目","lat":34.631337,"lng":135.701219},{"code":"29342010003","name":"吉新３丁目","lat":34.631549,"lng":135.703568},{"code":"29342010004","name":"吉新４丁目","lat":34.628959,"lng":135.703643},{"code":"29342011001","name":"大字三里","lat":34.631945,"lng":135.711632},{"code":"29342011002","name":"大字三里","lat":34.632854,"lng":135.705584},{"code":"293420120","name":"大字白石畑","lat":34.629456,"lng":135.717571},{"code":"293420130","name":"大字平等寺","lat":34.624209,"lng":135.709924},{"code":"293420140","name":"大字下垣内","lat":34.626325,"lng":135.704588},{"code":"29342015001","name":"大字福貴","lat":34.629885,"lng":135.690221},{"code":"29342015002","name":"大字福貴","lat":34.63067,"lng":135.697409},{"code":"29342016001","name":"初香台１丁目","lat":34.627977,"lng":135.699778},{"code":"29342016002","name":"初香台２丁目","lat":34.626552,"lng":135.698722},{"code":"29342016003","name":"初香台３丁目","lat":34.625126,"lng":135.697829},{"code":"29342016004","name":"初香台４丁目","lat":34.624171,"lng":135.696772},{"code":"29342016005","name":"初香台５丁目","lat":34.624596,"lng":135.699121},{"code":"293420170","name":"大字福貴畑","lat":34.633454,"lng":135.67372},{"code":"293420180","name":"大字久安寺","lat":34.621549,"lng":135.666497},{"code":"293420190","name":"大字信貴畑","lat":34.617881,"lng":135.680126},{"code":"293420200","name":"大字椹原","lat":34.616528,"lng":135.693655},{"code":"293420210","name":"大字越木塚","lat":34.620761,"lng":135.691159},{"code":"293420220","name":"大字若井","lat":34.622007,"lng":135.699584},{"code":"29342023101","name":"春日丘１丁目","lat":34.617206,"lng":135.700835},{"code":"29342023102","name":"春日丘２丁目","lat":34.615561,"lng":135.701391},{"code":"293420240","name":"大字椿井","lat":34.618437,"lng":135.710949},{"code":"29342025001","name":"竜田川１丁目","lat":34.614582,"lng":135.711879},{"code":"29342025002","name":"竜田川２丁目","lat":34.612718,"lng":135.711706},{"code":"29342025003","name":"竜田川３丁目","lat":34.61128,"lng":135.710336},{"code":"29342026001","name":"北信貴ケ丘１丁目","lat":34.611782,"lng":135.706349},{"code":"29342026002","name":"北信貴ケ丘２丁目","lat":34.611137,"lng":135.708235},{"code":"293420270","name":"大字信貴山","lat":34.611177,"lng":135.67013},{"code":"29342028001","name":"西宮１丁目","lat":34.620754,"lng":135.703446},{"code":"29342028002","name":"西宮２丁目","lat":34.617243,"lng":135.705576},{"code":"29342028003","name":"西宮３丁目","lat":34.617279,"lng":135.703753},{"code":"29342029001","name":"光ケ丘１丁目","lat":34.625677,"lng":135.70145},{"code":"29342029002","name":"光ケ丘２丁目","lat":34.625692,"lng":135.699551},{"code":"29342030001","name":"菊美台１丁目","lat":34.645976,"lng":135.707654},{"code":"29342030002","name":"菊美台２丁目","lat":34.645943,"lng":135.710122},{"code":"29342030003","name":"菊美台３丁目","lat":34.646421,"lng":135.712222},{"code":"29342030004","name":"菊美台４丁目","lat":34.646621,"lng":135.715386},{"code":"29342030005","name":"菊美台５丁目","lat":34.648276,"lng":135.712478}]}
