{"municipality":"29343","name":"生駒郡三郷町","prefecture":"奈良県","source":{"dataset":"frogcat/japan-small-area","census":"平成27年国勢調査 小地域（e-Stat 統計LOD）","license":"MIT（リポジトリ）／政府統計の総合窓口(e-Stat)の利用規約（元データ・出典表記必要）","fetched":"2026-07-06"},"towns":[{"code":"29343001001","name":"勢野西１丁目","lat":34.600547,"lng":135.695255},{"code":"29343001002","name":"勢野西２丁目","lat":34.603696,"lng":135.69592},{"code":"29343001003","name":"勢野西３丁目","lat":34.606172,"lng":135.694961},{"code":"29343001004","name":"勢野西４丁目","lat":34.606612,"lng":135.69278},{"code":"29343001005","name":"勢野西５丁目","lat":34.606575,"lng":135.690693},{"code":"29343002001","name":"勢野東１丁目","lat":34.602376,"lng":135.69967},{"code":"29343002002","name":"勢野東２丁目","lat":34.604802,"lng":135.699254},{"code":"29343002003","name":"勢野東３丁目","lat":34.607749,"lng":135.699521},{"code":"29343002004","name":"勢野東４丁目","lat":34.605319,"lng":135.702748},{"code":"29343002005","name":"勢野東５丁目","lat":34.602597,"lng":135.702965},{"code":"29343002006","name":"勢野東６丁目","lat":34.601788,"lng":135.707418},{"code":"29343003001","name":"立野北１丁目","lat":34.596231,"lng":135.692136},{"code":"29343003002","name":"立野北２丁目","lat":34.595839,"lng":135.685884},{"code":"29343003003","name":"立野北３丁目","lat":34.594853,"lng":135.680202},{"code":"29343004001","name":"立野南１丁目","lat":34.591867,"lng":135.689955},{"code":"29343004002","name":"立野南２丁目","lat":34.590525,"lng":135.684888},{"code":"29343004003","name":"立野南３丁目","lat":34.587604,"lng":135.682992},{"code":"29343005001","name":"信貴ケ丘１丁目","lat":34.602539,"lng":135.692251},{"code":"29343005002","name":"信貴ケ丘２丁目","lat":34.603683,"lng":135.692112},{"code":"29343005003","name":"信貴ケ丘３丁目","lat":34.604647,"lng":135.692749},{"code":"29343005004","name":"信貴ケ丘４丁目","lat":34.604531,"lng":135.687932},{"code":"29343006001","name":"城山台１丁目","lat":34.601113,"lng":135.691052},{"code":"29343006002","name":"城山台２丁目","lat":34.601814,"lng":135.687811},{"code":"29343006003","name":"城山台３丁目","lat":34.599673,"lng":135.68686},{"code":"29343006004","name":"城山台４丁目","lat":34.598732,"lng":135.684612},{"code":"29343006005","name":"城山台５丁目","lat":34.601076,"lng":135.684786},{"code":"29343007001","name":"美松ケ丘西１丁目","lat":34.608607,"lng":135.701213},{"code":"29343007002","name":"美松ケ丘西２丁目","lat":34.611476,"lng":135.699057},{"code":"29343008001","name":"美松ケ丘東１丁目","lat":34.609812,"lng":135.702824},{"code":"29343008002","name":"美松ケ丘東２丁目","lat":34.612422,"lng":135.701114},{"code":"29343009001","name":"東信貴ケ丘１丁目","lat":34.606552,"lng":135.704349},{"code":"29343009002","name":"東信貴ケ丘２丁目","lat":34.608005,"lng":135.704896},{"code":"29343009003","name":"東信貴ケ丘３丁目","lat":34.609586,"lng":135.705978},{"code":"293430100","name":"夕陽ケ丘","lat":34.608005,"lng":135.708364},{"code":"29343011001","name":"三室１丁目","lat":34.602981,"lng":135.709015},{"code":"29343011002","name":"三室２丁目","lat":34.605158,"lng":135.70905},{"code":"293430121","name":"信貴南畑","lat":34.604599,"lng":135.662374},{"code":"293430122","name":"信貴山西","lat":34.606219,"lng":135.669285},{"code":"293430123","name":"大字南畑","lat":34.609298,"lng":135.658926},{"code":"293430130","name":"勢野北","lat":34.608574,"lng":135.689378},{"code":"29343013101","name":"勢野北１丁目","lat":34.607817,"lng":135.696858},{"code":"29343013102","name":"勢野北２丁目","lat":34.607834,"lng":135.694887},{"code":"29343013103","name":"勢野北３丁目","lat":34.607551,"lng":135.68992},{"code":"29343013104","name":"勢野北４丁目","lat":34.607035,"lng":135.686375},{"code":"29343013105","name":"勢野北５丁目","lat":34.609473,"lng":135.688947},{"code":"29343013200","name":"大字勢野","lat":34.611071,"lng":135.686847},{"code":"29343013204","name":"勢野北４丁目","lat":34.608387,"lng":135.68404},{"code":"293430140","name":"大字立野","lat":34.600245,"lng":135.678722},{"code":"293430150","name":"信貴山東","lat":34.606784,"lng":135.676674}]}
