{"municipality":"29361","name":"磯城郡川西町","prefecture":"奈良県","source":{"dataset":"frogcat/japan-small-area","census":"平成27年国勢調査 小地域（e-Stat 統計LOD）","license":"MIT（リポジトリ）／政府統計の総合窓口(e-Stat)の利用規約（元データ・出典表記必要）","fetched":"2026-07-06"},"towns":[{"code":"29361001001","name":"大字結崎中村","lat":34.582363,"lng":135.777537},{"code":"29361001002","name":"大字結崎美ノ城","lat":34.583431,"lng":135.780885},{"code":"29361001003","name":"大字結崎市場","lat":34.581825,"lng":135.772043},{"code":"29361001004","name":"大字結崎辻","lat":34.58831,"lng":135.778176},{"code":"29361001005","name":"大字結崎井戸","lat":34.587973,"lng":135.771109},{"code":"29361001006","name":"大字結崎出屋敷","lat":34.585409,"lng":135.787193},{"code":"29361001007","name":"大字結崎美幸","lat":34.586333,"lng":135.789634},{"code":"29361001008","name":"大字結崎結崎団地","lat":34.586035,"lng":135.78164},{"code":"29361001009","name":"大字結崎結崎南団地","lat":34.581728,"lng":135.783538},{"code":"29361001010","name":"大字結崎ハッピータウン","lat":34.588908,"lng":135.782212},{"code":"29361002001","name":"大字下永東城","lat":34.59135,"lng":135.787833},{"code":"29361002002","name":"大字下永西城","lat":34.593938,"lng":135.781607},{"code":"29361002003","name":"大字下永東方","lat":34.589968,"lng":135.792632},{"code":"29361003001","name":"大字吐田上吐田","lat":34.592802,"lng":135.774303},{"code":"29361003002","name":"大字吐田北吐田","lat":34.594301,"lng":135.768277},{"code":"29361003003","name":"大字吐田南吐田","lat":34.5911,"lng":135.76165},{"code":"293610040","name":"大字梅戸","lat":34.584873,"lng":135.767584},{"code":"293610050","name":"大字唐院","lat":34.58361,"lng":135.761944},{"code":"293610060","name":"大字保田","lat":34.585572,"lng":135.754105}]}
