{"municipality":"29427","name":"北葛城郡河合町","prefecture":"奈良県","source":{"dataset":"frogcat/japan-small-area","census":"平成27年国勢調査 小地域（e-Stat 統計LOD）","license":"MIT（リポジトリ）／政府統計の総合窓口(e-Stat)の利用規約（元データ・出典表記必要）","fetched":"2026-07-06"},"towns":[{"code":"29427001101","name":"池部１丁目","lat":34.579949,"lng":135.737081},{"code":"29427001102","name":"池部２丁目","lat":34.578375,"lng":135.739227},{"code":"29427001103","name":"池部３丁目","lat":34.578408,"lng":135.734488},{"code":"294270012","name":"大字池部","lat":34.580304,"lng":135.741787},{"code":"294270020","name":"大字穴闇","lat":34.583332,"lng":135.738337},{"code":"294270021","name":"彩りの杜","lat":34.578396,"lng":135.72908},{"code":"294270022","name":"大字穴闇","lat":34.579962,"lng":135.730999},{"code":"294270030","name":"大字長楽","lat":34.580603,"lng":135.747626},{"code":"29427004001","name":"大字川合城古","lat":34.58552,"lng":135.746087},{"code":"29427004002","name":"大字川合市場","lat":34.590266,"lng":135.74642},{"code":"294270060","name":"大字西穴闇","lat":34.5877,"lng":135.737478},{"code":"294270070","name":"大字城内","lat":34.588449,"lng":135.727288},{"code":"294270080","name":"大字大輪田","lat":34.590923,"lng":135.720672},{"code":"294270090","name":"大字薬井","lat":34.586775,"lng":135.711802},{"code":"294270100","name":"大字山坊","lat":34.573384,"lng":135.733105},{"code":"294270110","name":"大字佐味田","lat":34.563484,"lng":135.732618},{"code":"29427012001","name":"泉台１丁目","lat":34.589472,"lng":135.73007},{"code":"29427012002","name":"泉台２丁目","lat":34.58944,"lng":135.733239},{"code":"29427012003","name":"泉台３丁目","lat":34.590933,"lng":135.737142},{"code":"29427013001","name":"星和台１丁目","lat":34.587998,"lng":135.716868},{"code":"29427013002","name":"星和台２丁目","lat":34.584404,"lng":135.714994},{"code":"29427015001","name":"広瀬台１丁目","lat":34.585818,"lng":135.726441},{"code":"29427015002","name":"広瀬台２丁目","lat":34.584541,"lng":135.725027},{"code":"29427015003","name":"広瀬台３丁目","lat":34.586266,"lng":135.720039},{"code":"29427016001","name":"中山台１丁目","lat":34.581922,"lng":135.721229},{"code":"29427016002","name":"中山台２丁目","lat":34.583675,"lng":135.718965},{"code":"29427017001","name":"高塚台１丁目","lat":34.579906,"lng":135.723725},{"code":"29427017002","name":"高塚台２丁目","lat":34.583458,"lng":135.728781},{"code":"29427017003","name":"高塚台３丁目","lat":34.579367,"lng":135.726928},{"code":"29427018001","name":"久美ケ丘１丁目","lat":34.575632,"lng":135.728304},{"code":"29427018002","name":"久美ケ丘２丁目","lat":34.577216,"lng":135.730653},{"code":"294270190","name":"西山台","lat":34.582026,"lng":135.73047}]}
