{"municipality":"29426","name":"北葛城郡広陵町","prefecture":"奈良県","source":{"dataset":"frogcat/japan-small-area","census":"平成27年国勢調査 小地域（e-Stat 統計LOD）","license":"MIT（リポジトリ）／政府統計の総合窓口(e-Stat)の利用規約（元データ・出典表記必要）","fetched":"2026-07-06"},"towns":[{"code":"29426001001","name":"大字大塚六道山","lat":34.530465,"lng":135.73826},{"code":"29426001002","name":"大字大塚","lat":34.535287,"lng":135.736539},{"code":"294260020","name":"大字安部","lat":34.534693,"lng":135.742158},{"code":"294260030","name":"大字平尾","lat":34.539812,"lng":135.740292},{"code":"294260040","name":"大字疋相","lat":34.543486,"lng":135.737351},{"code":"29426005001","name":"大字三吉大垣内","lat":34.546109,"lng":135.736175},{"code":"29426005002","name":"大字三吉赤部","lat":34.55206,"lng":135.737769},{"code":"29426005003","name":"大字三吉斉音寺","lat":34.554412,"lng":135.744371},{"code":"294260060","name":"大字笠","lat":34.546541,"lng":135.745953},{"code":"29426007001","name":"大字南郷市場","lat":34.534008,"lng":135.751657},{"code":"29426007002","name":"大字南郷庄ノ垣内","lat":34.537644,"lng":135.755146},{"code":"29426007003","name":"大字南郷小路","lat":34.536753,"lng":135.749473},{"code":"29426007004","name":"大字南郷田井中","lat":34.539065,"lng":135.750267},{"code":"29426007005","name":"大字南郷園","lat":34.542462,"lng":135.750405},{"code":"294260080","name":"大字古寺","lat":34.550631,"lng":135.75282},{"code":"29426009001","name":"大字百済二条","lat":34.538095,"lng":135.759729},{"code":"29426009002","name":"大字百済神主","lat":34.534914,"lng":135.764928},{"code":"29426009003","name":"大字百済新子","lat":34.540656,"lng":135.765877},{"code":"29426009004","name":"大字百済市場","lat":34.543665,"lng":135.765157},{"code":"29426009005","name":"大字百済今市","lat":34.548444,"lng":135.764139},{"code":"29426009006","name":"大字百済渕口","lat":34.547474,"lng":135.761303},{"code":"29426009007","name":"大字百済森","lat":34.547505,"lng":135.757886},{"code":"29426010001","name":"大字広瀬杉ノ木","lat":34.552955,"lng":135.759593},{"code":"29426010002","name":"大字広瀬広瀬","lat":34.556282,"lng":135.759355},{"code":"29426010003","name":"大字広瀬田中","lat":34.560344,"lng":135.761237},{"code":"29426010004","name":"大字広瀬林口","lat":34.559726,"lng":135.756917},{"code":"294260110","name":"大字沢","lat":34.574479,"lng":135.743056},{"code":"294260120","name":"大字大野","lat":34.568517,"lng":135.742073},{"code":"294260130","name":"大字萱野","lat":34.572354,"lng":135.751166},{"code":"294260140","name":"大字南","lat":34.562602,"lng":135.751452},{"code":"294260150","name":"大字弁財天","lat":34.56482,"lng":135.758132},{"code":"294260160","name":"大字的場","lat":34.567804,"lng":135.756987},{"code":"294260170","name":"大字大場","lat":34.57302,"lng":135.758632},{"code":"294260180","name":"大字中","lat":34.557981,"lng":135.751048},{"code":"294260190","name":"大字寺戸","lat":34.561954,"lng":135.743764},{"code":"29426020001","name":"馬見北１丁目","lat":34.553014,"lng":135.733299},{"code":"29426020002","name":"馬見北２丁目","lat":34.551065,"lng":135.731438},{"code":"29426020003","name":"馬見北３丁目","lat":34.554278,"lng":135.731523},{"code":"29426020004","name":"馬見北４丁目","lat":34.556373,"lng":135.730176},{"code":"29426020005","name":"馬見北５丁目","lat":34.553591,"lng":135.728271},{"code":"29426020006","name":"馬見北６丁目","lat":34.550929,"lng":135.728438},{"code":"29426020007","name":"馬見北７丁目","lat":34.551731,"lng":135.724625},{"code":"29426020008","name":"馬見北８丁目","lat":34.55432,"lng":135.723679},{"code":"29426020009","name":"馬見北９丁目","lat":34.551565,"lng":135.72151},{"code":"29426021001","name":"馬見中１丁目","lat":34.54589,"lng":135.728136},{"code":"29426021002","name":"馬見中２丁目","lat":34.54837,"lng":135.729763},{"code":"29426021003","name":"馬見中３丁目","lat":34.548341,"lng":135.724486},{"code":"29426021004","name":"馬見中４丁目","lat":34.546456,"lng":135.723818},{"code":"29426021005","name":"馬見中５丁目","lat":34.548174,"lng":135.721557},{"code":"29426022001","name":"馬見南１丁目","lat":34.541873,"lng":135.730329},{"code":"29426022002","name":"馬見南２丁目","lat":34.537532,"lng":135.73212},{"code":"29426022003","name":"馬見南３丁目","lat":34.534494,"lng":135.729904},{"code":"29426022004","name":"馬見南４丁目","lat":34.538981,"lng":135.729341},{"code":"29426022005","name":"馬見南５丁目","lat":34.540288,"lng":135.727089},{"code":"29426022006","name":"馬見南６丁目","lat":34.543064,"lng":135.728225},{"code":"294260230","name":"みささぎ台","lat":34.532454,"lng":135.732775}]}
