{"municipality":"30341","name":"伊都郡かつらぎ町","prefecture":"和歌山県","source":{"dataset":"frogcat/japan-small-area","census":"平成27年国勢調査 小地域（e-Stat 統計LOD）","license":"MIT（リポジトリ）／政府統計の総合窓口(e-Stat)の利用規約（元データ・出典表記必要）","fetched":"2026-07-06"},"towns":[{"code":"303410010","name":"大字高田","lat":34.282751,"lng":135.451436},{"code":"303410020","name":"大字移","lat":34.292642,"lng":135.454812},{"code":"303410030","name":"大字背ノ山","lat":34.284882,"lng":135.45788},{"code":"303410040","name":"大字窪","lat":34.289681,"lng":135.461449},{"code":"30341005000","name":"大字萩原","lat":34.299826,"lng":135.466737},{"code":"30341005001","name":"大字萩原","lat":34.288462,"lng":135.469255},{"code":"30341006000","name":"大字笠田中","lat":34.298027,"lng":135.471907},{"code":"30341006001","name":"大字笠田中","lat":34.286622,"lng":135.471904},{"code":"30341007001","name":"大字笠田東","lat":34.290901,"lng":135.480574},{"code":"30341007002","name":"大字笠田東","lat":34.293228,"lng":135.475722},{"code":"30341007003","name":"大字笠田東","lat":34.284542,"lng":135.479871},{"code":"30341007004","name":"大字笠田東","lat":34.298374,"lng":135.478301},{"code":"30341007018","name":"大字笠田東","lat":34.285505,"lng":135.481504},{"code":"30341008003","name":"大字佐野","lat":34.294117,"lng":135.484646},{"code":"30341008004","name":"大字佐野","lat":34.294179,"lng":135.485509},{"code":"30341008018","name":"大字佐野","lat":34.294228,"lng":135.483003},{"code":"303410090","name":"大字広浦","lat":34.308854,"lng":135.480858},{"code":"303410100","name":"大字大谷","lat":34.296788,"lng":135.493286},{"code":"303410110","name":"大字蛭子","lat":34.293086,"lng":135.49809},{"code":"303410120","name":"大字大藪","lat":34.302143,"lng":135.499018},{"code":"303410130","name":"大字柏木","lat":34.314145,"lng":135.494949},{"code":"30341014005","name":"大字丁ノ町","lat":34.295796,"lng":135.508222},{"code":"30341014006","name":"大字丁ノ町","lat":34.296477,"lng":135.504922},{"code":"30341014007","name":"大字丁ノ町","lat":34.308939,"lng":135.510523},{"code":"30341014008","name":"大字丁ノ町","lat":34.294958,"lng":135.51129},{"code":"30341015005","name":"大字新田","lat":34.297915,"lng":135.50846},{"code":"30341015006","name":"大字新田","lat":34.298977,"lng":135.510379},{"code":"30341015007","name":"大字新田","lat":34.297208,"lng":135.516436},{"code":"30341015008","name":"大字新田","lat":34.297719,"lng":135.512113},{"code":"30341016008","name":"大字妙寺","lat":34.29817,"lng":135.526751},{"code":"30341016009","name":"大字妙寺","lat":34.306083,"lng":135.519597},{"code":"30341016010","name":"大字妙寺","lat":34.30168,"lng":135.526546},{"code":"30341016011","name":"大字妙寺","lat":34.309746,"lng":135.522106},{"code":"30341016018","name":"大字妙寺","lat":34.300446,"lng":135.529361},{"code":"30341017010","name":"大字中飯降","lat":34.314925,"lng":135.527223},{"code":"30341017011","name":"大字中飯降","lat":34.314492,"lng":135.535994},{"code":"303410180","name":"大字西飯降","lat":34.305481,"lng":135.526648},{"code":"303410190","name":"大字短野","lat":34.326685,"lng":135.514453},{"code":"303410200","name":"大字大畑","lat":34.336851,"lng":135.523477},{"code":"30341021011","name":"大字西渋田","lat":34.274999,"lng":135.460077},{"code":"30341021012","name":"大字西渋田","lat":34.269799,"lng":135.470265},{"code":"303410220","name":"大字島","lat":34.279743,"lng":135.463144},{"code":"303410230","name":"大字日高","lat":34.244449,"lng":135.491787},{"code":"303410240","name":"大字星山","lat":34.25565,"lng":135.494574},{"code":"303410250","name":"大字御所","lat":34.255663,"lng":135.476869},{"code":"303410260","name":"大字星川","lat":34.265013,"lng":135.484371},{"code":"30341027013","name":"大字東渋田","lat":34.273844,"lng":135.479059},{"code":"30341027014","name":"大字東渋田","lat":34.27622,"lng":135.485031},{"code":"30341027015","name":"大字東渋田","lat":34.282425,"lng":135.491977},{"code":"30341027018","name":"大字東渋田","lat":34.285448,"lng":135.489895},{"code":"303410280","name":"大字宮本","lat":34.270374,"lng":135.500788},{"code":"30341029014","name":"大字平沼田","lat":34.277068,"lng":135.496004},{"code":"30341029015","name":"大字平沼田","lat":34.283265,"lng":135.492641},{"code":"303410300","name":"大字寺尾","lat":34.285064,"lng":135.49772},{"code":"303410310","name":"大字兄井","lat":34.286793,"lng":135.506323},{"code":"303410320","name":"大字三谷","lat":34.287941,"lng":135.519057},{"code":"303410330","name":"大字教良寺","lat":34.27709,"lng":135.521574},{"code":"303410340","name":"大字山崎","lat":34.289833,"lng":135.534869},{"code":"303410350","name":"大字志賀","lat":34.222441,"lng":135.501189},{"code":"303410360","name":"大字上天野","lat":34.264169,"lng":135.522556},{"code":"303410370","name":"大字下天野","lat":34.253615,"lng":135.510651},{"code":"303410380","name":"大字神田","lat":34.243896,"lng":135.523411},{"code":"303410390","name":"大字新城","lat":34.194355,"lng":135.504401},{"code":"30341040016","name":"大字広口","lat":34.323837,"lng":135.478599},{"code":"30341040017","name":"大字広口","lat":34.32287,"lng":135.467975},{"code":"30341041016","name":"大字滝","lat":34.320358,"lng":135.48037},{"code":"30341041017","name":"大字滝","lat":34.326011,"lng":135.491731},{"code":"303410420","name":"大字平","lat":34.341029,"lng":135.467735},{"code":"30341043017","name":"大字東谷","lat":34.339649,"lng":135.496121},{"code":"30341043018","name":"大字東谷","lat":34.345996,"lng":135.48904},{"code":"303410440","name":"花園梁瀬","lat":34.139507,"lng":135.521731},{"code":"303410450","name":"花園北寺・","lat":34.140856,"lng":135.541681},{"code":"303410460","name":"花園新子","lat":34.128334,"lng":135.556019},{"code":"303410470","name":"花園久木","lat":34.161452,"lng":135.573672},{"code":"303410480","name":"花園中南","lat":34.131625,"lng":135.573013}]}
