{"municipality":"30401","name":"西牟婁郡白浜町","prefecture":"和歌山県","source":{"dataset":"frogcat/japan-small-area","census":"平成27年国勢調査 小地域（e-Stat 統計LOD）","license":"MIT（リポジトリ）／政府統計の総合窓口(e-Stat)の利用規約（元データ・出典表記必要）","fetched":"2026-07-06"},"towns":[{"code":"30401140001","name":"堅田","lat":33.682513,"lng":135.374657},{"code":"30401140002","name":"堅田","lat":33.673782,"lng":135.37432},{"code":"30401140003","name":"堅田","lat":33.676799,"lng":135.388193},{"code":"30401140004","name":"堅田","lat":33.667621,"lng":135.374267},{"code":"304011500","name":"才野","lat":33.65875,"lng":135.376127},{"code":"304011600","name":"中","lat":33.64757,"lng":135.390982},{"code":"304011700","name":"栄","lat":33.654191,"lng":135.396485},{"code":"304011800","name":"平","lat":33.67069,"lng":135.39985},{"code":"304011900","name":"保呂","lat":33.678075,"lng":135.425472},{"code":"304012000","name":"内ノ川","lat":33.674163,"lng":135.413409},{"code":"304012100","name":"庄川","lat":33.663226,"lng":135.437589},{"code":"30401220001","name":"十九渕","lat":33.641769,"lng":135.430221},{"code":"30401220002","name":"十九渕","lat":33.659576,"lng":135.40529},{"code":"304012300","name":"富田","lat":33.634921,"lng":135.406768},{"code":"304012400","name":"椿","lat":33.613148,"lng":135.410669},{"code":"30401241001","name":"大字日置","lat":33.592728,"lng":135.406155},{"code":"30401241003","name":"大字日置","lat":33.583655,"lng":135.425288},{"code":"30401241004","name":"大字日置","lat":33.572856,"lng":135.436824},{"code":"30401241005","name":"大字日置","lat":33.567046,"lng":135.441244},{"code":"30401241006","name":"大字日置","lat":33.562933,"lng":135.445359},{"code":"30401241007","name":"大字日置","lat":33.565868,"lng":135.445272},{"code":"30401241008","name":"大字日置","lat":33.572488,"lng":135.446003},{"code":"304012420","name":"大字大古","lat":33.578232,"lng":135.452923},{"code":"304012430","name":"大字矢田","lat":33.587424,"lng":135.460444},{"code":"304012440","name":"大字安宅","lat":33.582603,"lng":135.476271},{"code":"30401245009","name":"大字塩野","lat":33.564203,"lng":135.456444},{"code":"30401245010","name":"大字塩野","lat":33.557803,"lng":135.463407},{"code":"304012460","name":"大字田野井","lat":33.601732,"lng":135.436927},{"code":"304012470","name":"大字口ケ谷","lat":33.6021,"lng":135.462376},{"code":"304012480","name":"大字安居","lat":33.614763,"lng":135.463801},{"code":"304012490","name":"大字久木","lat":33.648819,"lng":135.467964},{"code":"304012500","name":"大字向平","lat":33.629104,"lng":135.470302},{"code":"304012510","name":"大字神宮寺","lat":33.634893,"lng":135.481291},{"code":"304012520","name":"大字宇津木","lat":33.655543,"lng":135.492341},{"code":"304012530","name":"大字大","lat":33.647199,"lng":135.510811},{"code":"304012540","name":"大字小川","lat":33.63309,"lng":135.50627},{"code":"304012550","name":"大字城","lat":33.622926,"lng":135.522733},{"code":"304012560","name":"大字中嶋","lat":33.620322,"lng":135.489047},{"code":"304012570","name":"大字寺山","lat":33.617862,"lng":135.478503},{"code":"304012580","name":"大字玉伝","lat":33.678547,"lng":135.51132},{"code":"304012590","name":"大字小房","lat":33.668118,"lng":135.519993},{"code":"30401260030","name":"大字市鹿野","lat":33.655722,"lng":135.534013},{"code":"30401260031","name":"大字市鹿野","lat":33.677539,"lng":135.541828},{"code":"304012610","name":"大字上露","lat":33.65295,"lng":135.563144},{"code":"304012620","name":"大字北谷","lat":33.640534,"lng":135.561393},{"code":"304012630","name":"大字大瀬","lat":33.646186,"lng":135.582254},{"code":"304012640","name":"大字竹垣内","lat":33.638432,"lng":135.625347}]}
