{"municipality":"31202","name":"米子市","prefecture":"鳥取県","source":{"dataset":"frogcat/japan-small-area","census":"平成27年国勢調査 小地域（e-Stat 統計LOD）","license":"MIT（リポジトリ）／政府統計の総合窓口(e-Stat)の利用規約（元データ・出典表記必要）","fetched":"2026-07-06"},"towns":[{"code":"312020010","name":"勝田町","lat":35.432699,"lng":133.344933},{"code":"312020020","name":"東山町","lat":35.429619,"lng":133.345572},{"code":"31202003001","name":"博労町１丁目","lat":35.43035,"lng":133.339246},{"code":"31202003002","name":"博労町２丁目","lat":35.431136,"lng":133.341324},{"code":"31202003003","name":"博労町３丁目","lat":35.433884,"lng":133.338575},{"code":"31202003004","name":"博労町４丁目","lat":35.435278,"lng":133.341096},{"code":"31202004001","name":"糀町１丁目","lat":35.428117,"lng":133.338017},{"code":"31202004002","name":"糀町２丁目","lat":35.429448,"lng":133.337738},{"code":"31202005000","name":"冨士見町","lat":35.433426,"lng":133.336656},{"code":"31202005001","name":"冨士見町１丁目","lat":35.431484,"lng":133.337688},{"code":"31202005002","name":"冨士見町２丁目","lat":35.432488,"lng":133.335138},{"code":"31202006001","name":"日ノ出町１丁目","lat":35.437718,"lng":133.337303},{"code":"31202006002","name":"日ノ出町２丁目","lat":35.438018,"lng":133.334631},{"code":"31202007001","name":"角盤町１丁目","lat":35.43097,"lng":133.334585},{"code":"31202007002","name":"角盤町２丁目","lat":35.433379,"lng":133.332199},{"code":"31202007003","name":"角盤町３丁目","lat":35.435364,"lng":133.329597},{"code":"31202007004","name":"角盤町４丁目","lat":35.437363,"lng":133.327091},{"code":"31202008001","name":"錦町１丁目","lat":35.435103,"lng":133.333998},{"code":"31202008002","name":"錦町２丁目","lat":35.437088,"lng":133.331811},{"code":"31202008003","name":"錦町３丁目","lat":35.439053,"lng":133.328411},{"code":"312020090","name":"朝日町","lat":35.432455,"lng":133.331},{"code":"31202010001","name":"道笑町１丁目","lat":35.42687,"lng":133.335165},{"code":"31202010002","name":"道笑町２丁目","lat":35.426342,"lng":133.337217},{"code":"31202010003","name":"道笑町３丁目","lat":35.425017,"lng":133.341001},{"code":"31202010004","name":"道笑町４丁目","lat":35.424052,"lng":133.346312},{"code":"312020110","name":"長砂町","lat":35.420245,"lng":133.352679},{"code":"312020120","name":"昭和町","lat":35.427083,"lng":133.342532},{"code":"312020130","name":"万能町","lat":35.425282,"lng":133.335341},{"code":"312020140","name":"日野町","lat":35.425923,"lng":133.3339},{"code":"312020150","name":"法勝寺町","lat":35.428069,"lng":133.334695},{"code":"312020160","name":"紺屋町","lat":35.428974,"lng":133.333627},{"code":"312020170","name":"四日市町","lat":35.429621,"lng":133.33253},{"code":"312020180","name":"東町","lat":35.425665,"lng":133.331365},{"code":"312020190","name":"弥生町","lat":35.422784,"lng":133.336554},{"code":"312020200","name":"陽田町","lat":35.427006,"lng":133.347731},{"code":"31202021001","name":"加茂町１丁目","lat":35.428568,"lng":133.329798},{"code":"31202021002","name":"加茂町２丁目","lat":35.427485,"lng":133.329228},{"code":"312020220","name":"茶町","lat":35.424955,"lng":133.332483},{"code":"312020230","name":"塩町","lat":35.423866,"lng":133.331376},{"code":"312020240","name":"末広町","lat":35.422215,"lng":133.333198},{"code":"312020250","name":"大工町","lat":35.422847,"lng":133.331013},{"code":"312020260","name":"愛宕町","lat":35.420222,"lng":133.329349},{"code":"31202027001","name":"祇園町１丁目","lat":35.422334,"lng":133.327691},{"code":"31202027002","name":"祇園町２丁目","lat":35.418437,"lng":133.324791},{"code":"312020280","name":"陰田町","lat":35.407443,"lng":133.328271},{"code":"312020290","name":"大谷町","lat":35.415509,"lng":133.334808},{"code":"312020300","name":"目久美町","lat":35.419153,"lng":133.339854},{"code":"312020310","name":"西倉吉町","lat":35.430959,"lng":133.33029},{"code":"312020320","name":"中町","lat":35.429329,"lng":133.330383},{"code":"312020330","name":"明治町","lat":35.424242,"lng":133.334395},{"code":"312020340","name":"東倉吉町","lat":35.430431,"lng":133.331734},{"code":"312020350","name":"久米町","lat":35.425668,"lng":133.324842},{"code":"31202036101","name":"錦海町１丁目","lat":35.4176,"lng":133.321564},{"code":"31202036102","name":"錦海町２丁目","lat":35.415324,"lng":133.320415},{"code":"31202036103","name":"錦海町３丁目","lat":35.418338,"lng":133.319971},{"code":"312020370","name":"尾高町","lat":35.43247,"lng":133.329343},{"code":"312020380","name":"岩倉町","lat":35.432599,"lng":133.327782},{"code":"312020390","name":"寺町","lat":35.43453,"lng":133.327599},{"code":"31202040001","name":"天神町１丁目","lat":35.431413,"lng":133.327218},{"code":"31202040002","name":"天神町２丁目","lat":35.432353,"lng":133.325703},{"code":"312020410","name":"内町","lat":35.431809,"lng":133.3237},{"code":"31202042001","name":"立町１丁目","lat":35.433451,"lng":133.326929},{"code":"31202042002","name":"立町２丁目","lat":35.433628,"lng":133.325521},{"code":"31202042003","name":"立町３丁目","lat":35.43593,"lng":133.325532},{"code":"31202042004","name":"立町４丁目","lat":35.437669,"lng":133.324984},{"code":"31202043001","name":"灘町１丁目","lat":35.433267,"lng":133.32318},{"code":"31202043002","name":"灘町２丁目","lat":35.434375,"lng":133.323292},{"code":"31202043003","name":"灘町３丁目","lat":35.4349,"lng":133.321128},{"code":"312020440","name":"花園町","lat":35.436245,"lng":133.321823},{"code":"312020450","name":"西町","lat":35.429651,"lng":133.324858},{"code":"312020460","name":"三旗町","lat":35.440225,"lng":133.321432},{"code":"312020470","name":"義方町","lat":35.438938,"lng":133.32373},{"code":"31202048101","name":"旗ヶ崎１丁目","lat":35.438867,"lng":133.319506},{"code":"31202048102","name":"旗ヶ崎２丁目","lat":35.436834,"lng":133.316742},{"code":"31202048103","name":"旗ヶ崎３丁目","lat":35.441198,"lng":133.316968},{"code":"31202048104","name":"旗ヶ崎４丁目","lat":35.441766,"lng":133.314479},{"code":"31202048105","name":"旗ヶ崎５丁目","lat":35.443199,"lng":133.312425},{"code":"31202048106","name":"旗ヶ崎６丁目","lat":35.43859,"lng":133.312038},{"code":"31202048107","name":"旗ヶ崎７丁目","lat":35.439377,"lng":133.308016},{"code":"31202048108","name":"旗ヶ崎８丁目","lat":35.442478,"lng":133.308693},{"code":"31202048109","name":"旗ヶ崎９丁目","lat":35.445145,"lng":133.309809},{"code":"312020482","name":"旗ヶ崎","lat":35.434969,"lng":133.311609},{"code":"31202049001","name":"上後藤１丁目","lat":35.442748,"lng":133.319775},{"code":"31202049002","name":"上後藤２丁目","lat":35.444361,"lng":133.321026},{"code":"31202049003","name":"上後藤３丁目","lat":35.447073,"lng":133.318952},{"code":"31202049004","name":"上後藤４丁目","lat":35.444786,"lng":133.317058},{"code":"31202049005","name":"上後藤５丁目","lat":35.446393,"lng":133.314954},{"code":"31202049006","name":"上後藤６丁目","lat":35.44747,"lng":133.311438},{"code":"31202049007","name":"上後藤７丁目","lat":35.449024,"lng":133.313098},{"code":"31202049008","name":"上後藤８丁目","lat":35.449167,"lng":133.315216},{"code":"312020500","name":"安倍","lat":35.44518,"lng":133.305102},{"code":"31202051101","name":"車尾１丁目","lat":35.432245,"lng":133.348651},{"code":"31202051102","name":"車尾２丁目","lat":35.431735,"lng":133.354108},{"code":"31202051103","name":"車尾３丁目","lat":35.43374,"lng":133.356062},{"code":"31202051104","name":"車尾４丁目","lat":35.434284,"lng":133.360898},{"code":"31202051105","name":"車尾５丁目","lat":35.431029,"lng":133.359746},{"code":"31202051106","name":"車尾６丁目","lat":35.430189,"lng":133.364016},{"code":"31202051107","name":"車尾７丁目","lat":35.433971,"lng":133.364837},{"code":"312020512","name":"車尾","lat":35.429009,"lng":133.352699},{"code":"312020520","name":"観音寺","lat":35.420328,"lng":133.360983},{"code":"31202053101","name":"中島１丁目","lat":35.436834,"lng":133.350809},{"code":"31202053102","name":"中島２丁目","lat":35.434572,"lng":133.352118},{"code":"31202054101","name":"三本松１丁目","lat":35.440651,"lng":133.324313},{"code":"31202054102","name":"三本松２丁目","lat":35.442239,"lng":133.323477},{"code":"31202054103","name":"三本松３丁目","lat":35.444106,"lng":133.323896},{"code":"31202054104","name":"三本松４丁目","lat":35.44577,"lng":133.323392},{"code":"312020542","name":"両三柳","lat":35.457204,"lng":133.324173},{"code":"312020550","name":"河崎","lat":35.458336,"lng":133.306225},{"code":"31202056101","name":"上福原１丁目","lat":35.44313,"lng":133.363162},{"code":"31202056102","name":"上福原２丁目","lat":35.444547,"lng":133.358673},{"code":"31202056103","name":"上福原３丁目","lat":35.445471,"lng":133.353725},{"code":"31202056104","name":"上福原４丁目","lat":35.44837,"lng":133.354961},{"code":"31202056105","name":"上福原５丁目","lat":35.449993,"lng":133.353664},{"code":"31202056106","name":"上福原６丁目","lat":35.452971,"lng":133.357084},{"code":"31202056107","name":"上福原７丁目","lat":35.454943,"lng":133.353983},{"code":"312020562","name":"上福原","lat":35.439598,"lng":133.3588},{"code":"31202057101","name":"皆生新田１丁目","lat":35.451324,"lng":133.363778},{"code":"31202057102","name":"皆生新田２丁目","lat":35.450344,"lng":133.368868},{"code":"31202057103","name":"皆生新田３丁目","lat":35.454223,"lng":133.370165},{"code":"31202057201","name":"皆生１丁目","lat":35.444154,"lng":133.36502},{"code":"31202057202","name":"皆生２丁目","lat":35.445639,"lng":133.36813},{"code":"31202057203","name":"皆生３丁目","lat":35.4472,"lng":133.364169},{"code":"31202057204","name":"皆生４丁目","lat":35.448675,"lng":133.362523},{"code":"31202057205","name":"皆生５丁目","lat":35.448645,"lng":133.358706},{"code":"31202057206","name":"皆生６丁目","lat":35.451986,"lng":133.360409},{"code":"31202058101","name":"東福原１丁目","lat":35.436531,"lng":133.344252},{"code":"31202058102","name":"東福原２丁目","lat":35.437971,"lng":133.345699},{"code":"31202058103","name":"東福原３丁目","lat":35.440981,"lng":133.345572},{"code":"31202058104","name":"東福原４丁目","lat":35.441709,"lng":133.348421},{"code":"31202058105","name":"東福原５丁目","lat":35.444436,"lng":133.345143},{"code":"31202058106","name":"東福原６丁目","lat":35.446399,"lng":133.347097},{"code":"31202058107","name":"東福原７丁目","lat":35.449933,"lng":133.350309},{"code":"31202058108","name":"東福原８丁目","lat":35.450678,"lng":133.347251},{"code":"31202059101","name":"西福原１丁目","lat":35.439527,"lng":133.338751},{"code":"31202059102","name":"西福原２丁目","lat":35.440928,"lng":133.340009},{"code":"31202059103","name":"西福原３丁目","lat":35.442308,"lng":133.34333},{"code":"31202059104","name":"西福原４丁目","lat":35.443608,"lng":133.339621},{"code":"31202059105","name":"西福原５丁目","lat":35.445869,"lng":133.340677},{"code":"31202059106","name":"西福原６丁目","lat":35.448381,"lng":133.340405},{"code":"31202059107","name":"西福原７丁目","lat":35.451499,"lng":133.344242},{"code":"31202059108","name":"西福原８丁目","lat":35.4523,"lng":133.341195},{"code":"31202059109","name":"西福原９丁目","lat":35.453557,"lng":133.337926},{"code":"312020592","name":"西福原","lat":35.437168,"lng":133.339718},{"code":"31202060101","name":"米原１丁目","lat":35.441762,"lng":133.32807},{"code":"31202060102","name":"米原２丁目","lat":35.442975,"lng":133.329244},{"code":"31202060103","name":"米原３丁目","lat":35.440369,"lng":133.333557},{"code":"31202060104","name":"米原４丁目","lat":35.441839,"lng":133.334608},{"code":"31202060105","name":"米原５丁目","lat":35.444721,"lng":133.329268},{"code":"31202060106","name":"米原６丁目","lat":35.444838,"lng":133.33624},{"code":"31202060107","name":"米原７丁目","lat":35.445973,"lng":133.331925},{"code":"31202060108","name":"米原８丁目","lat":35.448228,"lng":133.333342},{"code":"31202060109","name":"米原９丁目","lat":35.448597,"lng":133.328784},{"code":"312020602","name":"米原","lat":35.439488,"lng":133.330703},{"code":"312020610","name":"福市","lat":35.407084,"lng":133.370221},{"code":"312020620","name":"八幡","lat":35.399585,"lng":133.386216},{"code":"312020630","name":"諏訪","lat":35.392281,"lng":133.381977},{"code":"312020640","name":"青木","lat":35.39429,"lng":133.365469},{"code":"312020650","name":"上安曇","lat":35.383683,"lng":133.366223},{"code":"312020660","name":"下安曇","lat":35.389445,"lng":133.366682},{"code":"312020670","name":"兼久","lat":35.404173,"lng":133.361668},{"code":"312020680","name":"別所","lat":35.38449,"lng":133.375334},{"code":"312020690","name":"榎原","lat":35.393061,"lng":133.354427},{"code":"312020700","name":"大袋","lat":35.38639,"lng":133.357985},{"code":"312020710","name":"永江","lat":35.396416,"lng":133.369869},{"code":"312020720","name":"石井","lat":35.405465,"lng":133.343562},{"code":"312020730","name":"奥谷","lat":35.408237,"lng":133.348875},{"code":"312020740","name":"美吉","lat":35.418777,"lng":133.344552},{"code":"312020750","name":"宗像","lat":35.413635,"lng":133.35521},{"code":"312020760","name":"日原","lat":35.408344,"lng":133.356438},{"code":"312020770","name":"橋本","lat":35.396937,"lng":133.34951},{"code":"312020780","name":"奈喜良","lat":35.399803,"lng":133.339791},{"code":"312020790","name":"吉谷","lat":35.389203,"lng":133.340134},{"code":"312020800","name":"古市","lat":35.384499,"lng":133.330459},{"code":"312020810","name":"新山","lat":35.391499,"lng":133.324271},{"code":"312020820","name":"彦名町","lat":35.451976,"lng":133.281659},{"code":"312020830","name":"大崎","lat":35.470006,"lng":133.262747},{"code":"312020840","name":"葭津","lat":35.480041,"lng":133.247946},{"code":"312020850","name":"大篠津町","lat":35.491307,"lng":133.254649},{"code":"312020860","name":"和田町","lat":35.484681,"lng":133.268544},{"code":"312020870","name":"富益町","lat":35.47411,"lng":133.282111},{"code":"312020880","name":"夜見町","lat":35.465157,"lng":133.297024},{"code":"312020890","name":"蚊屋","lat":35.426371,"lng":133.384548},{"code":"312020900","name":"今在家","lat":35.425135,"lng":133.392218},{"code":"312020910","name":"二本木","lat":35.437747,"lng":133.389695},{"code":"312020920","name":"熊党","lat":35.428704,"lng":133.376782},{"code":"312020930","name":"浦津","lat":35.423535,"lng":133.377371},{"code":"312020940","name":"吉岡","lat":35.429286,"lng":133.370749},{"code":"312020950","name":"一部","lat":35.407483,"lng":133.394275},{"code":"312020960","name":"上新印","lat":35.411296,"lng":133.388972},{"code":"312020970","name":"赤井手","lat":35.418437,"lng":133.396369},{"code":"312020980","name":"下新印","lat":35.418345,"lng":133.385071},{"code":"312020990","name":"古豊千","lat":35.416404,"lng":133.373436},{"code":"312021000","name":"高島","lat":35.409607,"lng":133.383003},{"code":"312021010","name":"東八幡","lat":35.403937,"lng":133.389175},{"code":"312021020","name":"水浜","lat":35.402567,"lng":133.396409},{"code":"312021030","name":"尾高","lat":35.416728,"lng":133.41721},{"code":"312021040","name":"岡成","lat":35.418492,"lng":133.430701},{"code":"312021050","name":"泉","lat":35.426216,"lng":133.423743},{"code":"312021060","name":"下郷","lat":35.430947,"lng":133.401884},{"code":"312021070","name":"日下","lat":35.40439,"lng":133.427348},{"code":"312021080","name":"石州府","lat":35.394269,"lng":133.416464},{"code":"312021090","name":"福万","lat":35.397056,"lng":133.42633},{"code":"312021100","name":"河岡","lat":35.409039,"lng":133.402636},{"code":"312021110","name":"中海","lat":35.456575,"lng":133.267507},{"code":"31202112001","name":"皆生温泉１丁目","lat":35.455277,"lng":133.35855},{"code":"31202112002","name":"皆生温泉２丁目","lat":35.454347,"lng":133.363625},{"code":"31202112003","name":"皆生温泉３丁目","lat":35.457237,"lng":133.365637},{"code":"31202112004","name":"皆生温泉４丁目","lat":35.45825,"lng":133.357693},{"code":"31202113001","name":"新開１丁目","lat":35.454931,"lng":133.351529},{"code":"31202113002","name":"新開２丁目","lat":35.455811,"lng":133.348894},{"code":"31202113003","name":"新開３丁目","lat":35.459249,"lng":133.350967},{"code":"31202113004","name":"新開４丁目","lat":35.46048,"lng":133.344056},{"code":"31202113005","name":"新開５丁目","lat":35.45648,"lng":133.345594},{"code":"31202113006","name":"新開６丁目","lat":35.4571,"lng":133.342572},{"code":"31202113007","name":"新開７丁目","lat":35.457869,"lng":133.339057},{"code":"312021140","name":"流通町","lat":35.429133,"lng":133.396692},{"code":"31202115001","name":"車尾南１丁目","lat":35.428025,"lng":133.358324},{"code":"31202115002","name":"車尾南２丁目","lat":35.426413,"lng":133.363916},{"code":"31202116001","name":"観音寺新町１丁目","lat":35.424834,"lng":133.356826},{"code":"31202116002","name":"観音寺新町２丁目","lat":35.422534,"lng":133.358591},{"code":"31202116003","name":"観音寺新町３丁目","lat":35.424959,"lng":133.359573},{"code":"31202116004","name":"観音寺新町４丁目","lat":35.425025,"lng":133.361472},{"code":"31202116005","name":"観音寺新町５丁目","lat":35.422874,"lng":133.36225},{"code":"31202117001","name":"淀江町西原９区","lat":35.457035,"lng":133.42511},{"code":"31202117002","name":"淀江町西原１０区","lat":35.455169,"lng":133.421389},{"code":"31202117003","name":"淀江町西原１１区","lat":35.450484,"lng":133.417827},{"code":"31202118001","name":"淀江町淀江１区","lat":35.462294,"lng":133.430349},{"code":"31202118002","name":"淀江町淀江２区","lat":35.461201,"lng":133.428824},{"code":"31202118003","name":"淀江町淀江３区","lat":35.46042,"lng":133.427632},{"code":"31202118004","name":"淀江町淀江４区","lat":35.459825,"lng":133.432105},{"code":"31202118005","name":"淀江町淀江５区","lat":35.45932,"lng":133.42821},{"code":"31202118006","name":"淀江町淀江６区","lat":35.458023,"lng":133.429495},{"code":"31202118007","name":"淀江町淀江７区","lat":35.458863,"lng":133.426097},{"code":"31202118008","name":"淀江町淀江８区","lat":35.453459,"lng":133.431545},{"code":"312021190","name":"淀江町今津","lat":35.465994,"lng":133.4314},{"code":"312021200","name":"淀江町福頼","lat":35.441295,"lng":133.42197},{"code":"312021210","name":"淀江町平岡","lat":35.438557,"lng":133.4206},{"code":"312021220","name":"淀江町福井","lat":35.445346,"lng":133.427137},{"code":"31202123001","name":"淀江町福岡北尾","lat":35.458321,"lng":133.445718},{"code":"31202123002","name":"淀江町福岡上淀","lat":35.451028,"lng":133.446137},{"code":"312021240","name":"淀江町稲吉","lat":35.436567,"lng":133.459419},{"code":"312021250","name":"淀江町高井谷","lat":35.436405,"lng":133.441161},{"code":"312021260","name":"淀江町中西尾","lat":35.434131,"lng":133.436996},{"code":"312021270","name":"淀江町富繁","lat":35.438483,"lng":133.428934},{"code":"312021280","name":"淀江町西尾原","lat":35.428576,"lng":133.435125},{"code":"312021290","name":"淀江町本宮","lat":35.421836,"lng":133.453915},{"code":"31202130001","name":"淀江町佐陀佐陀１部","lat":35.438346,"lng":133.395675},{"code":"31202130002","name":"淀江町佐陀佐陀２部","lat":35.443341,"lng":133.396829},{"code":"31202130003","name":"淀江町佐陀佐陀３部","lat":35.442187,"lng":133.392536},{"code":"31202130004","name":"淀江町佐陀桜台","lat":35.435019,"lng":133.39654},{"code":"31202130005","name":"淀江町佐陀佐陀浜","lat":35.449235,"lng":133.395085},{"code":"31202130006","name":"淀江町佐陀ニューやまと","lat":35.447449,"lng":133.39694},{"code":"31202130007","name":"淀江町佐陀佐陀新田","lat":35.451684,"lng":133.397422},{"code":"31202131001","name":"淀江町中間中間","lat":35.436231,"lng":133.405141},{"code":"31202131002","name":"淀江町中間亀甲","lat":35.448368,"lng":133.402545},{"code":"31202131003","name":"淀江町中間亀甲新道","lat":35.442385,"lng":133.401704},{"code":"31202132001","name":"淀江町小波小波上","lat":35.435826,"lng":133.415256},{"code":"31202132002","name":"淀江町小波小波浜","lat":35.44697,"lng":133.408985}]}
