{"municipality":"31204","name":"境港市","prefecture":"鳥取県","source":{"dataset":"frogcat/japan-small-area","census":"平成27年国勢調査 小地域（e-Stat 統計LOD）","license":"MIT（リポジトリ）／政府統計の総合窓口(e-Stat)の利用規約（元データ・出典表記必要）","fetched":"2026-07-06"},"towns":[{"code":"312040010","name":"渡町","lat":35.516827,"lng":133.214721},{"code":"312040020","name":"森岡町","lat":35.521757,"lng":133.223351},{"code":"312040030","name":"中海干拓地","lat":35.501514,"lng":133.217248},{"code":"312040040","name":"外江町","lat":35.530826,"lng":133.209782},{"code":"312040050","name":"芝町","lat":35.531472,"lng":133.218135},{"code":"312040060","name":"清水町","lat":35.538838,"lng":133.216815},{"code":"312040070","name":"昭和町","lat":35.544007,"lng":133.253411},{"code":"312040080","name":"岬町","lat":35.546049,"lng":133.244315},{"code":"312040090","name":"花町","lat":35.545614,"lng":133.241331},{"code":"312040100","name":"東雲町","lat":35.545443,"lng":133.238792},{"code":"312040110","name":"入船町","lat":35.547247,"lng":133.238711},{"code":"312040120","name":"朝日町","lat":35.547174,"lng":133.23579},{"code":"312040130","name":"東本町","lat":35.545604,"lng":133.235665},{"code":"312040140","name":"中町","lat":35.545745,"lng":133.232795},{"code":"312040150","name":"相生町","lat":35.546939,"lng":133.233267},{"code":"312040160","name":"末広町","lat":35.54562,"lng":133.232012},{"code":"312040170","name":"栄町","lat":35.547101,"lng":133.229408},{"code":"312040180","name":"日ノ出町","lat":35.544972,"lng":133.230718},{"code":"312040190","name":"本町","lat":35.546103,"lng":133.230612},{"code":"312040200","name":"松ケ枝町","lat":35.546077,"lng":133.228287},{"code":"312040210","name":"京町","lat":35.544795,"lng":133.228241},{"code":"312040220","name":"明治町","lat":35.543245,"lng":133.227358},{"code":"312040230","name":"馬場崎町","lat":35.540423,"lng":133.227032},{"code":"312040240","name":"大正町","lat":35.545477,"lng":133.224851},{"code":"312040250","name":"浜ノ町","lat":35.543798,"lng":133.222164},{"code":"312040260","name":"米川町","lat":35.538542,"lng":133.221694},{"code":"312040270","name":"蓮池町","lat":35.540093,"lng":133.224097},{"code":"312040280","name":"弥生町","lat":35.542215,"lng":133.21943},{"code":"312040290","name":"湊町","lat":35.541602,"lng":133.230557},{"code":"312040300","name":"元町","lat":35.542392,"lng":133.234079},{"code":"312040310","name":"上道町","lat":35.539008,"lng":133.236356},{"code":"312040320","name":"中野町","lat":35.532801,"lng":133.23305},{"code":"312040330","name":"福定町","lat":35.527853,"lng":133.233772},{"code":"312040340","name":"竹内町","lat":35.522245,"lng":133.237926},{"code":"312040350","name":"高松町","lat":35.516218,"lng":133.243151},{"code":"312040360","name":"美保町","lat":35.518659,"lng":133.245827},{"code":"312040370","name":"誠道町","lat":35.515433,"lng":133.235205},{"code":"312040380","name":"竹内団地","lat":35.522829,"lng":133.252986},{"code":"312040390","name":"新屋町","lat":35.512866,"lng":133.240074},{"code":"312040400","name":"小篠津町","lat":35.503167,"lng":133.238193},{"code":"312040410","name":"麦垣町","lat":35.510289,"lng":133.251504},{"code":"312040420","name":"財ノ木町","lat":35.505255,"lng":133.252003},{"code":"312040430","name":"佐斐神町","lat":35.496126,"lng":133.242741},{"code":"312040440","name":"三軒屋町","lat":35.50922,"lng":133.229283},{"code":"312040450","name":"幸神町","lat":35.507235,"lng":133.239541},{"code":"312040470","name":"中海","lat":35.48984,"lng":133.224684},{"code":"312040480","name":"潮見町","lat":35.551368,"lng":133.268651},{"code":"312040490","name":"西工業団地","lat":35.526236,"lng":133.201909},{"code":"31204050001","name":"夕日ヶ丘１丁目","lat":35.502402,"lng":133.225342},{"code":"31204050002","name":"夕日ヶ丘２丁目","lat":35.507828,"lng":133.220812}]}
