{"municipality":"32525","name":"隠岐郡海士町","prefecture":"島根県","source":{"dataset":"frogcat/japan-small-area","census":"平成27年国勢調査 小地域（e-Stat 統計LOD）","license":"MIT（リポジトリ）／政府統計の総合窓口(e-Stat)の利用規約（元データ・出典表記必要）","fetched":"2026-07-06"},"towns":[{"code":"325250010","name":"大字福井","lat":36.097618,"lng":133.077253},{"code":"325250020","name":"大字海士","lat":36.095902,"lng":133.100257},{"code":"325250030","name":"大字宇受賀","lat":36.114342,"lng":133.108331},{"code":"325250040","name":"大字豊田","lat":36.105983,"lng":133.140624},{"code":"325250050","name":"大字知々井","lat":36.081366,"lng":133.120864},{"code":"325250060","name":"大字御波","lat":36.07074,"lng":133.09274},{"code":"325250070","name":"大字崎","lat":36.051952,"lng":133.082608}]}
