{"municipality":"33103","name":"岡山市東区","prefecture":"岡山県","source":{"dataset":"frogcat/japan-small-area","census":"平成27年国勢調査 小地域（e-Stat 統計LOD）","license":"MIT（リポジトリ）／政府統計の総合窓口(e-Stat)の利用規約（元データ・出典表記必要）","fetched":"2026-07-06"},"towns":[{"code":"331030010","name":"宍甘","lat":34.690887,"lng":133.993459},{"code":"331030020","name":"矢津","lat":34.707457,"lng":133.990649},{"code":"331030030","name":"古都宿","lat":34.697145,"lng":133.998924},{"code":"331030040","name":"藤井","lat":34.696509,"lng":134.004424},{"code":"331030050","name":"鉄","lat":34.697971,"lng":134.009584},{"code":"331030060","name":"古都南方","lat":34.685046,"lng":134.022066},{"code":"331030070","name":"目黒町","lat":34.672117,"lng":134.007868},{"code":"331030080","name":"大多羅町","lat":34.665319,"lng":134.00551},{"code":"331030090","name":"中川町","lat":34.66559,"lng":133.995018},{"code":"33103010001","name":"可知１丁目","lat":34.660347,"lng":134.001202},{"code":"33103010002","name":"可知２丁目","lat":34.656481,"lng":134.001504},{"code":"33103010003","name":"可知３丁目","lat":34.659937,"lng":134.003886},{"code":"33103010004","name":"可知４丁目","lat":34.656629,"lng":134.004138},{"code":"33103010005","name":"可知５丁目","lat":34.660016,"lng":134.007927},{"code":"331030110","name":"益野町","lat":34.653804,"lng":133.995773},{"code":"331030120","name":"松新町","lat":34.651431,"lng":134.005805},{"code":"331030130","name":"光津","lat":34.636993,"lng":133.991295},{"code":"331030140","name":"政津","lat":34.636474,"lng":134.001697},{"code":"331030150","name":"君津","lat":34.631842,"lng":134.009567},{"code":"331030160","name":"升田","lat":34.619076,"lng":133.99986},{"code":"331030170","name":"豊田","lat":34.616916,"lng":134.015893},{"code":"331030180","name":"九蟠","lat":34.615482,"lng":134.028315},{"code":"331030190","name":"金田","lat":34.634369,"lng":134.018303},{"code":"331030200","name":"西隆寺","lat":34.674413,"lng":134.053625},{"code":"331030210","name":"福治","lat":34.677993,"lng":134.04031},{"code":"331030220","name":"富崎","lat":34.66991,"lng":134.03792},{"code":"331030230","name":"久保","lat":34.665245,"lng":134.047832},{"code":"331030240","name":"河本町","lat":34.661559,"lng":134.0501},{"code":"331030250","name":"西大寺","lat":34.662198,"lng":134.041354},{"code":"331030260","name":"西大寺北","lat":34.663029,"lng":134.037076},{"code":"33103027001","name":"西大寺上１丁目","lat":34.659148,"lng":134.031697},{"code":"33103027002","name":"西大寺上２丁目","lat":34.659798,"lng":134.0355},{"code":"33103027003","name":"西大寺上３丁目","lat":34.659543,"lng":134.038738},{"code":"33103028001","name":"西大寺中１丁目","lat":34.653555,"lng":134.033879},{"code":"33103028002","name":"西大寺中２丁目","lat":34.655797,"lng":134.033869},{"code":"33103028003","name":"西大寺中３丁目","lat":34.65385,"lng":134.037751},{"code":"33103029001","name":"西大寺南１丁目","lat":34.651383,"lng":134.029284},{"code":"33103029002","name":"西大寺南２丁目","lat":34.650857,"lng":134.032795},{"code":"33103030001","name":"西大寺東１丁目","lat":34.65831,"lng":134.041062},{"code":"33103030002","name":"西大寺東２丁目","lat":34.657714,"lng":134.044266},{"code":"33103030003","name":"西大寺東３丁目","lat":34.658703,"lng":134.048325},{"code":"331030310","name":"向州","lat":34.654245,"lng":134.041118},{"code":"331030320","name":"西大寺中野本町","lat":34.654532,"lng":134.029332},{"code":"331030330","name":"西大寺中野","lat":34.65437,"lng":134.023939},{"code":"331030340","name":"浅越","lat":34.663978,"lng":134.028525},{"code":"331030350","name":"吉原","lat":34.672518,"lng":134.031632},{"code":"331030360","name":"西庄","lat":34.673928,"lng":134.024742},{"code":"331030370","name":"広谷","lat":34.660815,"lng":134.017713},{"code":"331030380","name":"西大寺松崎","lat":34.663958,"lng":134.012956},{"code":"331030390","name":"富士見町","lat":34.65935,"lng":134.012299},{"code":"33103040001","name":"金岡東町１丁目","lat":34.646313,"lng":134.028607},{"code":"33103040002","name":"金岡東町２丁目","lat":34.639383,"lng":134.027572},{"code":"33103040003","name":"金岡東町３丁目","lat":34.631252,"lng":134.028695},{"code":"331030410","name":"西大寺金岡","lat":34.63208,"lng":134.026046},{"code":"331030420","name":"金岡西町","lat":34.641357,"lng":134.022491},{"code":"331030430","name":"西大寺射越","lat":34.655885,"lng":134.054803},{"code":"331030440","name":"西大寺新地","lat":34.648593,"lng":134.05349},{"code":"331030450","name":"西大寺門前","lat":34.646966,"lng":134.060309},{"code":"331030460","name":"西大寺川口","lat":34.648994,"lng":134.048189},{"code":"331030470","name":"西大寺浜","lat":34.645891,"lng":134.042354},{"code":"331030480","name":"西大寺新","lat":34.638765,"lng":134.038373},{"code":"331030490","name":"西大寺五明","lat":34.640621,"lng":134.053487},{"code":"331030500","name":"長沼","lat":34.641503,"lng":134.067614},{"code":"331030510","name":"乙子","lat":34.628883,"lng":134.0405},{"code":"331030520","name":"神崎町","lat":34.631125,"lng":134.051462},{"code":"331030530","name":"邑久郷","lat":34.627605,"lng":134.073424},{"code":"331030540","name":"西幸西","lat":34.611593,"lng":134.045554},{"code":"331030550","name":"東幸西","lat":34.615727,"lng":134.05185},{"code":"331030560","name":"水門町","lat":34.614642,"lng":134.061878},{"code":"331030570","name":"北幸田","lat":34.623056,"lng":134.062143},{"code":"331030580","name":"南水門町","lat":34.608698,"lng":134.070976},{"code":"331030590","name":"東幸崎","lat":34.613741,"lng":134.081877},{"code":"331030600","name":"幸地崎町","lat":34.618421,"lng":134.080161},{"code":"331030610","name":"宿毛","lat":34.623016,"lng":134.085049},{"code":"331030620","name":"下阿知","lat":34.62825,"lng":134.09578},{"code":"331030630","name":"上阿知","lat":34.624692,"lng":134.106113},{"code":"331030640","name":"千手","lat":34.620934,"lng":134.112156},{"code":"331030650","name":"西大寺一宮","lat":34.606883,"lng":134.103083},{"code":"331030660","name":"宝伝","lat":34.590642,"lng":134.099065},{"code":"331030670","name":"東片岡","lat":34.604271,"lng":134.091126},{"code":"331030680","name":"西片岡","lat":34.597763,"lng":134.078865},{"code":"331030690","name":"正儀","lat":34.593649,"lng":134.063283},{"code":"331030700","name":"久々井","lat":34.587347,"lng":134.08439},{"code":"331030710","name":"犬島","lat":34.563357,"lng":134.10148},{"code":"331030720","name":"吉井","lat":34.719131,"lng":134.090254},{"code":"331030730","name":"一日市","lat":34.714939,"lng":134.08199},{"code":"331030740","name":"西祖","lat":34.712487,"lng":134.076305},{"code":"331030750","name":"寺山","lat":34.703119,"lng":134.078642},{"code":"331030760","name":"浅川","lat":34.706623,"lng":134.070688},{"code":"331030770","name":"矢井","lat":34.707123,"lng":134.06099},{"code":"331030780","name":"楢原","lat":34.70149,"lng":134.061835},{"code":"331030790","name":"竹原","lat":34.689544,"lng":134.052902},{"code":"331030800","name":"才崎","lat":34.692257,"lng":134.066286},{"code":"331030810","name":"内ケ原","lat":34.69457,"lng":134.074685},{"code":"331030820","name":"百枝月","lat":34.681117,"lng":134.068402},{"code":"331030830","name":"上道北方","lat":34.699709,"lng":134.016325},{"code":"331030840","name":"沼","lat":34.701817,"lng":134.037661},{"code":"331030850","name":"中尾","lat":34.702546,"lng":134.024247},{"code":"331030860","name":"草ケ部","lat":34.716612,"lng":134.028708},{"code":"331030870","name":"谷尻","lat":34.725513,"lng":134.034641},{"code":"331030880","name":"東平島","lat":34.712149,"lng":134.05149},{"code":"331030890","name":"砂場","lat":34.717386,"lng":134.041337},{"code":"331030900","name":"西平島","lat":34.712104,"lng":134.044496},{"code":"331030910","name":"南古都","lat":34.701619,"lng":134.049137},{"code":"331030920","name":"浦間","lat":34.715761,"lng":134.063538},{"code":"33103093001","name":"城東台西１丁目","lat":34.693138,"lng":134.019396},{"code":"33103093002","name":"城東台西２丁目","lat":34.694212,"lng":134.022486},{"code":"33103093003","name":"城東台西３丁目","lat":34.692371,"lng":134.02454},{"code":"33103094001","name":"城東台東１丁目","lat":34.695607,"lng":134.026832},{"code":"33103094002","name":"城東台東２丁目","lat":34.696464,"lng":134.029514},{"code":"33103095001","name":"城東台南１丁目","lat":34.693051,"lng":134.028115},{"code":"33103095002","name":"城東台南２丁目","lat":34.695354,"lng":134.030875},{"code":"331030960","name":"瀬戸町森末","lat":34.749172,"lng":134.054436},{"code":"331030970","name":"瀬戸町寺地","lat":34.743039,"lng":134.049541},{"code":"331030980","name":"瀬戸町光明谷","lat":34.740397,"lng":134.042855},{"code":"331030990","name":"瀬戸町瀬戸","lat":34.73829,"lng":134.037262},{"code":"331031000","name":"瀬戸町下","lat":34.730555,"lng":134.042406},{"code":"331031010","name":"瀬戸町沖","lat":34.721355,"lng":134.044473},{"code":"331031020","name":"瀬戸町二日市","lat":34.759494,"lng":134.087304},{"code":"331031030","name":"瀬戸町万富","lat":34.767282,"lng":134.082421},{"code":"331031040","name":"瀬戸町大井","lat":34.768657,"lng":134.075863},{"code":"331031050","name":"瀬戸町鍛冶屋","lat":34.771358,"lng":134.068797},{"code":"331031060","name":"瀬戸町塩納","lat":34.761497,"lng":134.056774},{"code":"331031070","name":"瀬戸町宗堂","lat":34.752727,"lng":134.062781},{"code":"331031080","name":"瀬戸町坂根","lat":34.741809,"lng":134.063388},{"code":"331031090","name":"瀬戸町南方","lat":34.746887,"lng":134.080654},{"code":"331031100","name":"瀬戸町弓削","lat":34.752897,"lng":134.104623},{"code":"331031110","name":"瀬戸町江尻","lat":34.728676,"lng":134.052269},{"code":"33103112001","name":"瀬戸町旭ヶ丘１丁目","lat":34.724232,"lng":134.052666},{"code":"33103112002","name":"瀬戸町旭ヶ丘２丁目","lat":34.726351,"lng":134.051655},{"code":"33103112003","name":"瀬戸町旭ヶ丘３丁目","lat":34.72517,"lng":134.049908},{"code":"33103112004","name":"瀬戸町旭ヶ丘４丁目","lat":34.724807,"lng":134.047398},{"code":"331031130","name":"瀬戸町肩脊","lat":34.729245,"lng":134.071395},{"code":"331031140","name":"瀬戸町大内","lat":34.734466,"lng":134.094646},{"code":"331031150","name":"瀬戸町笹岡","lat":34.730461,"lng":134.025838},{"code":"331031160","name":"瀬戸町観音寺","lat":34.724366,"lng":134.009564},{"code":"331031170","name":"瀬戸町宿奥","lat":34.715172,"lng":134.004188},{"code":"331031180","name":"瀬戸町菊山","lat":34.71077,"lng":134.018364}]}
