{"municipality":"33209","name":"高梁市","prefecture":"岡山県","source":{"dataset":"frogcat/japan-small-area","census":"平成27年国勢調査 小地域（e-Stat 統計LOD）","license":"MIT（リポジトリ）／政府統計の総合窓口(e-Stat)の利用規約（元データ・出典表記必要）","fetched":"2026-07-06"},"towns":[{"code":"33209001001","name":"松山楢井","lat":34.787053,"lng":133.643186},{"code":"33209001002","name":"松山玉坂","lat":34.77389,"lng":133.645009},{"code":"33209001003","name":"松山山ノ上","lat":34.764761,"lng":133.626263},{"code":"33209001005","name":"松山大久保","lat":34.773981,"lng":133.621422},{"code":"33209001006","name":"松山河内谷","lat":34.768119,"lng":133.608427},{"code":"33209001007","name":"松山広瀬","lat":34.759263,"lng":133.611592},{"code":"33209002001","name":"内山下１","lat":34.804325,"lng":133.61595},{"code":"33209002002","name":"内山下２，３，４","lat":34.803366,"lng":133.617869},{"code":"33209002003","name":"内山下高梁高校寮","lat":34.800377,"lng":133.618414},{"code":"33209002004","name":"内山下","lat":34.800809,"lng":133.616723},{"code":"332090030","name":"川端町","lat":34.80098,"lng":133.615584},{"code":"33209004001","name":"本町１","lat":34.799523,"lng":133.615741},{"code":"33209004002","name":"本町２","lat":34.798603,"lng":133.615629},{"code":"33209004003","name":"本町３","lat":34.797816,"lng":133.615644},{"code":"33209004004","name":"本町４","lat":34.797102,"lng":133.615477},{"code":"33209005001","name":"新町１","lat":34.799667,"lng":133.616974},{"code":"33209005002","name":"新町２","lat":34.79866,"lng":133.61693},{"code":"33209005003","name":"新町３","lat":34.797658,"lng":133.616839},{"code":"33209005004","name":"新町４","lat":34.796919,"lng":133.61678},{"code":"33209007001","name":"御前町","lat":34.799304,"lng":133.619757},{"code":"33209007002","name":"御前町日新高校寮","lat":34.799456,"lng":133.619146},{"code":"332090080","name":"石火矢町","lat":34.799281,"lng":133.61812},{"code":"332090090","name":"頼久寺町","lat":34.797272,"lng":133.618817},{"code":"332090100","name":"中之町","lat":34.797252,"lng":133.617636},{"code":"33209011001","name":"伊賀町","lat":34.797679,"lng":133.622547},{"code":"33209011003","name":"伊賀町８番地","lat":34.797216,"lng":133.624945},{"code":"332090120","name":"片原町","lat":34.798957,"lng":133.617512},{"code":"332090130","name":"向町","lat":34.795472,"lng":133.618247},{"code":"33209014001","name":"寺町Ａ","lat":34.795591,"lng":133.619047},{"code":"33209014002","name":"寺町Ｂ","lat":34.795522,"lng":133.61979},{"code":"332090150","name":"荒神町","lat":34.794614,"lng":133.616763},{"code":"332090160","name":"甲賀町","lat":34.794052,"lng":133.61671},{"code":"332090170","name":"八幡町","lat":34.79372,"lng":133.616676},{"code":"332090180","name":"柿木町","lat":34.795139,"lng":133.617517},{"code":"332090190","name":"大工町","lat":34.795617,"lng":133.616933},{"code":"332090200","name":"間之町","lat":34.793112,"lng":133.618162},{"code":"33209021001","name":"鍛冶町１，紺屋町","lat":34.796207,"lng":133.616594},{"code":"33209021002","name":"鍛冶町２上","lat":34.795164,"lng":133.616093},{"code":"33209021003","name":"鍛冶町２下，３上","lat":34.794229,"lng":133.61596},{"code":"33209021004","name":"鍛冶町３中，３下","lat":34.793367,"lng":133.615782},{"code":"33209022001","name":"下町１","lat":34.796259,"lng":133.615597},{"code":"33209022002","name":"下町２","lat":34.795167,"lng":133.61542},{"code":"33209022003","name":"下町３","lat":34.794071,"lng":133.615253},{"code":"33209022004","name":"下町４，５","lat":34.793237,"lng":133.614407},{"code":"33209023001","name":"南町１上，１下","lat":34.792307,"lng":133.614862},{"code":"33209023002","name":"南町２","lat":34.791276,"lng":133.614788},{"code":"33209023003","name":"南町３","lat":34.790365,"lng":133.614369},{"code":"33209023004","name":"南町４","lat":34.789426,"lng":133.613812},{"code":"33209023005","name":"南町５","lat":34.788647,"lng":133.613561},{"code":"33209023006","name":"南町６","lat":34.787424,"lng":133.612534},{"code":"33209024001","name":"中間町１","lat":34.795688,"lng":133.614623},{"code":"33209024002","name":"中間町２の１，２の２","lat":34.794061,"lng":133.614161},{"code":"33209025001","name":"鉄砲町上","lat":34.792558,"lng":133.613572},{"code":"33209025002","name":"鉄砲町下","lat":34.791512,"lng":133.612974},{"code":"33209025003","name":"鉄砲町２上","lat":34.790418,"lng":133.612528},{"code":"33209026001","name":"弓之町１上","lat":34.792376,"lng":133.614379},{"code":"33209026002","name":"弓之町１下","lat":34.790962,"lng":133.613758},{"code":"33209026003","name":"弓之町２下","lat":34.789729,"lng":133.61225},{"code":"332090270","name":"旭町","lat":34.788283,"lng":133.614852},{"code":"332090280","name":"東町","lat":34.792192,"lng":133.615649},{"code":"33209029001","name":"栄町１上","lat":34.790936,"lng":133.615424},{"code":"33209029002","name":"栄町１下","lat":34.789825,"lng":133.615156},{"code":"33209029003","name":"栄町２","lat":34.789357,"lng":133.616123},{"code":"33209030001","name":"正宗町１，２，３","lat":34.790594,"lng":133.616296},{"code":"33209030003","name":"正宗町","lat":34.791057,"lng":133.617721},{"code":"33209030004","name":"正宗町４","lat":34.790258,"lng":133.617331},{"code":"33209031001","name":"松原通１","lat":34.793079,"lng":133.616602},{"code":"33209031002","name":"松原通２","lat":34.792053,"lng":133.616869},{"code":"33209031003","name":"松原通３","lat":34.791607,"lng":133.617586},{"code":"332090320","name":"中原町","lat":34.785192,"lng":133.612257},{"code":"33209033001","name":"横町２","lat":34.788744,"lng":133.61165},{"code":"33209033002","name":"横町１","lat":34.787233,"lng":133.610774},{"code":"33209033003","name":"横町","lat":34.785919,"lng":133.611289},{"code":"33209033004","name":"横町４","lat":34.784999,"lng":133.609781},{"code":"332090340","name":"段町","lat":34.779391,"lng":133.603418},{"code":"33209035001","name":"小高下町上","lat":34.809623,"lng":133.625176},{"code":"33209035002","name":"小高下町下","lat":34.800706,"lng":133.621763},{"code":"33209036001","name":"奥万田町１下","lat":34.79375,"lng":133.622771},{"code":"33209036002","name":"奥万田町","lat":34.794595,"lng":133.622565},{"code":"33209036003","name":"奥万田町１上","lat":34.80119,"lng":133.640786},{"code":"33209036005","name":"奥万田町２上，２下","lat":34.796016,"lng":133.622028},{"code":"33209037001","name":"和田町１","lat":34.793239,"lng":133.620584},{"code":"33209037004","name":"和田町２","lat":34.790922,"lng":133.622066},{"code":"332090380","name":"浜町","lat":34.789282,"lng":133.617994},{"code":"33209039001","name":"原田北町２","lat":34.785835,"lng":133.616019},{"code":"33209039002","name":"原田北町１","lat":34.787114,"lng":133.616903},{"code":"33209039003","name":"原田北町３","lat":34.784898,"lng":133.615287},{"code":"332090400","name":"原田南町","lat":34.782317,"lng":133.612209},{"code":"33209041001","name":"上谷町","lat":34.783852,"lng":133.622503},{"code":"33209041002","name":"上谷町楢林","lat":34.787494,"lng":133.62328},{"code":"332090420","name":"下谷町","lat":34.779706,"lng":133.616484},{"code":"33209102001","name":"津川町今津佐与谷","lat":34.820307,"lng":133.639568},{"code":"33209102002","name":"津川町今津幡見，池田，地久","lat":34.821594,"lng":133.624056},{"code":"33209102003","name":"津川町今津駅前３，４","lat":34.826304,"lng":133.618724},{"code":"33209102004","name":"津川町今津駅前１，２","lat":34.825739,"lng":133.614041},{"code":"33209102005","name":"津川町今津今津下，ひかり団地","lat":34.831028,"lng":133.616005},{"code":"33209102006","name":"津川町今津今津中","lat":34.830707,"lng":133.60954},{"code":"33209102007","name":"津川町今津今津上","lat":34.836074,"lng":133.606517},{"code":"33209102008","name":"津川町今津辻巻上，下","lat":34.814538,"lng":133.615612},{"code":"33209201001","name":"津川町八川実相寺上，実相寺下","lat":34.861054,"lng":133.623724},{"code":"33209201002","name":"津川町八川花田，木野山","lat":34.850102,"lng":133.620912},{"code":"33209201003","name":"津川町八川和井元，高下迫","lat":34.85273,"lng":133.633398},{"code":"33209201004","name":"津川町八川久原，堂屋敷","lat":34.846424,"lng":133.637509},{"code":"33209201005","name":"津川町八川渡瀬，中曾","lat":34.840899,"lng":133.630009},{"code":"33209201006","name":"津川町八川出口，小才藤","lat":34.832238,"lng":133.625881},{"code":"33209201007","name":"津川町八川駿河","lat":34.833595,"lng":133.6355},{"code":"33209301001","name":"川面町野瀬広瀬","lat":34.861365,"lng":133.574111},{"code":"33209301002","name":"川面町八石，友行，高尾田","lat":34.866572,"lng":133.587655},{"code":"33209301003","name":"川面町大倉，中田，丸岩，桐山","lat":34.872205,"lng":133.601312},{"code":"33209301004","name":"川面町平田，中山，井才，辻前","lat":34.8639,"lng":133.606936},{"code":"33209301005","name":"川面町家地，大仁子","lat":34.85179,"lng":133.611422},{"code":"33209301006","name":"川面町古川","lat":34.852178,"lng":133.604006},{"code":"33209301007","name":"川面町久賀，屋敷","lat":34.854206,"lng":133.597477},{"code":"33209301008","name":"川面町鴨谷，名越","lat":34.858369,"lng":133.588933},{"code":"33209301009","name":"川面町押野上，押野下","lat":34.85506,"lng":133.584457},{"code":"33209301010","name":"川面町駅前，西屋","lat":34.849813,"lng":133.590181},{"code":"33209301011","name":"川面町市場４，５","lat":34.84823,"lng":133.595223},{"code":"33209301013","name":"川面町市場北，１，２，３","lat":34.848299,"lng":133.598413},{"code":"33209301015","name":"川面町鳴戸，津和谷","lat":34.842108,"lng":133.604391},{"code":"33209401001","name":"巨瀬町野前，家親","lat":34.880989,"lng":133.604244},{"code":"33209401002","name":"巨瀬町茶屋，和名谷","lat":34.89128,"lng":133.610214},{"code":"33209401003","name":"巨瀬町安元，古屋，横田","lat":34.887262,"lng":133.619569},{"code":"33209401004","name":"巨瀬町畑，園尾，友末","lat":34.888932,"lng":133.629845},{"code":"33209401005","name":"巨瀬町宮瀬上，宮瀬下","lat":34.879129,"lng":133.634955},{"code":"33209401006","name":"巨瀬町上塩坪，塩坪上の下","lat":34.879399,"lng":133.643735},{"code":"33209401007","name":"巨瀬町片岡","lat":34.881017,"lng":133.652738},{"code":"33209401008","name":"巨瀬町塩坪中，塩坪下","lat":34.873625,"lng":133.654433},{"code":"33209401009","name":"巨瀬町陰地西，陰地東","lat":34.866936,"lng":133.65119},{"code":"33209401010","name":"巨瀬町柳上，柳下","lat":34.857752,"lng":133.645076},{"code":"33209401011","name":"巨瀬町柳川西","lat":34.862629,"lng":133.634263},{"code":"33209401012","name":"巨瀬町尾原上，尾原下","lat":34.871524,"lng":133.630467},{"code":"33209401013","name":"巨瀬町中畝，鴨木，国時","lat":34.870301,"lng":133.618124},{"code":"33209402001","name":"中井町津々山際","lat":34.944923,"lng":133.592026},{"code":"33209402002","name":"中井町津々入野，横内","lat":34.935922,"lng":133.601098},{"code":"33209402003","name":"中井町津々本村後","lat":34.924697,"lng":133.612798},{"code":"33209402004","name":"中井町津々本村前，追田","lat":34.911643,"lng":133.614485},{"code":"33209402005","name":"中井町津々畑，津々羅","lat":34.915686,"lng":133.600875},{"code":"33209501001","name":"中井町西方上野上，上野下","lat":34.921258,"lng":133.578522},{"code":"33209501002","name":"中井町西方花木西，花木中","lat":34.908181,"lng":133.567914},{"code":"33209501003","name":"中井町西方鍛冶屋町，新市","lat":34.905629,"lng":133.574159},{"code":"33209501004","name":"中井町西方市場，西","lat":34.913155,"lng":133.58254},{"code":"33209501005","name":"中井町西方佐内，西本，庄屋谷","lat":34.903863,"lng":133.592402},{"code":"33209501006","name":"中井町西方蔵ケ市，西迫，井戸","lat":34.895988,"lng":133.585221},{"code":"33209501007","name":"中井町西方柴倉前，柴倉後","lat":34.888517,"lng":133.580309},{"code":"33209501008","name":"中井町西方大草，丑手","lat":34.879207,"lng":133.57903},{"code":"33209501009","name":"中井町西方大松，入江","lat":34.878292,"lng":133.564178},{"code":"33209502001","name":"玉川町玉大沢，寺ノ下","lat":34.746821,"lng":133.610944},{"code":"33209502002","name":"玉川町玉勘場","lat":34.753572,"lng":133.597302},{"code":"33209502003","name":"玉川町玉舟津上，舟津下，のぞみ","lat":34.760566,"lng":133.600542},{"code":"33209502004","name":"玉川町玉神崎上，神崎下","lat":34.77108,"lng":133.598028},{"code":"33209503001","name":"玉川町増原日名大谷","lat":34.746307,"lng":133.56947},{"code":"33209503002","name":"玉川町増原中杉上，中杉下","lat":34.731588,"lng":133.563223},{"code":"33209503003","name":"玉川町増原陰地大谷","lat":34.74135,"lng":133.580201},{"code":"33209503004","name":"玉川町増原下村，中仙戸","lat":34.725562,"lng":133.574297},{"code":"33209503005","name":"玉川町増原上野上","lat":34.736911,"lng":133.591391},{"code":"33209601001","name":"玉川町下切下切西，下切東","lat":34.768201,"lng":133.573106},{"code":"33209601002","name":"玉川町下切根古里，大成，笠根","lat":34.760647,"lng":133.580751},{"code":"33209602001","name":"宇治町穴田野呂東西，白和","lat":34.822846,"lng":133.470326},{"code":"33209602002","name":"宇治町穴田陰地前，中，後","lat":34.818426,"lng":133.457067},{"code":"33209602003","name":"宇治町穴田宮陰地，日名上，中，下","lat":34.813698,"lng":133.474772},{"code":"33209602004","name":"宇治町穴田丸山前，後","lat":34.820329,"lng":133.48605},{"code":"33209603001","name":"宇治町宇治石田","lat":34.846456,"lng":133.50088},{"code":"33209603002","name":"宇治町宇治郷上，中，下","lat":34.822161,"lng":133.496154},{"code":"33209603003","name":"宇治町宇治柴原，後谷","lat":34.823406,"lng":133.512212},{"code":"33209604001","name":"宇治町本郷笹尾東","lat":34.860503,"lng":133.495179},{"code":"33209604002","name":"宇治町本郷笹尾西","lat":34.84297,"lng":133.481918},{"code":"33209604003","name":"宇治町本郷中組","lat":34.834919,"lng":133.485608},{"code":"33209604004","name":"宇治町本郷本郷，広岩","lat":34.829299,"lng":133.480915},{"code":"332097010","name":"宇治町遠原","lat":34.843126,"lng":133.520969},{"code":"33209702001","name":"松原町松岡松岡東，陣山","lat":34.830907,"lng":133.53457},{"code":"33209702002","name":"松原町松岡中筋，中の村","lat":34.82319,"lng":133.540177},{"code":"33209702003","name":"松原町松岡野呂，皆畑，畑谷","lat":34.814303,"lng":133.548},{"code":"33209702004","name":"松原町松岡大西，定安，庄屋，小成","lat":34.813566,"lng":133.530699},{"code":"33209703001","name":"松原町春木後春木，春木上","lat":34.8294,"lng":133.557342},{"code":"33209703002","name":"松原町春木東春木，春木下，皆名","lat":34.833435,"lng":133.566258},{"code":"33209704001","name":"松原町神原神原北，神原西","lat":34.822513,"lng":133.578534},{"code":"33209704002","name":"松原町神原神原南，神原東","lat":34.815068,"lng":133.589497},{"code":"332098010","name":"松原町大津寄","lat":34.810423,"lng":133.561233},{"code":"33209802001","name":"高倉町飯部大栢，河内，尾崎，秋ケ迫","lat":34.868107,"lng":133.537827},{"code":"33209802002","name":"高倉町飯部石浦，高谷，飯部","lat":34.857385,"lng":133.550683},{"code":"33209802003","name":"高倉町飯部眠里，浅所，井ノ木","lat":34.844117,"lng":133.552569},{"code":"33209803001","name":"高倉町田井梶村上，梶村下","lat":34.852214,"lng":133.574154},{"code":"33209803002","name":"高倉町田井白木，野原，皆名","lat":34.841872,"lng":133.577964},{"code":"33209803003","name":"高倉町田井上秋町，保々氷","lat":34.840612,"lng":133.590156},{"code":"33209803004","name":"高倉町田井下秋町，高山","lat":34.830783,"lng":133.593229},{"code":"33209803005","name":"高倉町田井肉谷，肉谷住宅","lat":34.824395,"lng":133.599795},{"code":"33209901001","name":"高倉町大瀬八長","lat":34.821466,"lng":133.612025},{"code":"33209901002","name":"高倉町大瀬八長大瀬","lat":34.819037,"lng":133.608331},{"code":"33209901003","name":"高倉町大瀬八長八長","lat":34.808801,"lng":133.607962},{"code":"33209902001","name":"落合町阿部市場","lat":34.77998,"lng":133.598912},{"code":"33209902003","name":"落合町阿部北山","lat":34.783111,"lng":133.59483},{"code":"33209902006","name":"落合町阿部中二","lat":34.780783,"lng":133.588347},{"code":"33209902007","name":"落合町阿部中一","lat":34.776878,"lng":133.590835},{"code":"33209902008","name":"落合町阿部中一雇用促進住宅","lat":34.77815,"lng":133.590545},{"code":"33209902009","name":"落合町阿部中三","lat":34.777568,"lng":133.586129},{"code":"33209902011","name":"落合町阿部２２００番地","lat":34.779925,"lng":133.583096},{"code":"33209902012","name":"落合町阿部井谷","lat":34.781242,"lng":133.581021},{"code":"33209902016","name":"落合町阿部２５２８番地１","lat":34.786706,"lng":133.583285},{"code":"33209902018","name":"落合町阿部３０９１番地","lat":34.782987,"lng":133.576638},{"code":"33209902019","name":"落合町阿部才原","lat":34.78155,"lng":133.57558},{"code":"33209902020","name":"落合町阿部小瀬","lat":34.775143,"lng":133.576099},{"code":"33209902022","name":"落合町阿部藤倉","lat":34.780367,"lng":133.569551},{"code":"33209903001","name":"落合町福地野坂，難波江","lat":34.803309,"lng":133.532256},{"code":"33209903002","name":"落合町福地本村，垂谷","lat":34.801173,"lng":133.545907},{"code":"33209903003","name":"落合町福地谷山，白水","lat":34.795563,"lng":133.551839},{"code":"33209903004","name":"落合町福地鍋坂，境谷","lat":34.786217,"lng":133.557993},{"code":"33209904001","name":"落合町原田川西，原田","lat":34.794347,"lng":133.569135},{"code":"33209904002","name":"落合町原田川中，川東","lat":34.798615,"lng":133.581067},{"code":"33209905001","name":"落合町近似日名","lat":34.798476,"lng":133.610468},{"code":"33209905002","name":"落合町近似鍛冶屋町","lat":34.797423,"lng":133.612872},{"code":"33209905003","name":"落合町近似奥","lat":34.796823,"lng":133.598617},{"code":"33209905004","name":"落合町近似陰地下","lat":34.791256,"lng":133.609848},{"code":"33209905005","name":"落合町近似陰地上","lat":34.792748,"lng":133.606588},{"code":"33209905006","name":"落合町近似下組","lat":34.786399,"lng":133.606855},{"code":"33209905007","name":"落合町近似光ヶ丘","lat":34.782776,"lng":133.602147},{"code":"33209906001","name":"有漢町有漢山形","lat":34.888987,"lng":133.647667},{"code":"33209906002","name":"有漢町有漢大谷","lat":34.899484,"lng":133.639434},{"code":"33209906003","name":"有漢町有漢羽場","lat":34.896609,"lng":133.646772},{"code":"33209906004","name":"有漢町有漢下市","lat":34.897855,"lng":133.652062},{"code":"33209906005","name":"有漢町有漢市場，新市場","lat":34.901154,"lng":133.64979},{"code":"33209906006","name":"有漢町有漢中市","lat":34.902333,"lng":133.652285},{"code":"33209906007","name":"有漢町有漢古市","lat":34.899691,"lng":133.656404},{"code":"33209906008","name":"有漢町有漢上市","lat":34.904613,"lng":133.65515},{"code":"33209906009","name":"有漢町有漢鈴岳","lat":34.908064,"lng":133.658219},{"code":"33209906010","name":"有漢町有漢八幡","lat":34.907962,"lng":133.665408},{"code":"33209906011","name":"有漢町有漢大塚","lat":34.916259,"lng":133.661803},{"code":"33209906012","name":"有漢町有漢茶堂","lat":34.913546,"lng":133.668524},{"code":"33209906013","name":"有漢町有漢土居","lat":34.918085,"lng":133.674872},{"code":"33209906014","name":"有漢町有漢安元","lat":34.905534,"lng":133.695612},{"code":"33209906015","name":"有漢町有漢上横見","lat":34.901068,"lng":133.689404},{"code":"33209906016","name":"有漢町有漢下横見，緑丘","lat":34.908385,"lng":133.68449},{"code":"33209906017","name":"有漢町有漢畦地","lat":34.907341,"lng":133.676116},{"code":"33209906018","name":"有漢町有漢貞守","lat":34.89924,"lng":133.671771},{"code":"33209906019","name":"有漢町有漢城下","lat":34.894727,"lng":133.667203},{"code":"33209906020","name":"有漢町有漢元重","lat":34.893079,"lng":133.662246},{"code":"33209906021","name":"有漢町有漢信清","lat":34.888459,"lng":133.658443},{"code":"33209906022","name":"有漢町有漢","lat":34.942259,"lng":133.680845},{"code":"33209906023","name":"有漢町有漢山林１","lat":34.906057,"lng":133.640118},{"code":"33209906024","name":"有漢町有漢山林２","lat":34.89239,"lng":133.686708},{"code":"33209907001","name":"有漢町上有漢西組","lat":34.92385,"lng":133.661213},{"code":"33209907002","name":"有漢町上有漢中組","lat":34.9327,"lng":133.6685},{"code":"33209907003","name":"有漢町上有漢大谷","lat":34.928103,"lng":133.676879},{"code":"33209907004","name":"有漢町上有漢神明","lat":34.937018,"lng":133.683888},{"code":"33209907005","name":"有漢町上有漢川関上","lat":34.93638,"lng":133.709485},{"code":"33209907006","name":"有漢町上有漢川関下","lat":34.933026,"lng":133.694578},{"code":"33209907007","name":"有漢町上有漢下金倉","lat":34.923355,"lng":133.709353},{"code":"33209907008","name":"有漢町上有漢上金倉","lat":34.915374,"lng":133.709866},{"code":"33209907009","name":"有漢町上有漢垣上","lat":34.921194,"lng":133.685831},{"code":"33209907010","name":"有漢町上有漢上組（大宗）","lat":34.913873,"lng":133.692477},{"code":"33209907011","name":"有漢町上有漢上組（大石）","lat":34.911402,"lng":133.701793},{"code":"33209907012","name":"有漢町上有漢上組（中尾）","lat":34.918106,"lng":133.700503},{"code":"33209907013","name":"有漢町上有漢垣上（石寺）","lat":34.92257,"lng":133.697907},{"code":"33209907014","name":"有漢町上有漢垣元","lat":34.914113,"lng":133.685854},{"code":"332099080","name":"成羽町佐々木","lat":34.777229,"lng":133.510511},{"code":"33209909001","name":"成羽町星原星原丁，星原台","lat":34.772057,"lng":133.520821},{"code":"33209909002","name":"成羽町星原星鷹丁，星ヶ丘","lat":34.775947,"lng":133.532237},{"code":"33209909003","name":"成羽町星原星鷹丁","lat":34.779562,"lng":133.534786},{"code":"33209910001","name":"成羽町下原本丁上","lat":34.781977,"lng":133.536543},{"code":"33209910002","name":"成羽町下原本丁下","lat":34.782344,"lng":133.53813},{"code":"33209910003","name":"成羽町下原新町","lat":34.782959,"lng":133.540007},{"code":"33209910004","name":"成羽町下原本町上ノ丁","lat":34.783506,"lng":133.542082},{"code":"33209910005","name":"成羽町下原本町中ノ丁","lat":34.783692,"lng":133.543586},{"code":"33209910006","name":"成羽町下原本町次ノ丁","lat":34.784144,"lng":133.545004},{"code":"33209910007","name":"成羽町下原本町下ノ丁","lat":34.784503,"lng":133.546439},{"code":"33209910008","name":"成羽町下原東町の一部１","lat":34.784442,"lng":133.548513},{"code":"33209910009","name":"成羽町下原妙見町の一部第６号団地","lat":34.783572,"lng":133.548429},{"code":"33209910010","name":"成羽町下原東町の一部２","lat":34.784058,"lng":133.550674},{"code":"33209910011","name":"成羽町下原旭町","lat":34.781293,"lng":133.552452},{"code":"33209910012","name":"成羽町下原白谷の一部","lat":34.781806,"lng":133.548888},{"code":"33209910013","name":"成羽町下原妙見の一部成羽病院","lat":34.782846,"lng":133.547238},{"code":"33209910014","name":"成羽町下原妙見の一部","lat":34.783338,"lng":133.546658},{"code":"33209910015","name":"成羽町下原妙見の一部鶴寿荘","lat":34.782962,"lng":133.547088},{"code":"33209910016","name":"成羽町下原山崎町","lat":34.779654,"lng":133.537402},{"code":"33209910017","name":"成羽町下原柳丁","lat":34.781562,"lng":133.541009},{"code":"33209910019","name":"成羽町下原森林地帯","lat":34.765994,"lng":133.53056},{"code":"33209910020","name":"成羽町下原白谷の一部１","lat":34.781471,"lng":133.543488},{"code":"33209910021","name":"成羽町下原栄町","lat":34.782569,"lng":133.544384},{"code":"33209910022","name":"成羽町下原白谷の一部２","lat":34.779875,"lng":133.546226},{"code":"33209910023","name":"成羽町下原愛宕","lat":34.781751,"lng":133.547222},{"code":"33209911001","name":"成羽町成羽中渡町の一部１","lat":34.788652,"lng":133.532324},{"code":"33209911002","name":"成羽町成羽成美町","lat":34.787204,"lng":133.531834},{"code":"33209911003","name":"成羽町成羽新張丁","lat":34.785893,"lng":133.534057},{"code":"33209911004","name":"成羽町成羽城の西，桜丁の一部","lat":34.784945,"lng":133.53242},{"code":"33209911005","name":"成羽町成羽古町下の丁","lat":34.783346,"lng":133.535687},{"code":"33209911006","name":"成羽町成羽古町中ノ丁の一部１","lat":34.782666,"lng":133.534512},{"code":"33209911007","name":"成羽町成羽古町中ノ丁の一部２","lat":34.783437,"lng":133.534235},{"code":"33209911008","name":"成羽町成羽桜丁の一部","lat":34.783759,"lng":133.533493},{"code":"33209911009","name":"成羽町成羽古町上ノ丁の一部１","lat":34.782768,"lng":133.532804},{"code":"33209911010","name":"成羽町成羽古町上ノ丁の一部２","lat":34.7841,"lng":133.531477},{"code":"33209911011","name":"成羽町成羽住友丁，古町上の丁の一部","lat":34.782313,"lng":133.529161},{"code":"33209911012","name":"成羽町成羽西枝の一部１","lat":34.798949,"lng":133.522991},{"code":"33209911013","name":"成羽町成羽東枝","lat":34.792734,"lng":133.533126},{"code":"33209911014","name":"成羽町成羽西枝の一部２","lat":34.795126,"lng":133.519234},{"code":"33209911015","name":"成羽町成羽天満町の一部１","lat":34.790363,"lng":133.524231},{"code":"33209911016","name":"成羽町成羽中渡町の一部２","lat":34.789803,"lng":133.529243},{"code":"33209911017","name":"成羽町成羽山本上","lat":34.788352,"lng":133.51704},{"code":"33209911018","name":"成羽町成羽山本下","lat":34.785657,"lng":133.526937},{"code":"33209911019","name":"成羽町成羽天満町の一部２","lat":34.786434,"lng":133.528544},{"code":"33209911020","name":"成羽町成羽天神カ丘","lat":34.785964,"lng":133.530221},{"code":"33209911021","name":"成羽町成羽成羽川荘","lat":34.787024,"lng":133.529241},{"code":"33209911022","name":"成羽町成羽下市，大谷","lat":34.787273,"lng":133.541067},{"code":"33209911023","name":"成羽町成羽小滝","lat":34.789397,"lng":133.540692},{"code":"33209911024","name":"成羽町成羽新山","lat":34.783592,"lng":133.507405},{"code":"33209911025","name":"成羽町成羽佐原","lat":34.78229,"lng":133.522617},{"code":"332099120","name":"成羽町羽山","lat":34.809072,"lng":133.507393},{"code":"33209913001","name":"成羽町下日名下組","lat":34.771479,"lng":133.546967},{"code":"33209913002","name":"成羽町下日名渡雁","lat":34.777398,"lng":133.560462},{"code":"33209913003","name":"成羽町下日名畑ノ上へ","lat":34.769382,"lng":133.559918},{"code":"33209913004","name":"成羽町下日名畑ノ下タ","lat":34.76572,"lng":133.554062},{"code":"33209913005","name":"成羽町下日名中組","lat":34.76091,"lng":133.545172},{"code":"33209913006","name":"成羽町下日名上組","lat":34.755887,"lng":133.54402},{"code":"33209914001","name":"成羽町上日名本村","lat":34.753411,"lng":133.554263},{"code":"33209914002","name":"成羽町上日名日名畑","lat":34.743788,"lng":133.550666},{"code":"33209914003","name":"成羽町上日名熊谷下モ","lat":34.751703,"lng":133.537923},{"code":"33209914004","name":"成羽町上日名熊谷上ミ","lat":34.748704,"lng":133.526603},{"code":"33209914005","name":"成羽町上日名福松","lat":34.742999,"lng":133.516524},{"code":"33209915001","name":"成羽町布寄田原","lat":34.815275,"lng":133.436964},{"code":"33209915002","name":"成羽町布寄阿部山","lat":34.797971,"lng":133.437275},{"code":"33209915003","name":"成羽町布寄西布寄","lat":34.807383,"lng":133.446063},{"code":"33209915004","name":"成羽町布寄本郷","lat":34.811363,"lng":133.460311},{"code":"33209915005","name":"成羽町布寄麻繰","lat":34.806133,"lng":133.45901},{"code":"33209915006","name":"成羽町布寄木ノ村","lat":34.794275,"lng":133.453034},{"code":"33209916001","name":"成羽町長地長地後","lat":34.804461,"lng":133.470476},{"code":"33209916002","name":"成羽町長地長地前","lat":34.797016,"lng":133.462541},{"code":"332099170","name":"成羽町相坂","lat":34.795388,"lng":133.47164},{"code":"33209918001","name":"成羽町羽根羽根前","lat":34.804843,"lng":133.483106},{"code":"33209918002","name":"成羽町羽根羽根後","lat":34.810279,"lng":133.486553},{"code":"33209919001","name":"成羽町小泉竹定","lat":34.803431,"lng":133.494041},{"code":"33209919002","name":"成羽町小泉梶屋","lat":34.79624,"lng":133.496559},{"code":"33209919003","name":"成羽町小泉東","lat":34.791972,"lng":133.503595},{"code":"33209919004","name":"成羽町小泉銅山","lat":34.784404,"lng":133.49317},{"code":"33209919005","name":"成羽町小泉近屋","lat":34.789839,"lng":133.486693},{"code":"33209919006","name":"成羽町小泉栃木","lat":34.794095,"lng":133.480542},{"code":"33209919007","name":"成羽町小泉常頭","lat":34.799793,"lng":133.481951},{"code":"33209920001","name":"川上町地頭新町，西谷，八十石","lat":34.743422,"lng":133.478893},{"code":"33209920002","name":"川上町地頭名原，名原住宅，地頭住宅","lat":34.736006,"lng":133.474692},{"code":"33209920003","name":"川上町地頭古敷，只尾，南","lat":34.724612,"lng":133.478158},{"code":"33209920004","name":"川上町地頭恵美須，本町","lat":34.730553,"lng":133.482263},{"code":"33209920005","name":"川上町地頭栄町，中之町","lat":34.73676,"lng":133.484985},{"code":"33209920006","name":"川上町地頭国吉，高田","lat":34.734905,"lng":133.48761},{"code":"33209920007","name":"川上町地頭住吉，元町","lat":34.74132,"lng":133.488808},{"code":"33209921001","name":"川上町七地菅野，西","lat":34.755394,"lng":133.453723},{"code":"33209921002","name":"川上町七地加根谷，天王","lat":34.756582,"lng":133.466534},{"code":"33209921003","name":"川上町七地北，東","lat":34.76593,"lng":133.480091},{"code":"33209921004","name":"川上町七地牧谷，谷条","lat":34.755363,"lng":133.477129},{"code":"33209922001","name":"川上町三沢日出谷上，日出谷下，八頭","lat":34.730692,"lng":133.502209},{"code":"33209922002","name":"川上町三沢池田，槇原，野田","lat":34.717838,"lng":133.515041},{"code":"33209922003","name":"川上町三沢大見谷上，大見谷下，笹の","lat":34.707398,"lng":133.497426},{"code":"33209923001","name":"川上町領家一の谷，吉木","lat":34.773763,"lng":133.493162},{"code":"33209923002","name":"川上町領家尾頃，西川合，東町","lat":34.76692,"lng":133.496226},{"code":"33209923003","name":"川上町領家乗元上，乗元下，久門住宅","lat":34.755109,"lng":133.495748},{"code":"33209923004","name":"川上町領家上，八幡，古川","lat":34.747299,"lng":133.49179},{"code":"33209923005","name":"川上町領家本荘，朝日，領家住宅","lat":34.74048,"lng":133.49447},{"code":"332099240","name":"川上町臘数","lat":34.758982,"lng":133.50767},{"code":"33209925001","name":"成羽町吹屋北方東","lat":34.876593,"lng":133.472759},{"code":"33209925002","name":"成羽町吹屋北方西","lat":34.868616,"lng":133.472537},{"code":"33209925003","name":"成羽町吹屋白石","lat":34.866343,"lng":133.478695},{"code":"33209925004","name":"成羽町吹屋下谷","lat":34.863657,"lng":133.483784},{"code":"33209925005","name":"成羽町吹屋下町","lat":34.85506,"lng":133.469985},{"code":"33209925006","name":"成羽町吹屋中町","lat":34.859315,"lng":133.469003},{"code":"33209925007","name":"成羽町吹屋千枚西","lat":34.862635,"lng":133.46573},{"code":"33209925008","name":"成羽町吹屋千枚東","lat":34.863378,"lng":133.467789},{"code":"33209926001","name":"成羽町坂本森林地帯","lat":34.869733,"lng":133.427275},{"code":"33209926002","name":"成羽町坂本矢光","lat":34.87575,"lng":133.442826},{"code":"33209926003","name":"成羽町坂本上山田","lat":34.874186,"lng":133.44864},{"code":"33209926004","name":"成羽町坂本中組西","lat":34.867632,"lng":133.45011},{"code":"33209926005","name":"成羽町坂本梶平","lat":34.872238,"lng":133.456845},{"code":"33209926006","name":"成羽町坂本郷迫","lat":34.869273,"lng":133.462821},{"code":"33209926007","name":"成羽町坂本中組東","lat":34.864675,"lng":133.455254},{"code":"33209926008","name":"成羽町坂本坂本下組","lat":34.859203,"lng":133.449961},{"code":"33209926009","name":"成羽町坂本大下","lat":34.850952,"lng":133.449663},{"code":"33209927001","name":"成羽町中野松木","lat":34.845691,"lng":133.463225},{"code":"33209927002","name":"成羽町中野矢広","lat":34.848272,"lng":133.474841},{"code":"33209927003","name":"成羽町中野迫","lat":34.838865,"lng":133.468916},{"code":"33209927004","name":"成羽町中野下長田","lat":34.83706,"lng":133.475484},{"code":"33209927005","name":"成羽町中野上長田","lat":34.830535,"lng":133.462848},{"code":"33209927006","name":"成羽町中野畑","lat":34.839066,"lng":133.456229},{"code":"33209927007","name":"成羽町中野中野田原","lat":34.832054,"lng":133.448821},{"code":"332099280","name":"備中町志藤用瀬","lat":34.782951,"lng":133.481723},{"code":"33209929001","name":"備中町布瀬上布瀬，日名","lat":34.769302,"lng":133.452697},{"code":"33209929002","name":"備中町布瀬中布瀬，陰地，八幡","lat":34.776676,"lng":133.468328},{"code":"33209929003","name":"備中町布瀬丸山，下布瀬，小那田","lat":34.779563,"lng":133.477812},{"code":"33209930001","name":"備中町長屋市場，長屋住宅","lat":34.78703,"lng":133.461124},{"code":"33209930002","name":"備中町長屋向長屋","lat":34.789934,"lng":133.458876},{"code":"33209931001","name":"備中町布賀黒鳥，数之瀬，黒鳥住宅","lat":34.78799,"lng":133.449379},{"code":"33209931002","name":"備中町布賀下長谷，中長谷","lat":34.791405,"lng":133.426926},{"code":"33209931003","name":"備中町布賀上長谷","lat":34.781002,"lng":133.422863},{"code":"33209931004","name":"備中町布賀大原","lat":34.785953,"lng":133.438442},{"code":"33209931005","name":"備中町布賀東","lat":34.780652,"lng":133.442945},{"code":"33209931006","name":"備中町布賀向，郷","lat":34.775497,"lng":133.445143},{"code":"33209931007","name":"備中町布賀前谷","lat":34.771503,"lng":133.420976},{"code":"33209931008","name":"備中町布賀大地","lat":34.761959,"lng":133.419197},{"code":"33209932001","name":"備中町平川名木，坪野乙原","lat":34.827127,"lng":133.370803},{"code":"33209932002","name":"備中町平川前北，後北","lat":34.816306,"lng":133.391096},{"code":"33209932003","name":"備中町平川堀井，小戸森，阿部浦","lat":34.808047,"lng":133.40837},{"code":"33209932004","name":"備中町平川井川，二又瀬，角子惣田","lat":34.803855,"lng":133.425841},{"code":"33209932005","name":"備中町平川中郷，上郷","lat":34.803282,"lng":133.381615},{"code":"33209932006","name":"備中町平川下郷","lat":34.796162,"lng":133.388124},{"code":"33209932007","name":"備中町平川小林，天王臼谷，大原田間","lat":34.791623,"lng":133.405047},{"code":"33209932008","name":"備中町平川平弟子，小迫通槇，金野","lat":34.784243,"lng":133.384814},{"code":"33209932009","name":"備中町平川竹之倉，後谷，木之村","lat":34.772755,"lng":133.400985},{"code":"33209932010","name":"備中町平川津々羅，越山，東西安田","lat":34.765151,"lng":133.377736},{"code":"33209933001","name":"備中町西油野正信，高岩","lat":34.856606,"lng":133.391443},{"code":"33209933002","name":"備中町西油野簾竹","lat":34.867995,"lng":133.405384},{"code":"33209933003","name":"備中町西油野北方","lat":34.850582,"lng":133.421808},{"code":"33209933004","name":"備中町西油野指田，奥郷","lat":34.844994,"lng":133.402281},{"code":"33209933005","name":"備中町西油野芳谷佐原目","lat":34.835505,"lng":133.38924},{"code":"33209933006","name":"備中町西油野下谷，本郷","lat":34.83302,"lng":133.406611},{"code":"33209934001","name":"備中町西山吉家，高山","lat":34.863751,"lng":133.341743},{"code":"33209934002","name":"備中町西山六日，二五砂","lat":34.857072,"lng":133.348982},{"code":"33209934003","name":"備中町西山目尾，奈良熊","lat":34.840403,"lng":133.346988},{"code":"33209934004","name":"備中町西山麓","lat":34.847144,"lng":133.36486},{"code":"33209934005","name":"備中町西山大蔵","lat":34.86375,"lng":133.371498},{"code":"33209935001","name":"備中町東油野森迫，笹屋，入野","lat":34.826604,"lng":133.418062},{"code":"33209935002","name":"備中町東油野上原上，金石郷","lat":34.839291,"lng":133.430604},{"code":"33209935003","name":"備中町東油野田原上，上原下","lat":34.833751,"lng":133.440214},{"code":"33209935004","name":"備中町東油野田原中，田原下","lat":34.818267,"lng":133.4257},{"code":"33209936002","name":"川上町仁賀小谷ケ市，音藤，松原","lat":34.721875,"lng":133.46286},{"code":"33209936003","name":"川上町仁賀佐屋西，佐屋東","lat":34.694589,"lng":133.445398},{"code":"33209936004","name":"川上町仁賀白藤，光安","lat":34.707836,"lng":133.452842},{"code":"33209936005","name":"川上町仁賀中筋，安成","lat":34.711634,"lng":133.4675},{"code":"33209936006","name":"川上町仁賀大谷，大岩","lat":34.709524,"lng":133.479981},{"code":"33209936007","name":"川上町仁賀上房，高岳","lat":34.70035,"lng":133.460474},{"code":"33209936008","name":"川上町仁賀鈴木，麦の草","lat":34.695053,"lng":133.474526},{"code":"33209937001","name":"川上町上大竹川原ケ高瀬","lat":34.716822,"lng":133.422757},{"code":"33209937002","name":"川上町上大竹神野西，神野東","lat":34.727542,"lng":133.438998},{"code":"33209937003","name":"川上町上大竹本谷，相坪","lat":34.710788,"lng":133.433115},{"code":"33209937004","name":"川上町上大竹正寺，小広","lat":34.713474,"lng":133.443205},{"code":"33209937005","name":"川上町上大竹下谷","lat":34.720851,"lng":133.452093},{"code":"33209937006","name":"川上町上大竹","lat":34.711517,"lng":133.442201},{"code":"33209938001","name":"川上町下大竹野呂，野田恵迫","lat":34.741872,"lng":133.457611},{"code":"33209938002","name":"川上町下大竹大井大久保","lat":34.731872,"lng":133.446657},{"code":"33209938003","name":"川上町下大竹下刈，志田","lat":34.732532,"lng":133.463431},{"code":"33209939001","name":"川上町高山市芋原","lat":34.748938,"lng":133.378344},{"code":"33209939002","name":"川上町高山市上市，中町","lat":34.74157,"lng":133.394143},{"code":"33209939003","name":"川上町高山市松節，和田","lat":34.746509,"lng":133.404966},{"code":"33209939004","name":"川上町高山市横松","lat":34.756183,"lng":133.398981},{"code":"33209940001","name":"川上町高山谷尻","lat":34.751995,"lng":133.422793},{"code":"33209940002","name":"川上町高山西円丸，東円丸，須志","lat":34.754824,"lng":133.436492},{"code":"33209940003","name":"川上町高山上組上，上組中，上組下","lat":34.744198,"lng":133.42093},{"code":"33209940004","name":"川上町高山日向，陰地","lat":34.73151,"lng":133.413586},{"code":"33209940005","name":"川上町高山日名峠，角屋","lat":34.73711,"lng":133.425501},{"code":"33209940006","name":"川上町高山美牛，柳田，折谷","lat":34.738332,"lng":133.436766},{"code":"332099410","name":"川上町大原","lat":34.748808,"lng":133.413559}]}
