{"municipality":"33461","name":"小田郡矢掛町","prefecture":"岡山県","source":{"dataset":"frogcat/japan-small-area","census":"平成27年国勢調査 小地域（e-Stat 統計LOD）","license":"MIT（リポジトリ）／政府統計の総合窓口(e-Stat)の利用規約（元データ・出典表記必要）","fetched":"2026-07-06"},"towns":[{"code":"33461001001","name":"矢掛栄町，病院町","lat":34.628823,"lng":133.587008},{"code":"33461001002","name":"矢掛金谷","lat":34.626147,"lng":133.593585},{"code":"33461001003","name":"矢掛中町北，上本町，金谷","lat":34.626534,"lng":133.590065},{"code":"33461001004","name":"矢掛相生町","lat":34.625558,"lng":133.587632},{"code":"33461001005","name":"矢掛田町東","lat":34.6268,"lng":133.586597},{"code":"33461001006","name":"矢掛西町北","lat":34.624005,"lng":133.586227},{"code":"33461001007","name":"矢掛胡町北","lat":34.62436,"lng":133.588036},{"code":"33461001008","name":"矢掛中町西北","lat":34.624489,"lng":133.589655},{"code":"33461001009","name":"矢掛東中町北","lat":34.624489,"lng":133.590975},{"code":"33461001010","name":"矢掛東町","lat":34.624416,"lng":133.593669},{"code":"33461001011","name":"矢掛東町","lat":34.623547,"lng":133.592966},{"code":"33461001012","name":"矢掛東中町南東","lat":34.623553,"lng":133.591305},{"code":"33461001013","name":"矢掛中町南","lat":34.623401,"lng":133.589976},{"code":"33461001014","name":"矢掛胡町南，西町南","lat":34.623191,"lng":133.587706},{"code":"33461001015","name":"矢掛野呂","lat":34.631562,"lng":133.584598},{"code":"33461001016","name":"矢掛内神","lat":34.635766,"lng":133.589228},{"code":"33461001017","name":"矢掛尾崎，和田","lat":34.633436,"lng":133.593386},{"code":"33461001018","name":"矢掛堀","lat":34.63633,"lng":133.598403},{"code":"33461001019","name":"矢掛若林東，若林中","lat":34.633984,"lng":133.607216},{"code":"33461001020","name":"矢掛若林西，江木","lat":34.630385,"lng":133.600516},{"code":"33461001021","name":"矢掛栄町","lat":34.628641,"lng":133.583654},{"code":"33461001022","name":"矢掛宮の下，東町東","lat":34.623086,"lng":133.599495},{"code":"33461002001","name":"小林田町西，有楽町","lat":34.625177,"lng":133.58565},{"code":"33461002002","name":"小林西町","lat":34.623744,"lng":133.584706},{"code":"33461002003","name":"小林岡本谷，能仁寺，河内城","lat":34.640759,"lng":133.570703},{"code":"33461002004","name":"小林井出の手，湯田，鵜飼","lat":34.640999,"lng":133.586928},{"code":"33461002005","name":"小林市場，僧都，鷺田","lat":34.630295,"lng":133.577354},{"code":"33461002006","name":"小林峠，校の下","lat":34.631928,"lng":133.580557},{"code":"33461002007","name":"小林平和町","lat":34.626272,"lng":133.583072},{"code":"33461003001","name":"上高末羽無","lat":34.693746,"lng":133.609604},{"code":"33461003002","name":"上高末土井，久谷","lat":34.678019,"lng":133.604534},{"code":"33461003003","name":"上高末嘉戸，殿ケ市，頼正","lat":34.678969,"lng":133.588724},{"code":"33461003004","name":"上高末寺原，矢原，茶屋ケ鼻","lat":34.674179,"lng":133.58057},{"code":"33461003005","name":"上高末山口，奥田","lat":34.668835,"lng":133.601746},{"code":"33461004001","name":"下高末三ケ原","lat":34.663641,"lng":133.609919},{"code":"33461004002","name":"下高末川東，上高階，平宇角","lat":34.658413,"lng":133.603148},{"code":"33461004003","name":"下高末城平，桜木，古頃下岡","lat":34.666087,"lng":133.58115},{"code":"33461005001","name":"宇角塚原，大唐田，中畦","lat":34.651756,"lng":133.594252},{"code":"33461005002","name":"宇角東谷，谷本","lat":34.649129,"lng":133.609305},{"code":"33461006001","name":"内田空上，田渕，中谷，岡谷，","lat":34.659355,"lng":133.571358},{"code":"33461006002","name":"内田下高階，古浦，古屋谷","lat":34.650613,"lng":133.576623},{"code":"33461006003","name":"内田井ノ口，鳥越","lat":34.648612,"lng":133.58372},{"code":"33461007001","name":"東三成土井，多和，車谷","lat":34.636675,"lng":133.620785},{"code":"33461007002","name":"東三成東三成，谷川内，藤の棚","lat":34.62263,"lng":133.629917},{"code":"33461007003","name":"東三成市場，折坂","lat":34.620031,"lng":133.621896},{"code":"33461007004","name":"東三成吉野，大明地１","lat":34.621284,"lng":133.61748},{"code":"33461007005","name":"東三成新町団地，大明地２","lat":34.617581,"lng":133.611257},{"code":"33461007006","name":"東三成多和，東土井","lat":34.62599,"lng":133.616012},{"code":"33461007007","name":"東三成行部東","lat":34.620768,"lng":133.606209},{"code":"33461007008","name":"東三成行部西","lat":34.616939,"lng":133.602953},{"code":"33461008001","name":"横谷高田，長谷，西迫，畑","lat":34.611277,"lng":133.619688},{"code":"33461008002","name":"横谷平林，山根","lat":34.606379,"lng":133.632197},{"code":"33461008003","name":"横谷井三，平木，御土井，川原","lat":34.601088,"lng":133.625042},{"code":"33461008004","name":"横谷原","lat":34.59774,"lng":133.62321},{"code":"33461008005","name":"横谷長谷，慶知庵","lat":34.603324,"lng":133.617861},{"code":"33461008006","name":"横谷柏木","lat":34.59429,"lng":133.617801},{"code":"33461008007","name":"横谷原，大渡，弥高","lat":34.59205,"lng":133.633208},{"code":"33461009001","name":"里山田土井，畑ケ中","lat":34.618424,"lng":133.59187},{"code":"33461009002","name":"里山田土生","lat":34.613175,"lng":133.598349},{"code":"33461009003","name":"里山田清水谷","lat":34.612739,"lng":133.589183},{"code":"33461009004","name":"里山田下谷，三宅","lat":34.608869,"lng":133.592269},{"code":"33461009005","name":"里山田上谷","lat":34.605354,"lng":133.592353},{"code":"33461009006","name":"里山田池尻，橋本","lat":34.599001,"lng":133.593935},{"code":"33461010001","name":"南山田広石，小迫","lat":34.594879,"lng":133.606754},{"code":"33461010002","name":"南山田神の脇","lat":34.589438,"lng":133.59195},{"code":"33461010003","name":"南山田上山，宇根","lat":34.583364,"lng":133.599316},{"code":"33461010004","name":"南山田南原，猪又","lat":34.583287,"lng":133.613423},{"code":"33461011001","name":"中中原","lat":34.609635,"lng":133.606825},{"code":"33461011002","name":"中城江","lat":34.602316,"lng":133.603909},{"code":"33461011003","name":"中江本","lat":34.601811,"lng":133.61076},{"code":"33461012001","name":"宇内平矢，今石","lat":34.64054,"lng":133.538573},{"code":"33461012002","name":"宇内金原，谷，天満","lat":34.636712,"lng":133.550145},{"code":"33461012003","name":"宇内原，大桜","lat":34.630085,"lng":133.552681},{"code":"33461013001","name":"西川面下三，奥山，正清，仏田","lat":34.635325,"lng":133.559375},{"code":"33461013002","name":"西川面東組，宇山","lat":34.621668,"lng":133.561852},{"code":"33461013003","name":"西川面石田，宮本","lat":34.623903,"lng":133.567231},{"code":"33461013004","name":"西川面清田井，川田","lat":34.630036,"lng":133.568157},{"code":"33461013005","name":"西川面西組，大鳥居","lat":34.617198,"lng":133.567249},{"code":"33461014001","name":"東川面郷","lat":34.627072,"lng":133.576204},{"code":"33461014002","name":"東川面第一，台","lat":34.624876,"lng":133.573387},{"code":"33461014003","name":"東川面田寺","lat":34.622048,"lng":133.573954},{"code":"33461014004","name":"東川面有森，高通","lat":34.621486,"lng":133.580064},{"code":"33461014005","name":"東川面向山，大恭","lat":34.617713,"lng":133.58041},{"code":"33461015001","name":"本堀上，中","lat":34.618598,"lng":133.553702},{"code":"33461015002","name":"本堀片山，石井","lat":34.617296,"lng":133.559814},{"code":"33461015003","name":"本堀大井","lat":34.611679,"lng":133.554302},{"code":"33461015004","name":"本堀六反","lat":34.611408,"lng":133.559905},{"code":"33461016001","name":"浅海毎戸","lat":34.608903,"lng":133.550346},{"code":"33461016002","name":"浅海宮ノ谷，田鶴","lat":34.60454,"lng":133.553393},{"code":"33461016003","name":"浅海大仁五","lat":34.606869,"lng":133.560639},{"code":"33461016004","name":"浅海日妻東","lat":34.595017,"lng":133.569974},{"code":"33461016005","name":"浅海日妻西，高柳","lat":34.598042,"lng":133.563289},{"code":"33461016006","name":"浅海山手","lat":34.596454,"lng":133.557762},{"code":"33461017001","name":"江良片山，岡田","lat":34.612394,"lng":133.576803},{"code":"33461017002","name":"江良寺谷，奥山","lat":34.601084,"lng":133.582342},{"code":"33461017003","name":"江良郷","lat":34.601916,"lng":133.574646},{"code":"33461017004","name":"江良山の神，八池","lat":34.608946,"lng":133.566672},{"code":"33461018001","name":"小田山の上","lat":34.627102,"lng":133.52692},{"code":"33461018002","name":"小田日置谷第１，第２","lat":34.62596,"lng":133.545759},{"code":"33461018003","name":"小田亀麓","lat":34.62099,"lng":133.543715},{"code":"33461018004","name":"小田八幡谷第１，第２","lat":34.622008,"lng":133.537414},{"code":"33461018005","name":"小田八幡谷第３，第４","lat":34.618575,"lng":133.533219},{"code":"33461018006","name":"小田熊林田","lat":34.61426,"lng":133.543815},{"code":"33461018007","name":"小田中小田東，中小田中","lat":34.611855,"lng":133.537917},{"code":"33461018008","name":"小田中小田西","lat":34.608262,"lng":133.536894},{"code":"33461018009","name":"小田有木谷","lat":34.603214,"lng":133.531864},{"code":"33461018010","name":"小田岩屋山，黒住","lat":34.603307,"lng":133.536812},{"code":"33461018011","name":"小田中小田","lat":34.605558,"lng":133.53887},{"code":"33461018012","name":"小田上明神，下明神","lat":34.604111,"lng":133.539573},{"code":"33461018013","name":"小田小田，西元町，東元町","lat":34.602938,"lng":133.54036},{"code":"33461018014","name":"小田東町，大正町","lat":34.605091,"lng":133.542236},{"code":"33461018015","name":"小田寺迫第１","lat":34.605959,"lng":133.545547},{"code":"33461018016","name":"小田寺迫第２","lat":34.602112,"lng":133.549455}]}
