{"municipality":"33681","name":"加賀郡吉備中央町","prefecture":"岡山県","source":{"dataset":"frogcat/japan-small-area","census":"平成27年国勢調査 小地域（e-Stat 統計LOD）","license":"MIT（リポジトリ）／政府統計の総合窓口(e-Stat)の利用規約（元データ・出典表記必要）","fetched":"2026-07-06"},"towns":[{"code":"33681011001","name":"上竹日名","lat":34.840977,"lng":133.664242},{"code":"33681011002","name":"上竹大村","lat":34.829614,"lng":133.660003},{"code":"33681011003","name":"上竹南","lat":34.822085,"lng":133.66788},{"code":"33681011004","name":"上竹正金","lat":34.832918,"lng":133.672612},{"code":"33681011005","name":"上竹陰地","lat":34.839633,"lng":133.676009},{"code":"33681011006","name":"上竹山神","lat":34.844725,"lng":133.683646},{"code":"33681011007","name":"上竹月原","lat":34.851373,"lng":133.688468},{"code":"33681011008","name":"上竹田中","lat":34.853812,"lng":133.673635},{"code":"33681011009","name":"上竹宮後","lat":34.849868,"lng":133.661954},{"code":"33681011012","name":"上竹狐谷","lat":34.834306,"lng":133.649332},{"code":"33681011013","name":"上竹吉備高原賀陽荘","lat":34.85398,"lng":133.679411},{"code":"33681012010","name":"納地室納","lat":34.832834,"lng":133.690338},{"code":"33681012011","name":"納地舞地","lat":34.826978,"lng":133.706791},{"code":"33681021008","name":"竹荘上岩村","lat":34.874907,"lng":133.687489},{"code":"33681021009","name":"竹荘総社","lat":34.87068,"lng":133.684331},{"code":"33681021010","name":"竹荘板屋","lat":34.868789,"lng":133.672017},{"code":"33681021011","name":"竹荘山田","lat":34.860667,"lng":133.679134},{"code":"33681021012","name":"竹荘中新町，下新町，元新町","lat":34.856763,"lng":133.6931},{"code":"33681022001","name":"豊野椿","lat":34.883868,"lng":133.727148},{"code":"33681022002","name":"豊野かせ信","lat":34.894297,"lng":133.712786},{"code":"33681022003","name":"豊野矢野","lat":34.884051,"lng":133.705082},{"code":"33681022004","name":"豊野東","lat":34.873998,"lng":133.710959},{"code":"33681022005","name":"豊野原","lat":34.869955,"lng":133.699479},{"code":"33681022006","name":"豊野下市","lat":34.869374,"lng":133.694769},{"code":"33681022007","name":"豊野岩村","lat":34.883954,"lng":133.694571},{"code":"33681031001","name":"黒土横部","lat":34.858389,"lng":133.697115},{"code":"33681031002","name":"黒土的場","lat":34.857858,"lng":133.703376},{"code":"33681031003","name":"黒土空","lat":34.8496,"lng":133.702445},{"code":"33681031004","name":"黒土森屋","lat":34.860923,"lng":133.705189},{"code":"33681031005","name":"黒土二重坂","lat":34.852674,"lng":133.712218},{"code":"33681032006","name":"田土西","lat":34.859877,"lng":133.715041},{"code":"33681032007","name":"田土湯之尻","lat":34.865818,"lng":133.71727},{"code":"33681032008","name":"田土川西","lat":34.868574,"lng":133.720889},{"code":"33681032009","name":"田土川東","lat":34.869008,"lng":133.73574},{"code":"33681032010","name":"田土吉長","lat":34.871727,"lng":133.727153},{"code":"33681032011","name":"田土土生","lat":34.854201,"lng":133.721871},{"code":"33681032012","name":"田土宗兼","lat":34.856774,"lng":133.731095},{"code":"33681032013","name":"田土下田土","lat":34.861548,"lng":133.735562},{"code":"33681032014","name":"田土仁熊","lat":34.861056,"lng":133.744141},{"code":"33681033015","name":"湯山神原下","lat":34.857909,"lng":133.744303},{"code":"33681033016","name":"湯山神原上","lat":34.854604,"lng":133.743131},{"code":"33681033017","name":"湯山大岩","lat":34.84765,"lng":133.745049},{"code":"33681033018","name":"湯山行森","lat":34.847421,"lng":133.736081},{"code":"33681033019","name":"湯山清水","lat":34.84639,"lng":133.731119},{"code":"33681033020","name":"湯山茶屋","lat":34.842965,"lng":133.726357},{"code":"33681033021","name":"湯山極楽寺","lat":34.83443,"lng":133.719218},{"code":"33681033022","name":"湯山高原西住区","lat":34.848724,"lng":133.752326},{"code":"33681041001","name":"吉川東刈尾","lat":34.804773,"lng":133.753169},{"code":"33681041003","name":"吉川西刈尾","lat":34.803466,"lng":133.740527},{"code":"33681041004","name":"吉川藤田","lat":34.81225,"lng":133.733751},{"code":"33681041005","name":"吉川唐人山","lat":34.791526,"lng":133.742216},{"code":"33681041006","name":"吉川西山","lat":34.822061,"lng":133.730644},{"code":"33681041007","name":"吉川西庄田","lat":34.822409,"lng":133.745631},{"code":"33681041008","name":"吉川小茂田","lat":34.828568,"lng":133.741696},{"code":"33681041009","name":"吉川布郡","lat":34.833945,"lng":133.736664},{"code":"33681041010","name":"吉川千木","lat":34.838087,"lng":133.751841},{"code":"33681041011","name":"吉川北正行","lat":34.831034,"lng":133.755276},{"code":"33681041012","name":"吉川南正行","lat":34.824436,"lng":133.754718},{"code":"33681041013","name":"吉川河内田","lat":34.812375,"lng":133.764392},{"code":"33681041014","name":"吉川日の上Ⅰ","lat":34.83693,"lng":133.763336},{"code":"33681041015","name":"吉川長坂Ⅱ","lat":34.844188,"lng":133.763844},{"code":"33681041016","name":"吉川日の上Ⅱ","lat":34.828731,"lng":133.760151},{"code":"33681041019","name":"吉川医療リハビリ","lat":34.838811,"lng":133.76196},{"code":"33681041020","name":"吉川長坂Ⅰ","lat":34.840938,"lng":133.762541},{"code":"33681041021","name":"吉川国少","lat":34.824806,"lng":133.762923},{"code":"33681041023","name":"吉川高原東住区","lat":34.846038,"lng":133.758929},{"code":"33681042017","name":"黒山東黒山","lat":34.800834,"lng":133.770314},{"code":"33681042018","name":"黒山西黒山","lat":34.790311,"lng":133.760681},{"code":"33681051001","name":"北山本","lat":34.816949,"lng":133.702783},{"code":"33681051002","name":"北一ツ木","lat":34.816169,"lng":133.713734},{"code":"33681051003","name":"北門","lat":34.809565,"lng":133.708135},{"code":"33681051004","name":"北才道","lat":34.802772,"lng":133.705065},{"code":"33681051005","name":"北店","lat":34.816689,"lng":133.696862},{"code":"33681051006","name":"北野呂","lat":34.809738,"lng":133.696238},{"code":"33681051007","name":"北吉備高原清和荘","lat":34.814695,"lng":133.689088},{"code":"33681051008","name":"北尾郷","lat":34.804174,"lng":133.694082},{"code":"33681051009","name":"北東山","lat":34.806449,"lng":133.719396},{"code":"33681052010","name":"岨谷井頭","lat":34.796761,"lng":133.709417},{"code":"33681052011","name":"岨谷石道","lat":34.793433,"lng":133.721823},{"code":"33681052012","name":"岨谷石井","lat":34.785589,"lng":133.716058},{"code":"33681052013","name":"岨谷大道","lat":34.785566,"lng":133.709006},{"code":"33681052014","name":"岨谷両谷","lat":34.781045,"lng":133.731761},{"code":"33681052015","name":"岨谷岨谷向","lat":34.768545,"lng":133.70265},{"code":"33681052016","name":"岨谷岨谷上","lat":34.775944,"lng":133.696943},{"code":"33681052017","name":"岨谷岨谷下","lat":34.772865,"lng":133.689663},{"code":"33681052018","name":"岨谷大古屋","lat":34.75903,"lng":133.685292},{"code":"33681053019","name":"宮地田和上","lat":34.800257,"lng":133.698729},{"code":"33681053020","name":"宮地田和中","lat":34.79677,"lng":133.696228},{"code":"33681053021","name":"宮地田和下","lat":34.793521,"lng":133.691573},{"code":"33681053022","name":"宮地中之谷日向","lat":34.789098,"lng":133.694075},{"code":"33681053023","name":"宮地中之谷上","lat":34.789116,"lng":133.702111},{"code":"33681053024","name":"宮地大畑","lat":34.777197,"lng":133.678053},{"code":"33681053025","name":"宮地南谷下","lat":34.779758,"lng":133.692356},{"code":"33681053026","name":"宮地南谷上","lat":34.77948,"lng":133.700425},{"code":"33681053037","name":"宮地大畑","lat":34.773225,"lng":133.680596},{"code":"33681054026","name":"西西山","lat":34.785629,"lng":133.677402},{"code":"33681054027","name":"西原上","lat":34.797974,"lng":133.689164},{"code":"33681054028","name":"西サンコーポ吉備","lat":34.790402,"lng":133.684677},{"code":"33681054029","name":"西実光","lat":34.788471,"lng":133.67173},{"code":"33681054030","name":"西野伏","lat":34.796326,"lng":133.67472},{"code":"33681054031","name":"西大沢","lat":34.809058,"lng":133.681214},{"code":"33681054032","name":"西柏木","lat":34.802116,"lng":133.673258},{"code":"33681054033","name":"西湯原下","lat":34.803732,"lng":133.667673},{"code":"33681054034","name":"西湯原上","lat":34.796731,"lng":133.663529},{"code":"33681054035","name":"西後湯原","lat":34.81111,"lng":133.659048},{"code":"33681054036","name":"西二本木","lat":34.813979,"lng":133.67174},{"code":"336810550","name":"三納谷","lat":34.884587,"lng":133.777859},{"code":"33681056001","name":"上田西黒杭，立石，共愛","lat":34.882219,"lng":133.787823},{"code":"33681056002","name":"上田西野呂，国近","lat":34.888029,"lng":133.795979},{"code":"33681056003","name":"上田西","lat":34.881422,"lng":133.811617},{"code":"33681056004","name":"上田西皿井野，光則","lat":34.879477,"lng":133.798132},{"code":"33681056005","name":"上田西","lat":34.882591,"lng":133.828017},{"code":"33681056006","name":"上田西御所","lat":34.879258,"lng":133.84421},{"code":"33681057001","name":"上田東宮ノ前，大乢，東谷，","lat":34.892227,"lng":133.79948},{"code":"33681057002","name":"上田東","lat":34.887587,"lng":133.832096},{"code":"33681057003","name":"上田東菅谷，本宮，畑ヶ嶋","lat":34.890306,"lng":133.843827},{"code":"33681057004","name":"上田東湯武，土井，実方，貢","lat":34.90093,"lng":133.80906},{"code":"33681057005","name":"上田東","lat":34.898173,"lng":133.831605},{"code":"33681058001","name":"円城東，西，門前","lat":34.891329,"lng":133.804623},{"code":"33681058002","name":"円城提東，横倉，番原，五番","lat":34.895677,"lng":133.813329},{"code":"33681058003","name":"円城二番，三番，津恵田，岩倉","lat":34.890556,"lng":133.815762},{"code":"33681059001","name":"下加茂加茂山","lat":34.86282,"lng":133.836139},{"code":"33681059002","name":"下加茂","lat":34.871989,"lng":133.817428},{"code":"33681059003","name":"下加茂和中，梅原，鍋谷","lat":34.867148,"lng":133.79393},{"code":"33681059004","name":"下加茂日南，倉庫町","lat":34.867177,"lng":133.808837},{"code":"33681059005","name":"下加茂保木，田中","lat":34.85711,"lng":133.813148},{"code":"33681059006","name":"下加茂大下，台，奥寄，安井，","lat":34.856093,"lng":133.823613},{"code":"336810600","name":"美原","lat":34.872936,"lng":133.776276},{"code":"33681061001","name":"加茂市場","lat":34.866522,"lng":133.746288},{"code":"33681061002","name":"加茂市場日名","lat":34.867025,"lng":133.754007},{"code":"33681061003","name":"加茂市場元兼，町，大高下","lat":34.862033,"lng":133.761241},{"code":"336810620","name":"高谷","lat":34.859834,"lng":133.777115},{"code":"336810630","name":"平岡","lat":34.850557,"lng":133.791121},{"code":"33681064001","name":"上加茂原，奥谷，光盛","lat":34.852628,"lng":133.808321},{"code":"33681064002","name":"上加茂河原，三宅，清常","lat":34.846351,"lng":133.80601},{"code":"33681064003","name":"上加茂百々，関谷，臼井，上賀","lat":34.839538,"lng":133.800517},{"code":"33681064004","name":"上加茂加茂川荘","lat":34.850891,"lng":133.805258},{"code":"33681065001","name":"広面西谷，九折，日和","lat":34.839062,"lng":133.818124},{"code":"33681065002","name":"広面広向，広上，広奥，広中，","lat":34.823927,"lng":133.806281},{"code":"33681065003","name":"広面","lat":34.813885,"lng":133.814049},{"code":"33681067001","name":"竹部乗木，岩井谷，中寄，田元","lat":34.834349,"lng":133.79175},{"code":"33681067003","name":"竹部誠之，倉本，阿波良","lat":34.832246,"lng":133.773041},{"code":"33681067004","name":"竹部田信","lat":34.823289,"lng":133.779051},{"code":"33681067005","name":"竹部","lat":34.816783,"lng":133.785808},{"code":"33681068001","name":"上野大東，森坂，要木乢，","lat":34.846669,"lng":133.781534},{"code":"33681068002","name":"上野大原，上野西，牛立，上野","lat":34.846821,"lng":133.77196},{"code":"33681069001","name":"溝部","lat":34.945805,"lng":133.730714},{"code":"33681069002","name":"溝部","lat":34.935682,"lng":133.744617},{"code":"33681070001","name":"杉谷","lat":34.94094,"lng":133.753481},{"code":"33681070002","name":"杉谷","lat":34.945823,"lng":133.760862},{"code":"33681071001","name":"豊岡下","lat":34.930256,"lng":133.77247},{"code":"33681071002","name":"豊岡下舟堀上，矢根尾，正枝，","lat":34.919541,"lng":133.774963},{"code":"33681071003","name":"豊岡下船堀下","lat":34.916475,"lng":133.782896},{"code":"33681071004","name":"豊岡下真地，引撫","lat":34.922876,"lng":133.790581},{"code":"33681072001","name":"細田野呂，国成，西上，八栄","lat":34.898239,"lng":133.77711},{"code":"33681072002","name":"細田渋里，高平，細田東","lat":34.895801,"lng":133.787964},{"code":"33681073001","name":"豊岡上横部，相模","lat":34.912058,"lng":133.76592},{"code":"33681073002","name":"豊岡上上光寺上，中，下","lat":34.903623,"lng":133.762141},{"code":"33681074001","name":"粟井谷","lat":34.927067,"lng":133.762745},{"code":"33681074002","name":"粟井谷","lat":34.929329,"lng":133.757135},{"code":"33681075001","name":"大木下大木","lat":34.911176,"lng":133.784887},{"code":"33681075002","name":"大木上大木","lat":34.903942,"lng":133.774209},{"code":"33681155001","name":"福沢","lat":34.939771,"lng":133.724886},{"code":"33681155002","name":"福沢福西上，福西下","lat":34.92868,"lng":133.728313},{"code":"33681155003","name":"福沢福東上，福東下","lat":34.927645,"lng":133.74331},{"code":"33681156001","name":"尾原塚原，刈山，宮坂","lat":34.918249,"lng":133.738925},{"code":"33681156002","name":"尾原町上，町中，町下","lat":34.918218,"lng":133.755593},{"code":"33681156003","name":"尾原下尾原，砂田","lat":34.910477,"lng":133.747462},{"code":"33681156004","name":"尾原畝山，千守","lat":34.903084,"lng":133.725049},{"code":"33681157001","name":"井原井原東，井原西","lat":34.898864,"lng":133.753932},{"code":"33681157002","name":"井原上井原，寄峰","lat":34.891233,"lng":133.764491},{"code":"33681158001","name":"下土井幸元，八社，野呂","lat":34.884866,"lng":133.768734},{"code":"33681158002","name":"下土井いわしや","lat":34.880167,"lng":133.762981},{"code":"33681158003","name":"下土井高尾，広土","lat":34.875228,"lng":133.758535},{"code":"33681159001","name":"富永加場の原，森上","lat":34.88827,"lng":133.755637},{"code":"33681159002","name":"富永大王","lat":34.883704,"lng":133.752921},{"code":"33681159003","name":"富永長尾","lat":34.87593,"lng":133.746898},{"code":"33681160001","name":"和田江羅，末広，小坂","lat":34.895158,"lng":133.744384},{"code":"33681160002","name":"和田和田上，和田下","lat":34.88984,"lng":133.736915},{"code":"33681161001","name":"笹目","lat":34.915233,"lng":133.725021},{"code":"33681161002","name":"笹目","lat":34.919206,"lng":133.717688},{"code":"33681162001","name":"小森二川，双六，昭和","lat":34.924771,"lng":133.798839},{"code":"33681162002","name":"小森共栄西，報国，名梅","lat":34.930062,"lng":133.80817},{"code":"33681162003","name":"小森","lat":34.938172,"lng":133.80597},{"code":"33681162004","name":"小森共栄東，神原，温稲","lat":34.923597,"lng":133.811216},{"code":"336811630","name":"舟津","lat":34.940501,"lng":133.828635},{"code":"33681164001","name":"神瀬","lat":34.927276,"lng":133.842964},{"code":"33681164002","name":"神瀬","lat":34.906355,"lng":133.84993},{"code":"33681255001","name":"高富中西，重信","lat":34.924867,"lng":133.827603},{"code":"33681255002","name":"高富五明，宮浦","lat":34.916066,"lng":133.822224},{"code":"336812560","name":"三谷","lat":34.909164,"lng":133.795262},{"code":"336812570","name":"案田","lat":34.908406,"lng":133.812678},{"code":"33681258001","name":"上野","lat":34.845181,"lng":133.76765},{"code":"33681258002","name":"上野","lat":34.837774,"lng":133.769006},{"code":"33681258003","name":"上野北部住区","lat":34.840803,"lng":133.767623},{"code":"33681258004","name":"竹部","lat":34.836361,"lng":133.770095},{"code":"33681258005","name":"竹部北部住区第１次","lat":34.836682,"lng":133.763818}]}
