{"municipality":"34214","name":"安芸高田市","prefecture":"広島県","source":{"dataset":"frogcat/japan-small-area","census":"平成27年国勢調査 小地域（e-Stat 統計LOD）","license":"MIT（リポジトリ）／政府統計の総合窓口(e-Stat)の利用規約（元データ・出典表記必要）","fetched":"2026-07-06"},"towns":[{"code":"342140010","name":"吉田町多治比","lat":34.685,"lng":132.645273},{"code":"342140020","name":"吉田町西浦","lat":34.668309,"lng":132.670609},{"code":"342140030","name":"吉田町相合","lat":34.691398,"lng":132.69675},{"code":"342140040","name":"吉田町吉田","lat":34.673772,"lng":132.714349},{"code":"342140050","name":"吉田町国司","lat":34.649708,"lng":132.70097},{"code":"342140060","name":"吉田町常友","lat":34.658491,"lng":132.687007},{"code":"342140070","name":"吉田町山手","lat":34.653915,"lng":132.66958},{"code":"342140080","name":"吉田町川本","lat":34.645311,"lng":132.657824},{"code":"342140090","name":"吉田町中馬","lat":34.660492,"lng":132.644448},{"code":"342140100","name":"吉田町福原","lat":34.638692,"lng":132.671641},{"code":"342140110","name":"吉田町竹原","lat":34.64783,"lng":132.687205},{"code":"342140120","name":"吉田町小山","lat":34.625686,"lng":132.680571},{"code":"342140130","name":"吉田町上入江","lat":34.615426,"lng":132.641005},{"code":"342140140","name":"吉田町下入江","lat":34.616857,"lng":132.658732},{"code":"342140150","name":"吉田町長屋","lat":34.639173,"lng":132.63673},{"code":"342140160","name":"吉田町桂，高野","lat":34.637156,"lng":132.650956},{"code":"342140170","name":"甲田町上小原","lat":34.656559,"lng":132.755992},{"code":"342140180","name":"甲田町下小原","lat":34.675035,"lng":132.745395},{"code":"342140190","name":"甲田町高田原","lat":34.686996,"lng":132.782093},{"code":"342140200","name":"甲田町糘地","lat":34.735039,"lng":132.744183},{"code":"342140210","name":"甲田町浅塚","lat":34.715207,"lng":132.722505},{"code":"342140220","name":"甲田町上甲立","lat":34.703371,"lng":132.741459},{"code":"342140230","name":"甲田町下甲立","lat":34.718106,"lng":132.761323},{"code":"342140240","name":"甲田町深瀬","lat":34.73842,"lng":132.770036},{"code":"342140250","name":"高宮町船木","lat":34.784853,"lng":132.756386},{"code":"342140260","name":"高宮町佐々部","lat":34.793982,"lng":132.717387},{"code":"342140270","name":"高宮町羽佐竹","lat":34.77817,"lng":132.691994},{"code":"342140280","name":"高宮町房後","lat":34.755044,"lng":132.735001},{"code":"342140290","name":"高宮町原田","lat":34.734282,"lng":132.698543},{"code":"342140300","name":"高宮町来女木","lat":34.75592,"lng":132.670963},{"code":"342140310","name":"高宮町川根","lat":34.820232,"lng":132.668474},{"code":"342140320","name":"八千代町土師","lat":34.656588,"lng":132.608082},{"code":"342140330","name":"八千代町勝田","lat":34.622644,"lng":132.622997},{"code":"342140340","name":"八千代町佐々井","lat":34.624053,"lng":132.600039},{"code":"342140350","name":"八千代町下根","lat":34.602998,"lng":132.590411},{"code":"342140360","name":"八千代町上根","lat":34.58697,"lng":132.580653},{"code":"342140370","name":"八千代町向山","lat":34.578843,"lng":132.567659},{"code":"342140380","name":"美土里町横田","lat":34.721609,"lng":132.653531},{"code":"342140390","name":"美土里町本郷","lat":34.713951,"lng":132.607679},{"code":"342140400","name":"美土里町生田","lat":34.798588,"lng":132.59413},{"code":"342140410","name":"美土里町北","lat":34.76753,"lng":132.63538},{"code":"342140420","name":"美土里町桑田","lat":34.756225,"lng":132.581895},{"code":"342140430","name":"向原町坂","lat":34.606101,"lng":132.757562},{"code":"342140440","name":"向原町戸島","lat":34.631323,"lng":132.719016},{"code":"342140450","name":"向原町長田","lat":34.604922,"lng":132.698188},{"code":"342140460","name":"向原町有留","lat":34.566788,"lng":132.698693},{"code":"342140470","name":"向原町保垣","lat":34.572218,"lng":132.722152}]}
