{"municipality":"34210","name":"庄原市","prefecture":"広島県","source":{"dataset":"frogcat/japan-small-area","census":"平成27年国勢調査 小地域（e-Stat 統計LOD）","license":"MIT（リポジトリ）／政府統計の総合窓口(e-Stat)の利用規約（元データ・出典表記必要）","fetched":"2026-07-06"},"towns":[{"code":"34210001001","name":"中本町１丁目","lat":34.857385,"lng":133.016995},{"code":"34210001002","name":"中本町２丁目","lat":34.860995,"lng":133.014777},{"code":"34210002001","name":"西本町１丁目","lat":34.854484,"lng":133.015577},{"code":"34210002002","name":"西本町２丁目","lat":34.856129,"lng":133.011245},{"code":"34210002003","name":"西本町３丁目","lat":34.860004,"lng":133.01043},{"code":"34210002004","name":"西本町４丁目","lat":34.863819,"lng":133.006993},{"code":"34210003001","name":"東本町１丁目","lat":34.857001,"lng":133.022831},{"code":"34210003002","name":"東本町２丁目","lat":34.861227,"lng":133.027756},{"code":"34210003003","name":"東本町３丁目","lat":34.862064,"lng":133.020394},{"code":"34210003004","name":"東本町４丁目","lat":34.863974,"lng":133.018751},{"code":"342100040","name":"本町","lat":34.874986,"lng":133.02927},{"code":"342100050","name":"川手町","lat":34.879468,"lng":133.015446},{"code":"342100060","name":"宮内町","lat":34.865346,"lng":133.042051},{"code":"342100070","name":"永末町","lat":34.854079,"lng":133.045428},{"code":"342100080","name":"大久保町","lat":34.84759,"lng":133.055593},{"code":"342100090","name":"高町","lat":34.881048,"lng":133.084348},{"code":"342100100","name":"川西町","lat":34.893021,"lng":133.061337},{"code":"342100110","name":"小用町","lat":34.859405,"lng":133.065224},{"code":"342100120","name":"本村町","lat":34.855866,"lng":133.103309},{"code":"342100130","name":"上谷町","lat":34.829453,"lng":133.095259},{"code":"342100140","name":"峰田町","lat":34.810267,"lng":133.057988},{"code":"342100150","name":"春田町","lat":34.807061,"lng":133.032804},{"code":"342100160","name":"実留町","lat":34.809292,"lng":133.01354},{"code":"342100170","name":"一木町","lat":34.823451,"lng":132.998962},{"code":"342100180","name":"板橋町","lat":34.835801,"lng":133.016245},{"code":"342100190","name":"新庄町","lat":34.846866,"lng":133.031196},{"code":"342100200","name":"是松町","lat":34.834054,"lng":133.037464},{"code":"342100210","name":"高門町","lat":34.838703,"lng":133.058653},{"code":"342100220","name":"三日市町","lat":34.853396,"lng":133.005119},{"code":"342100230","name":"戸郷町","lat":34.84376,"lng":133.00949},{"code":"342100240","name":"上原町","lat":34.849909,"lng":132.992794},{"code":"342100250","name":"七塚町","lat":34.832089,"lng":132.979325},{"code":"342100260","name":"田原町","lat":34.843694,"lng":132.972086},{"code":"342100270","name":"市町","lat":34.858372,"lng":132.970072},{"code":"342100280","name":"掛田町","lat":34.871057,"lng":132.991994},{"code":"342100290","name":"本郷町","lat":34.857166,"lng":132.950971},{"code":"342100300","name":"殿垣内町","lat":34.839078,"lng":132.961143},{"code":"342100310","name":"山内町","lat":34.826095,"lng":132.958971},{"code":"342100320","name":"木戸町","lat":34.811974,"lng":132.953372},{"code":"342100330","name":"平和町","lat":34.828489,"lng":132.936777},{"code":"342100340","name":"尾引町","lat":34.816139,"lng":132.939204},{"code":"342100350","name":"高茂町","lat":34.850889,"lng":132.931849},{"code":"342100360","name":"水越町","lat":34.841292,"lng":132.913985},{"code":"342100370","name":"川北町","lat":34.919981,"lng":133.016737},{"code":"342100380","name":"濁川町","lat":34.893327,"lng":132.962602},{"code":"342100390","name":"門田町","lat":34.879433,"lng":132.983532},{"code":"342100400","name":"西城町西城","lat":34.932055,"lng":133.117143},{"code":"342100410","name":"西城町大佐","lat":34.942269,"lng":133.137218},{"code":"342100420","name":"西城町入江","lat":34.930751,"lng":133.101736},{"code":"342100430","name":"西城町栗","lat":34.920024,"lng":133.083418},{"code":"342100440","name":"西城町平子","lat":34.906412,"lng":133.123929},{"code":"342100450","name":"西城町中野","lat":34.966888,"lng":133.103453},{"code":"342100460","name":"西城町八鳥","lat":34.976101,"lng":133.152631},{"code":"342100470","name":"西城町熊野","lat":35.013078,"lng":133.091682},{"code":"342100480","name":"西城町大屋","lat":34.966426,"lng":133.073725},{"code":"342100490","name":"西城町中迫","lat":34.960108,"lng":133.099719},{"code":"342100500","name":"西城町小鳥原","lat":35.034723,"lng":133.161238},{"code":"342100510","name":"西城町油木","lat":35.052527,"lng":133.108065},{"code":"342100520","name":"西城町三坂","lat":35.053505,"lng":133.200374},{"code":"342100530","name":"西城町高尾","lat":35.007073,"lng":133.178784},{"code":"342100540","name":"東城町小奴可","lat":35.028329,"lng":133.223842},{"code":"342100550","name":"東城町加谷","lat":34.996077,"lng":133.232206},{"code":"342100560","name":"東城町内堀","lat":35.015632,"lng":133.257772},{"code":"342100570","name":"東城町塩原","lat":34.973429,"lng":133.24606},{"code":"342100580","name":"東城町千鳥","lat":35.005496,"lng":133.283445},{"code":"342100590","name":"東城町小串","lat":34.992525,"lng":133.305514},{"code":"342100600","name":"東城町田黒","lat":34.970044,"lng":133.219084},{"code":"342100610","name":"東城町森","lat":34.964449,"lng":133.190522},{"code":"342100620","name":"東城町川鳥","lat":34.931176,"lng":133.20648},{"code":"342100630","name":"東城町保田","lat":34.934518,"lng":133.165375},{"code":"342100640","name":"東城町菅","lat":34.943958,"lng":133.228305},{"code":"342100650","name":"東城町受原","lat":34.924835,"lng":133.240316},{"code":"342100660","name":"東城町竹森","lat":34.950843,"lng":133.243467},{"code":"342100670","name":"東城町粟田","lat":34.945429,"lng":133.277674},{"code":"342100680","name":"東城町川西","lat":34.902378,"lng":133.262872},{"code":"342100690","name":"東城町川東","lat":34.898608,"lng":133.283449},{"code":"342100700","name":"東城町福代","lat":34.915029,"lng":133.293104},{"code":"342100710","name":"東城町戸宇","lat":34.900857,"lng":133.238315},{"code":"342100720","name":"東城町帝釈未渡","lat":34.86697,"lng":133.171238},{"code":"342100730","name":"東城町帝釈始終","lat":34.894611,"lng":133.161407},{"code":"342100740","name":"東城町帝釈山中","lat":34.912592,"lng":133.180423},{"code":"342100750","name":"東城町帝釈宇山","lat":34.881119,"lng":133.22376},{"code":"342100760","name":"東城町久代","lat":34.865845,"lng":133.28705},{"code":"342100770","name":"東城町三坂","lat":34.842492,"lng":133.241688},{"code":"342100780","name":"東城町新免","lat":34.839048,"lng":133.265449},{"code":"342100790","name":"口和町湯木","lat":34.920252,"lng":132.936451},{"code":"342100800","name":"口和町永田","lat":34.884569,"lng":132.923005},{"code":"342100810","name":"口和町金田","lat":34.865323,"lng":132.90382},{"code":"342100820","name":"口和町常定","lat":34.886243,"lng":132.900587},{"code":"342100830","name":"口和町宮内","lat":34.961401,"lng":132.902587},{"code":"342100840","name":"口和町向泉","lat":34.911624,"lng":132.89788},{"code":"342100850","name":"口和町大月","lat":34.908538,"lng":132.87959},{"code":"342100860","name":"口和町竹地谷","lat":34.957728,"lng":132.861841},{"code":"342100870","name":"高野町上湯川","lat":35.068139,"lng":132.988854},{"code":"342100880","name":"高野町下湯川","lat":35.052273,"lng":132.960319},{"code":"342100890","name":"高野町南","lat":35.015417,"lng":132.922773},{"code":"342100900","name":"高野町新市","lat":35.045797,"lng":132.925531},{"code":"342100910","name":"高野町和南原","lat":35.076414,"lng":132.899688},{"code":"342100920","name":"高野町奥門田","lat":35.00183,"lng":132.897586},{"code":"342100930","name":"高野町中門田","lat":35.023994,"lng":132.893277},{"code":"342100940","name":"高野町岡大内","lat":35.044399,"lng":132.884695},{"code":"342100950","name":"高野町下門田","lat":35.011864,"lng":132.868902},{"code":"342100960","name":"高野町上里原","lat":35.055432,"lng":132.855623},{"code":"342100970","name":"高野町高暮","lat":35.015886,"lng":132.820745},{"code":"342100980","name":"比和町比和","lat":35.00209,"lng":132.976422},{"code":"342100990","name":"比和町森脇","lat":35.038316,"lng":133.004262},{"code":"342101000","name":"比和町古頃","lat":34.966049,"lng":132.94863},{"code":"342101010","name":"比和町木屋原","lat":34.966998,"lng":132.98806},{"code":"342101020","name":"比和町三河内","lat":34.99924,"lng":133.033021},{"code":"342101030","name":"総領町木屋","lat":34.764487,"lng":133.039068},{"code":"342101040","name":"総領町稲草","lat":34.783189,"lng":133.056514},{"code":"342101050","name":"総領町下領家","lat":34.796587,"lng":133.084601},{"code":"342101060","name":"総領町五箇","lat":34.812082,"lng":133.119854},{"code":"342101070","name":"総領町上領家","lat":34.804595,"lng":133.130025},{"code":"342101080","name":"総領町中領家","lat":34.792026,"lng":133.105868},{"code":"342101090","name":"総領町黒目","lat":34.762921,"lng":133.135963},{"code":"342101100","name":"総領町亀谷","lat":34.769383,"lng":133.103199}]}
