{"municipality":"35206","name":"防府市","prefecture":"山口県","source":{"dataset":"frogcat/japan-small-area","census":"平成27年国勢調査 小地域（e-Stat 統計LOD）","license":"MIT（リポジトリ）／政府統計の総合窓口(e-Stat)の利用規約（元データ・出典表記必要）","fetched":"2026-07-06"},"towns":[{"code":"35206001001","name":"国衙１丁目","lat":34.054203,"lng":131.584124},{"code":"35206001002","name":"国衙２丁目","lat":34.057313,"lng":131.583092},{"code":"35206001003","name":"国衙３丁目","lat":34.057091,"lng":131.586836},{"code":"35206001004","name":"国衙４丁目","lat":34.056788,"lng":131.590999},{"code":"35206001005","name":"国衙５丁目","lat":34.053792,"lng":131.589413},{"code":"35206002001","name":"多々良１丁目","lat":34.062477,"lng":131.586463},{"code":"35206002002","name":"多々良２丁目","lat":34.059848,"lng":131.58985},{"code":"352060030","name":"惣社町","lat":34.061345,"lng":131.581331},{"code":"352060040","name":"美和町","lat":34.057495,"lng":131.580694},{"code":"35206005001","name":"緑町１丁目","lat":34.0546,"lng":131.577129},{"code":"35206005002","name":"緑町２丁目","lat":34.054395,"lng":131.580375},{"code":"352060060","name":"国分寺町","lat":34.064753,"lng":131.579132},{"code":"352060070","name":"南松崎町","lat":34.057614,"lng":131.577892},{"code":"352060080","name":"東松崎町","lat":34.059887,"lng":131.577358},{"code":"352060090","name":"松崎町","lat":34.06295,"lng":131.57557},{"code":"352060100","name":"上天神町","lat":34.059678,"lng":131.574029},{"code":"35206011001","name":"天神１丁目","lat":34.054838,"lng":131.57363},{"code":"35206011002","name":"天神２丁目","lat":34.057415,"lng":131.574237},{"code":"35206012001","name":"栄町１丁目","lat":34.054968,"lng":131.571396},{"code":"35206012002","name":"栄町２丁目","lat":34.058664,"lng":131.571703},{"code":"352060130","name":"宮市町","lat":34.061109,"lng":131.570914},{"code":"352060140","name":"迫戸町","lat":34.066323,"lng":131.56978},{"code":"35206015001","name":"戎町１丁目","lat":34.055024,"lng":131.569537},{"code":"35206015002","name":"戎町２丁目","lat":34.058679,"lng":131.569943},{"code":"35206016001","name":"八王子１丁目","lat":34.055277,"lng":131.566349},{"code":"35206016002","name":"八王子２丁目","lat":34.058619,"lng":131.567024},{"code":"352060170","name":"今市町","lat":34.061502,"lng":131.565856},{"code":"352060180","name":"本橋町","lat":34.066147,"lng":131.564845},{"code":"352060190","name":"新橋町","lat":34.063144,"lng":131.55953},{"code":"35206020001","name":"千日１丁目","lat":34.058502,"lng":131.559811},{"code":"35206020002","name":"千日２丁目","lat":34.061386,"lng":131.562535},{"code":"352060210","name":"平和町","lat":34.058372,"lng":131.563108},{"code":"35206022001","name":"佐波１丁目","lat":34.053766,"lng":131.560934},{"code":"35206022002","name":"佐波２丁目","lat":34.055869,"lng":131.562666},{"code":"352060230","name":"寿町","lat":34.051335,"lng":131.561546},{"code":"35206024001","name":"高倉１丁目","lat":34.056337,"lng":131.557683},{"code":"35206024002","name":"高倉２丁目","lat":34.053038,"lng":131.555633},{"code":"352060250","name":"開出","lat":34.056804,"lng":131.553815},{"code":"352060260","name":"中泉町","lat":34.055904,"lng":131.546973},{"code":"352060270","name":"古祖原","lat":34.058737,"lng":131.549438},{"code":"352060280","name":"泉町","lat":34.060941,"lng":131.554834},{"code":"35206029001","name":"警固町１丁目","lat":34.05,"lng":131.579861},{"code":"35206029002","name":"警固町２丁目","lat":34.051377,"lng":131.584},{"code":"35206030001","name":"勝間１丁目","lat":34.045334,"lng":131.580699},{"code":"35206030002","name":"勝間２丁目","lat":34.047985,"lng":131.583504},{"code":"35206030003","name":"勝間３丁目","lat":34.050403,"lng":131.587735},{"code":"35206031001","name":"東三田尻１丁目","lat":34.048554,"lng":131.576397},{"code":"35206031002","name":"東三田尻２丁目","lat":34.046598,"lng":131.57695},{"code":"35206032001","name":"三田尻１丁目","lat":34.047449,"lng":131.573983},{"code":"35206032002","name":"三田尻２丁目","lat":34.042332,"lng":131.578446},{"code":"35206032003","name":"三田尻３丁目","lat":34.044788,"lng":131.578295},{"code":"352060330","name":"鋳物師町","lat":34.051343,"lng":131.5767},{"code":"352060340","name":"車塚町","lat":34.051415,"lng":131.573395},{"code":"352060350","name":"鐘紡町","lat":34.044092,"lng":131.585944},{"code":"352060360","name":"お茶屋町","lat":34.045624,"lng":131.572513},{"code":"352060370","name":"三田尻本町","lat":34.043628,"lng":131.573375},{"code":"352060380","name":"自力町","lat":34.042388,"lng":131.574995},{"code":"35206039001","name":"華浦１丁目","lat":34.041353,"lng":131.57174},{"code":"35206039002","name":"華浦２丁目","lat":34.039413,"lng":131.569535},{"code":"352060400","name":"松原町","lat":34.042731,"lng":131.568466},{"code":"352060410","name":"岡村町","lat":34.046037,"lng":131.569977},{"code":"352060420","name":"中央町","lat":34.05062,"lng":131.570117},{"code":"352060430","name":"駅南町","lat":34.051266,"lng":131.565888},{"code":"35206044001","name":"桑山１丁目","lat":34.046941,"lng":131.565694},{"code":"35206044002","name":"桑山２丁目","lat":34.047588,"lng":131.560514},{"code":"35206045001","name":"石が口１丁目","lat":34.043156,"lng":131.565705},{"code":"35206045002","name":"石が口２丁目","lat":34.043304,"lng":131.562854},{"code":"35206045003","name":"石が口３丁目","lat":34.039886,"lng":131.562967},{"code":"35206046001","name":"桑南１丁目","lat":34.043793,"lng":131.559667},{"code":"35206046002","name":"桑南２丁目","lat":34.040127,"lng":131.559622},{"code":"352060470","name":"鞠生町","lat":34.040103,"lng":131.565663},{"code":"352060480","name":"新田","lat":34.037066,"lng":131.567479},{"code":"352060490","name":"協和町","lat":34.038885,"lng":131.576744},{"code":"35206050001","name":"大字江泊末田","lat":34.043119,"lng":131.623839},{"code":"35206050002","name":"大字江泊堀越","lat":34.036437,"lng":131.61891},{"code":"35206050003","name":"大字江泊大内","lat":34.04125,"lng":131.614175},{"code":"35206050004","name":"大字江泊江泊","lat":34.030019,"lng":131.610305},{"code":"35206050005","name":"大字江泊築留","lat":34.038664,"lng":131.608905},{"code":"35206050006","name":"大字江泊前町","lat":34.042635,"lng":131.60402},{"code":"35206050007","name":"大字江泊沖の原","lat":34.04593,"lng":131.608961},{"code":"35206050008","name":"大字江泊浮野","lat":34.050842,"lng":131.610726},{"code":"35206050009","name":"大字江泊沖田","lat":34.049449,"lng":131.606739},{"code":"35206050010","name":"大字江泊下木部","lat":34.053943,"lng":131.609262},{"code":"35206050012","name":"大字江泊","lat":34.048007,"lng":131.620097},{"code":"35206051001","name":"大字牟礼沖今宿","lat":34.044948,"lng":131.597983},{"code":"35206051002","name":"大字牟礼岸津","lat":34.047733,"lng":131.593594},{"code":"35206051004","name":"大字牟礼中西","lat":34.063936,"lng":131.604925},{"code":"35206051009","name":"大字牟礼上敷山","lat":34.072414,"lng":131.600857},{"code":"35206051010","name":"大字牟礼下坂本","lat":34.067877,"lng":131.606898},{"code":"35206051011","name":"大字牟礼上坂本","lat":34.073106,"lng":131.610913},{"code":"35206051012","name":"大字牟礼坂本団地","lat":34.066421,"lng":131.610734},{"code":"35206051013","name":"大字牟礼下木部","lat":34.057068,"lng":131.610961},{"code":"35206051014","name":"大字牟礼上木部","lat":34.063225,"lng":131.612983},{"code":"35206051015","name":"大字牟礼大平山団地","lat":34.062996,"lng":131.615942},{"code":"35206051018","name":"大字牟礼","lat":34.073463,"lng":131.612594},{"code":"35206051019","name":"大字牟礼新長尾","lat":34.06678,"lng":131.614947},{"code":"35206052001","name":"大字東佐波令人丸","lat":34.079916,"lng":131.583591},{"code":"35206052002","name":"大字東佐波令","lat":34.069145,"lng":131.58063},{"code":"35206053001","name":"大字新田東須賀","lat":34.032957,"lng":131.575044},{"code":"35206053002","name":"大字新田西田中","lat":34.033352,"lng":131.569849},{"code":"35206053003","name":"大字新田問屋口","lat":34.022397,"lng":131.578507},{"code":"35206053004","name":"大字新田横入川","lat":34.029131,"lng":131.578143},{"code":"35206053005","name":"大字新田古前町","lat":34.029885,"lng":131.56865},{"code":"35206053006","name":"大字新田西須賀","lat":34.028563,"lng":131.565855},{"code":"35206053007","name":"大字新田上新田","lat":34.036374,"lng":131.571734},{"code":"35206053008","name":"大字新田中新田","lat":34.033531,"lng":131.567125},{"code":"35206053009","name":"大字新田下新田","lat":34.032689,"lng":131.562728},{"code":"35206053010","name":"大字新田石ケ口","lat":34.037665,"lng":131.564425},{"code":"35206053011","name":"大字新田松原","lat":34.036188,"lng":131.564695},{"code":"35206053012","name":"大字新田百軒沖","lat":34.031344,"lng":131.583551},{"code":"352060540","name":"新築地町","lat":34.04072,"lng":131.592917},{"code":"35206055001","name":"大字野島野島東","lat":33.94966,"lng":131.697825},{"code":"35206055002","name":"大字野島野島中","lat":33.940204,"lng":131.697723},{"code":"35206055003","name":"大字野島野島西","lat":33.939952,"lng":131.693487},{"code":"35206056001","name":"大字向島郷ケ崎東第一","lat":34.021887,"lng":131.586546},{"code":"35206056002","name":"大字向島郷ケ崎東第二","lat":34.023179,"lng":131.583507},{"code":"35206056003","name":"大字向島郷ケ崎中","lat":34.020902,"lng":131.58573},{"code":"35206056004","name":"大字向島郷ケ崎西","lat":34.019691,"lng":131.584767},{"code":"35206056005","name":"大字向島中村","lat":34.017578,"lng":131.581677},{"code":"35206056006","name":"大字向島本村","lat":34.012877,"lng":131.572919},{"code":"35206056007","name":"大字向島小田","lat":33.998468,"lng":131.563566},{"code":"35206056008","name":"大字向島","lat":34.004477,"lng":131.581376},{"code":"35206057001","name":"大字浜方東須賀","lat":34.029952,"lng":131.574707},{"code":"35206057002","name":"大字浜方古浜","lat":34.022002,"lng":131.571526},{"code":"35206057003","name":"大字浜方横入川","lat":34.026787,"lng":131.574346},{"code":"35206057004","name":"大字浜方古前町","lat":34.028254,"lng":131.572515},{"code":"35206057005","name":"大字浜方鶴中浜","lat":34.021476,"lng":131.562805},{"code":"35206057006","name":"大字浜方西築留","lat":34.016505,"lng":131.549626},{"code":"35206057008","name":"大字浜方南蛮樋","lat":34.013477,"lng":131.538665},{"code":"35206057009","name":"大字浜方新地","lat":34.014655,"lng":131.537741},{"code":"35206057010","name":"大字浜方本町","lat":34.010014,"lng":131.538136},{"code":"35206057011","name":"大字浜方中関","lat":34.016031,"lng":131.545336},{"code":"35206057012","name":"大字浜方北側","lat":34.017968,"lng":131.548527},{"code":"35206057013","name":"大字浜方大浜","lat":34.011632,"lng":131.554236},{"code":"35206057014","name":"大字浜方西側官舎","lat":34.014717,"lng":131.541232},{"code":"35206058001","name":"大字田島上地","lat":34.028916,"lng":131.556722},{"code":"35206058002","name":"大字田島上新前町","lat":34.026362,"lng":131.563096},{"code":"35206058003","name":"大字田島中新前町","lat":34.025119,"lng":131.561276},{"code":"35206058004","name":"大字田島下新前町","lat":34.023724,"lng":131.558595},{"code":"35206058005","name":"大字田島浜内","lat":34.021325,"lng":131.552856},{"code":"35206058006","name":"大字田島東築留","lat":34.018429,"lng":131.554768},{"code":"35206058007","name":"大字田島西築留","lat":34.017545,"lng":131.551527},{"code":"35206058008","name":"大字田島北側","lat":34.023463,"lng":131.547941},{"code":"35206058009","name":"大字田島華南一区","lat":34.021415,"lng":131.54642},{"code":"35206058010","name":"大字田島マツダ田島社宅","lat":34.019433,"lng":131.546454},{"code":"35206058011","name":"大字田島西側官舎","lat":34.025608,"lng":131.543517},{"code":"35206058013","name":"大字田島上本町","lat":34.013431,"lng":131.536529},{"code":"35206058014","name":"大字田島本町","lat":34.006205,"lng":131.540444},{"code":"35206058015","name":"大字田島南山手","lat":34.018288,"lng":131.537893},{"code":"35206058016","name":"大字田島北山手","lat":34.025585,"lng":131.53964},{"code":"35206058017","name":"大字田島東海社宅","lat":34.023889,"lng":131.541669},{"code":"35206058018","name":"大字田島北山手宿舎","lat":34.024239,"lng":131.542619},{"code":"35206058019","name":"大字田島中浦","lat":34.009321,"lng":131.526797},{"code":"35206058020","name":"大字田島赤石","lat":34.030461,"lng":131.544176},{"code":"35206058021","name":"大字田島中関","lat":34.01904,"lng":131.541953},{"code":"35206058022","name":"大字田島","lat":34.008991,"lng":131.530998},{"code":"35206058023","name":"大字田島西須賀","lat":34.028493,"lng":131.562524},{"code":"352060591","name":"仁井令町","lat":34.050486,"lng":131.555466},{"code":"352060592","name":"東仁井令町","lat":34.047471,"lng":131.5562},{"code":"352060593","name":"清水町","lat":34.047816,"lng":131.552081},{"code":"352060594","name":"華園町","lat":34.044117,"lng":131.555897},{"code":"35206059604","name":"大字仁井令古谷河内","lat":34.041461,"lng":131.55648},{"code":"35206059611","name":"大字仁井令晒石","lat":34.035656,"lng":131.559957},{"code":"35206059612","name":"大字仁井令石原","lat":34.03718,"lng":131.560009},{"code":"35206059613","name":"大字仁井令寺開作","lat":34.033506,"lng":131.558441},{"code":"35206059614","name":"大字仁井令地神堂","lat":34.038055,"lng":131.556397},{"code":"35206059617","name":"大字仁井令下新田","lat":34.034347,"lng":131.561509},{"code":"35206060501","name":"大字植松八河内","lat":34.043625,"lng":131.5365},{"code":"35206060502","name":"大字植松野地","lat":34.040317,"lng":131.535993},{"code":"35206060503","name":"大字植松中河内","lat":34.052163,"lng":131.538283},{"code":"35206060504","name":"大字植松下河内","lat":34.04772,"lng":131.537898},{"code":"35206060505","name":"大字植松塩屋原","lat":34.045601,"lng":131.531098},{"code":"35206060506","name":"大字植松泥江","lat":34.048012,"lng":131.524169},{"code":"35206060507","name":"大字植松前開作","lat":34.044139,"lng":131.526746},{"code":"35206060508","name":"大字植松潮合","lat":34.037789,"lng":131.529709},{"code":"35206060509","name":"大字植松山県","lat":34.042122,"lng":131.523462},{"code":"35206060510","name":"大字植松西開作","lat":34.042055,"lng":131.517532},{"code":"352060612","name":"伊佐江町","lat":34.044612,"lng":131.550201},{"code":"35206061401","name":"大字伊佐江伊佐江","lat":34.041828,"lng":131.552796},{"code":"35206061402","name":"大字伊佐江大塚","lat":34.040651,"lng":131.544121},{"code":"35206061404","name":"大字伊佐江寺開作","lat":34.033803,"lng":131.555131},{"code":"35206061405","name":"大字伊佐江地神堂","lat":34.037258,"lng":131.554168},{"code":"35206061406","name":"大字伊佐江","lat":34.037091,"lng":131.544918},{"code":"35206061407","name":"大字伊佐江西慶田","lat":34.040013,"lng":131.552421},{"code":"35206062001","name":"大字西浦半田","lat":34.030367,"lng":131.529765},{"code":"35206062002","name":"大字西浦女山","lat":34.035902,"lng":131.524869},{"code":"35206062003","name":"大字西浦丸山","lat":34.022909,"lng":131.524606},{"code":"35206062004","name":"大字西浦里木舟","lat":34.024949,"lng":131.521373},{"code":"35206062005","name":"大字西浦小茅","lat":34.013493,"lng":131.516708},{"code":"35206062006","name":"大字西浦新地東","lat":34.018979,"lng":131.521332},{"code":"35206062007","name":"大字西浦新地西","lat":34.023357,"lng":131.518261},{"code":"35206062008","name":"大字西浦開作西","lat":34.034449,"lng":131.506998},{"code":"35206062009","name":"大字西浦黄金通","lat":34.033267,"lng":131.518754},{"code":"35206062010","name":"大字西浦開作東","lat":34.028194,"lng":131.510761},{"code":"35206062011","name":"大字西浦干拓","lat":34.028626,"lng":131.497868},{"code":"35206062012","name":"大字西浦新地西東","lat":34.020585,"lng":131.514979},{"code":"35206062013","name":"大字西浦","lat":34.017514,"lng":131.523896},{"code":"35206063001","name":"大字上右田和田峪","lat":34.106805,"lng":131.575081},{"code":"35206063002","name":"大字上右田田ノ口","lat":34.100828,"lng":131.564248},{"code":"35206063003","name":"大字上右田沖田ノ口","lat":34.088771,"lng":131.577801},{"code":"35206063004","name":"大字上右田矢筈","lat":34.088953,"lng":131.586138},{"code":"35206063005","name":"大字上右田唐臼","lat":34.082963,"lng":131.575062},{"code":"35206063006","name":"大字上右田右田新町","lat":34.087401,"lng":131.564913},{"code":"35206063007","name":"大字上右田上河原","lat":34.07587,"lng":131.571132},{"code":"35206063008","name":"大字上右田上河原団地","lat":34.07816,"lng":131.574124},{"code":"35206064001","name":"大字下右田塚原","lat":34.076039,"lng":131.563858},{"code":"35206064002","name":"大字下右田片山の一","lat":34.07649,"lng":131.559896},{"code":"35206064003","name":"大字下右田片山の二","lat":34.076604,"lng":131.557093},{"code":"35206064004","name":"大字下右田勝坂","lat":34.08705,"lng":131.553658},{"code":"35206064005","name":"大字下右田勝坂団地","lat":34.089972,"lng":131.552908},{"code":"35206064006","name":"大字下右田右田市上","lat":34.078955,"lng":131.55331},{"code":"35206064007","name":"大字下右田右田市下","lat":34.073481,"lng":131.557668},{"code":"35206064008","name":"大字下右田芝生","lat":34.071199,"lng":131.560085},{"code":"35206064009","name":"大字下右田吉敷","lat":34.070341,"lng":131.562987},{"code":"35206065001","name":"大字高井神里の一","lat":34.07711,"lng":131.547261},{"code":"35206065002","name":"大字高井神里の二","lat":34.073983,"lng":131.552874},{"code":"35206065003","name":"大字高井大日","lat":34.071426,"lng":131.548764},{"code":"35206065004","name":"大字高井鮒田","lat":34.06897,"lng":131.548186},{"code":"35206065005","name":"大字高井大日団地","lat":34.068394,"lng":131.549045},{"code":"35206065006","name":"大字高井中塚","lat":34.069324,"lng":131.552792},{"code":"35206065007","name":"大字高井沖高井","lat":34.066636,"lng":131.556177},{"code":"35206065008","name":"大字高井勝坂","lat":34.087774,"lng":131.542473},{"code":"35206066101","name":"自由ヶ丘一丁目","lat":34.06899,"lng":131.537386},{"code":"35206066102","name":"自由ヶ丘二丁目","lat":34.071028,"lng":131.536583},{"code":"35206066103","name":"自由ヶ丘三丁目","lat":34.069746,"lng":131.541478},{"code":"35206066104","name":"自由ヶ丘四丁目","lat":34.072827,"lng":131.536437},{"code":"35206066201","name":"大字大崎日の本の一","lat":34.066259,"lng":131.547364},{"code":"35206066202","name":"大字大崎日の本の二","lat":34.06556,"lng":131.541247},{"code":"35206066203","name":"大字大崎漆の一","lat":34.061443,"lng":131.545627},{"code":"35206066204","name":"大字大崎漆の二","lat":34.058703,"lng":131.541505},{"code":"35206066205","name":"大字大崎江良","lat":34.07703,"lng":131.531421},{"code":"35206066206","name":"大字大崎居合","lat":34.056299,"lng":131.53491},{"code":"35206066209","name":"大字大崎大日団地","lat":34.067134,"lng":131.54749},{"code":"35206067001","name":"大字佐野小森","lat":34.066154,"lng":131.520348},{"code":"35206067002","name":"大字佐野若宮","lat":34.051515,"lng":131.521903},{"code":"35206067003","name":"大字佐野放光","lat":34.056307,"lng":131.514791},{"code":"35206067004","name":"大字佐野台ケ原","lat":34.050696,"lng":131.510013},{"code":"35206067005","name":"大字佐野川開作","lat":34.046377,"lng":131.512816},{"code":"35206067006","name":"大字佐野小島","lat":34.043332,"lng":131.503161},{"code":"35206067007","name":"大字佐野遠ヶ崎","lat":34.048695,"lng":131.505736},{"code":"35206067008","name":"大字佐野七尾","lat":34.056477,"lng":131.528482},{"code":"35206068001","name":"大字富海戸田山","lat":34.063808,"lng":131.657473},{"code":"35206068002","name":"大字富海富海石原","lat":34.057822,"lng":131.652108},{"code":"35206068003","name":"大字富海野田","lat":34.055582,"lng":131.64646},{"code":"35206068004","name":"大字富海脇","lat":34.050517,"lng":131.652739},{"code":"35206068005","name":"大字富海朝日","lat":34.045647,"lng":131.648282},{"code":"35206068006","name":"大字富海東浜","lat":34.049346,"lng":131.647102},{"code":"35206068007","name":"大字富海小路口","lat":34.049154,"lng":131.646082},{"code":"35206068008","name":"大字富海浦開作","lat":34.048338,"lng":131.644629},{"code":"35206068009","name":"大字富海曙","lat":34.051373,"lng":131.644426},{"code":"35206068010","name":"大字富海富海中市","lat":34.049614,"lng":131.643984},{"code":"35206068011","name":"大字富海西町","lat":34.047804,"lng":131.642215},{"code":"35206068012","name":"大字富海西ノ浜","lat":34.047687,"lng":131.640251},{"code":"35206068013","name":"大字富海富海新地","lat":34.047838,"lng":131.634644},{"code":"35206068014","name":"大字富海梶野","lat":34.051746,"lng":131.638511},{"code":"35206068015","name":"大字富海門前","lat":34.055235,"lng":131.640582},{"code":"35206068016","name":"大字富海末田","lat":34.042478,"lng":131.627292},{"code":"35206068017","name":"大字富海","lat":34.059392,"lng":131.647278},{"code":"35206069001","name":"大字奥畑赤山","lat":34.137423,"lng":131.632206},{"code":"35206069002","name":"大字奥畑本畑","lat":34.149046,"lng":131.649353},{"code":"35206069003","name":"大字奥畑樋渡","lat":34.155475,"lng":131.637266},{"code":"35206069004","name":"大字奥畑麻生","lat":34.142429,"lng":131.639682},{"code":"35206070001","name":"大字久兼久兼上","lat":34.111594,"lng":131.635093},{"code":"35206070002","name":"大字久兼中村","lat":34.124819,"lng":131.634385},{"code":"35206070003","name":"大字久兼久兼西","lat":34.128423,"lng":131.623914},{"code":"35206070004","name":"大字久兼片地山","lat":34.134638,"lng":131.620181},{"code":"35206070005","name":"大字久兼","lat":34.096063,"lng":131.632854},{"code":"35206071001","name":"大字中山中山上","lat":34.14168,"lng":131.612409},{"code":"35206071002","name":"大字中山中山下","lat":34.138773,"lng":131.605224},{"code":"352060720","name":"大字和字","lat":34.118826,"lng":131.615117},{"code":"35206073001","name":"大字奈美奈美上","lat":34.138992,"lng":131.593189},{"code":"35206073002","name":"大字奈美奈美中","lat":34.123543,"lng":131.605397},{"code":"35206073003","name":"大字奈美奈美下","lat":34.117935,"lng":131.599718},{"code":"35206073004","name":"大字奈美奈美旭","lat":34.128408,"lng":131.586857},{"code":"35206074001","name":"大字鈴屋鈴屋平","lat":34.11958,"lng":131.587301},{"code":"35206074002","name":"大字鈴屋鈴屋宮の馬場","lat":34.113937,"lng":131.582219},{"code":"35206074003","name":"大字鈴屋鈴屋沖","lat":34.106903,"lng":131.596155},{"code":"35206074004","name":"大字鈴屋鈴屋中","lat":34.112658,"lng":131.597118},{"code":"35206074005","name":"大字鈴屋鈴屋佐尾","lat":34.111056,"lng":131.60072},{"code":"35206075001","name":"大字真尾下郷","lat":34.095781,"lng":131.590172},{"code":"35206075002","name":"大字真尾高松","lat":34.097408,"lng":131.596514},{"code":"35206075003","name":"大字真尾中央","lat":34.102656,"lng":131.5994},{"code":"35206075004","name":"大字真尾南郷","lat":34.095494,"lng":131.616915},{"code":"35206075005","name":"大字真尾堀溝","lat":34.087951,"lng":131.613058},{"code":"35206075006","name":"大字真尾坂本","lat":34.10669,"lng":131.61066},{"code":"35206076001","name":"大字台道遠ケ崎","lat":34.052089,"lng":131.49877},{"code":"35206076002","name":"大字台道岩淵","lat":34.061446,"lng":131.503381},{"code":"35206076003","name":"大字台道小俣北","lat":34.070709,"lng":131.495774},{"code":"35206076004","name":"大字台道小俣南","lat":34.064648,"lng":131.491045},{"code":"35206076005","name":"大字台道市西","lat":34.067684,"lng":131.481737},{"code":"35206076006","name":"大字台道市東","lat":34.058144,"lng":131.490779},{"code":"35206076007","name":"大字台道駅北","lat":34.056496,"lng":131.488233},{"code":"35206076008","name":"大字台道駅南","lat":34.053445,"lng":131.487488},{"code":"35206076009","name":"大字台道雇用促進住宅","lat":34.052053,"lng":131.493362},{"code":"35206076010","name":"大字台道上り熊","lat":34.058094,"lng":131.480006},{"code":"35206076011","name":"大字台道大原","lat":34.065306,"lng":131.465764},{"code":"35206076012","name":"大字台道長沢","lat":34.067578,"lng":131.473794},{"code":"35206076013","name":"大字台道開拓","lat":34.059957,"lng":131.463604},{"code":"35206076014","name":"大字台道下津令北","lat":34.05207,"lng":131.466939},{"code":"35206076015","name":"大字台道下津令南","lat":34.047203,"lng":131.474536},{"code":"35206076016","name":"大字台道浜条","lat":34.042115,"lng":131.48032},{"code":"35206076017","name":"大字台道新館","lat":34.042311,"lng":131.474401},{"code":"35206076018","name":"大字台道岡条","lat":34.047521,"lng":131.481241},{"code":"35206076019","name":"大字台道旦東","lat":34.046843,"lng":131.486473},{"code":"35206076020","name":"大字台道大繁枝","lat":34.049978,"lng":131.491269},{"code":"35206076021","name":"大字台道開作","lat":34.038798,"lng":131.487781},{"code":"35206076022","name":"大字台道繁枝団地","lat":34.052533,"lng":131.49269},{"code":"35206077001","name":"大字切畑上ノ庄","lat":34.076188,"lng":131.507244},{"code":"35206077002","name":"大字切畑東畑","lat":34.088755,"lng":131.508561},{"code":"35206077003","name":"大字切畑西畑","lat":34.091276,"lng":131.49707},{"code":"35206077004","name":"大字切畑林","lat":34.085736,"lng":131.495115},{"code":"35206077005","name":"大字切畑西山","lat":34.080435,"lng":131.489883},{"code":"352060790","name":"開出本町","lat":34.053467,"lng":131.551072},{"code":"352060800","name":"開出西町","lat":34.052963,"lng":131.545933},{"code":"35206085001","name":"岩畠一丁目","lat":34.058208,"lng":131.595054},{"code":"35206085002","name":"岩畠二丁目","lat":34.062381,"lng":131.594106},{"code":"35206085003","name":"岩畠三丁目","lat":34.062785,"lng":131.597557},{"code":"352060860","name":"酢貝","lat":34.058009,"lng":131.598568},{"code":"352060870","name":"牟礼柳","lat":34.058004,"lng":131.602494},{"code":"35206088001","name":"岸津一丁目","lat":34.054119,"lng":131.594475},{"code":"35206088002","name":"岸津二丁目","lat":34.050705,"lng":131.594003},{"code":"35206089001","name":"牟礼今宿一丁目","lat":34.05416,"lng":131.598792},{"code":"35206089002","name":"牟礼今宿二丁目","lat":34.052964,"lng":131.602581},{"code":"35206090001","name":"沖今宿一丁目","lat":34.049907,"lng":131.59835},{"code":"35206090002","name":"沖今宿二丁目","lat":34.04821,"lng":131.601681},{"code":"352060910","name":"中西","lat":34.062567,"lng":131.601901},{"code":"352060920","name":"敷山町","lat":34.067078,"lng":131.599136},{"code":"35206093001","name":"西仁井令一丁目","lat":34.050542,"lng":131.546551},{"code":"35206093002","name":"西仁井令二丁目","lat":34.048504,"lng":131.546538},{"code":"35206094001","name":"華城中央一丁目","lat":34.044181,"lng":131.545462},{"code":"35206094002","name":"華城中央二丁目","lat":34.04542,"lng":131.543012}]}
