{"municipality":"35215","name":"周南市","prefecture":"山口県","source":{"dataset":"frogcat/japan-small-area","census":"平成27年国勢調査 小地域（e-Stat 統計LOD）","license":"MIT（リポジトリ）／政府統計の総合窓口(e-Stat)の利用規約（元データ・出典表記必要）","fetched":"2026-07-06"},"towns":[{"code":"35215001001","name":"城ケ丘１丁目","lat":34.045725,"lng":131.837319},{"code":"35215001002","name":"城ケ丘２丁目","lat":34.044216,"lng":131.839468},{"code":"35215001003","name":"城ケ丘３丁目","lat":34.042317,"lng":131.84279},{"code":"35215001004","name":"城ケ丘４丁目","lat":34.044983,"lng":131.845234},{"code":"35215001005","name":"城ケ丘５丁目","lat":34.046153,"lng":131.840963},{"code":"35215002001","name":"桜木１丁目","lat":34.042258,"lng":131.837702},{"code":"35215002002","name":"桜木２丁目","lat":34.03943,"lng":131.840344},{"code":"35215002003","name":"桜木３丁目","lat":34.037761,"lng":131.836634},{"code":"352150030","name":"平原町","lat":34.050719,"lng":131.842822},{"code":"352150040","name":"大字徳山","lat":34.055449,"lng":131.838156},{"code":"352150050","name":"孝田町","lat":34.047931,"lng":131.835432},{"code":"35215006001","name":"周陽１丁目","lat":34.048451,"lng":131.828509},{"code":"35215006002","name":"周陽２丁目","lat":34.045979,"lng":131.8319},{"code":"35215006003","name":"周陽３丁目","lat":34.045376,"lng":131.827969},{"code":"352150070","name":"瀬戸見町","lat":34.050002,"lng":131.83274},{"code":"352150080","name":"江の宮町","lat":34.051692,"lng":131.829675},{"code":"352150090","name":"大字徳山","lat":34.046086,"lng":131.824167},{"code":"35215010101","name":"花陽１丁目","lat":34.05404,"lng":131.832528},{"code":"35215010102","name":"花陽２丁目","lat":34.052898,"lng":131.834755},{"code":"35215011001","name":"秋月１丁目","lat":34.053456,"lng":131.826794},{"code":"35215011002","name":"秋月２丁目","lat":34.056636,"lng":131.827714},{"code":"35215011003","name":"秋月３丁目","lat":34.057592,"lng":131.830248},{"code":"35215011004","name":"秋月４丁目","lat":34.059462,"lng":131.833031},{"code":"352150120","name":"大内町","lat":34.049418,"lng":131.824293},{"code":"352150130","name":"扇町","lat":34.054982,"lng":131.823225},{"code":"35215014001","name":"楠木１丁目","lat":34.056789,"lng":131.821168},{"code":"35215014002","name":"楠木２丁目","lat":34.05678,"lng":131.825276},{"code":"352150150","name":"泉原町","lat":34.053634,"lng":131.820111},{"code":"352150160","name":"清水町","lat":34.054845,"lng":131.817969},{"code":"352150171","name":"由加町","lat":34.033109,"lng":131.823152},{"code":"352150172","name":"横浜町","lat":34.034868,"lng":131.828888},{"code":"352150180","name":"五月町","lat":34.037709,"lng":131.829624},{"code":"35215019001","name":"遠石１丁目","lat":34.041424,"lng":131.819582},{"code":"35215019002","name":"遠石２丁目","lat":34.041972,"lng":131.823796},{"code":"35215019003","name":"遠石３丁目","lat":34.038729,"lng":131.825604},{"code":"352150200","name":"青山町","lat":34.043506,"lng":131.817186},{"code":"352150210","name":"大字徳山","lat":34.045897,"lng":131.821118},{"code":"352150220","name":"若草町","lat":34.046494,"lng":131.818197},{"code":"352150230","name":"上遠石町","lat":34.044249,"lng":131.822623},{"code":"352150240","name":"松保町","lat":34.044385,"lng":131.813456},{"code":"352150250","name":"速玉町","lat":34.045896,"lng":131.810527},{"code":"352150260","name":"東山町","lat":34.046986,"lng":131.815492},{"code":"352150270","name":"慶万町","lat":34.04962,"lng":131.814076},{"code":"352150280","name":"河東町","lat":34.048128,"lng":131.81152},{"code":"352150290","name":"大字徳山","lat":34.056614,"lng":131.816694},{"code":"352150300","name":"大字徳山","lat":34.058787,"lng":131.816595},{"code":"352150310","name":"辻町","lat":34.057434,"lng":131.816181},{"code":"352150320","name":"岐南町","lat":34.058703,"lng":131.813172},{"code":"352150330","name":"大字徳山","lat":34.061647,"lng":131.814615},{"code":"352150340","name":"大字徳山","lat":34.062284,"lng":131.811125},{"code":"352150350","name":"大字徳山","lat":34.059816,"lng":131.816113},{"code":"35215036001","name":"大字徳山字東金剛山","lat":34.065524,"lng":131.820252},{"code":"35215036002","name":"大字徳山字中金剛山","lat":34.065815,"lng":131.815159},{"code":"35215036003","name":"大字徳山字西金剛山","lat":34.068018,"lng":131.812849},{"code":"35215037001","name":"大字徳山字上一ノ井手","lat":34.067711,"lng":131.828202},{"code":"35215037002","name":"大字徳山字下一ノ井手","lat":34.060677,"lng":131.819378},{"code":"35215037003","name":"大字徳山字東一ノ井手","lat":34.060306,"lng":131.825281},{"code":"35215037004","name":"大字徳山字西一ノ井手","lat":34.062901,"lng":131.823258},{"code":"352150380","name":"大字徳山","lat":34.061753,"lng":131.830367},{"code":"35215039001","name":"大字徳山字小野","lat":34.084315,"lng":131.827293},{"code":"35215039002","name":"大字徳山字栄谷","lat":34.082029,"lng":131.839684},{"code":"352150400","name":"大字徳山","lat":34.063343,"lng":131.808215},{"code":"352150410","name":"舞車町","lat":34.052156,"lng":131.815801},{"code":"352150420","name":"大字徳山","lat":34.052502,"lng":131.813303},{"code":"352150430","name":"大字徳山","lat":34.054283,"lng":131.813796},{"code":"35215044001","name":"二番町１丁目","lat":34.053583,"lng":131.811327},{"code":"35215044002","name":"二番町２丁目","lat":34.054965,"lng":131.812137},{"code":"35215044003","name":"二番町３丁目","lat":34.056542,"lng":131.813003},{"code":"35215044004","name":"二番町","lat":34.054503,"lng":131.812424},{"code":"35215045001","name":"三番町１丁目","lat":34.053767,"lng":131.810699},{"code":"35215045002","name":"三番町２丁目","lat":34.055214,"lng":131.811544},{"code":"35215045003","name":"三番町３丁目","lat":34.056752,"lng":131.812242},{"code":"35215046001","name":"毛利町１丁目","lat":34.054079,"lng":131.810034},{"code":"35215046002","name":"毛利町２丁目","lat":34.055701,"lng":131.810299},{"code":"35215046003","name":"毛利町３丁目","lat":34.057287,"lng":131.810953},{"code":"35215047001","name":"児玉町１丁目","lat":34.054907,"lng":131.808415},{"code":"35215047002","name":"児玉町２丁目","lat":34.056301,"lng":131.808957},{"code":"35215047003","name":"児玉町３丁目","lat":34.057776,"lng":131.809682},{"code":"35215048001","name":"岐山通１丁目","lat":34.055312,"lng":131.807088},{"code":"35215048002","name":"岐山通２丁目","lat":34.056793,"lng":131.807848},{"code":"35215048003","name":"岐山通３丁目","lat":34.058194,"lng":131.808694},{"code":"35215049001","name":"弥生町１丁目","lat":34.055815,"lng":131.806008},{"code":"35215049002","name":"弥生町２丁目","lat":34.05713,"lng":131.806817},{"code":"35215049003","name":"弥生町３丁目","lat":34.058327,"lng":131.807551},{"code":"35215050001","name":"梅園町１丁目","lat":34.056116,"lng":131.804939},{"code":"35215050002","name":"梅園町２丁目","lat":34.0575,"lng":131.805685},{"code":"35215050003","name":"梅園町３丁目","lat":34.058797,"lng":131.806562},{"code":"35215051001","name":"代々木通１丁目","lat":34.054686,"lng":131.804725},{"code":"35215051002","name":"代々木通２丁目","lat":34.055563,"lng":131.802957},{"code":"352150520","name":"鐘楼町","lat":34.06064,"lng":131.808755},{"code":"352150530","name":"花畠町","lat":34.059731,"lng":131.81101},{"code":"35215054001","name":"川端町１丁目","lat":34.05079,"lng":131.810537},{"code":"35215054002","name":"川端町２丁目","lat":34.049636,"lng":131.810116},{"code":"35215055001","name":"昭和通１丁目","lat":34.050874,"lng":131.809664},{"code":"35215055002","name":"昭和通２丁目","lat":34.049063,"lng":131.808391},{"code":"35215056001","name":"橋本町１丁目","lat":34.047807,"lng":131.808814},{"code":"35215056002","name":"橋本町２丁目","lat":34.046666,"lng":131.80801},{"code":"352150570","name":"柳町","lat":34.048849,"lng":131.809643},{"code":"35215058001","name":"糀町１丁目","lat":34.048578,"lng":131.806219},{"code":"35215058002","name":"糀町２丁目","lat":34.047739,"lng":131.807161},{"code":"35215059001","name":"飯島町１丁目","lat":34.051368,"lng":131.808988},{"code":"35215059002","name":"飯島町２丁目","lat":34.049655,"lng":131.807688},{"code":"35215060001","name":"平和通１丁目","lat":34.051871,"lng":131.808284},{"code":"35215060002","name":"平和通２丁目","lat":34.049693,"lng":131.806256},{"code":"35215061001","name":"桜馬場通１丁目","lat":34.054039,"lng":131.808268},{"code":"35215061002","name":"桜馬場通２丁目","lat":34.052898,"lng":131.810004},{"code":"35215061003","name":"桜馬場通３丁目","lat":34.051539,"lng":131.810985},{"code":"35215062001","name":"若宮町１丁目","lat":34.052557,"lng":131.807736},{"code":"35215062002","name":"若宮町２丁目","lat":34.051284,"lng":131.806733},{"code":"35215063001","name":"新町１丁目","lat":34.052964,"lng":131.80682},{"code":"35215063002","name":"新町２丁目","lat":34.052038,"lng":131.806142},{"code":"352150640","name":"銀南街","lat":34.05104,"lng":131.805341},{"code":"35215065001","name":"銀座１丁目","lat":34.051333,"lng":131.804232},{"code":"35215065002","name":"銀座２丁目","lat":34.05023,"lng":131.805327},{"code":"35215066001","name":"みなみ銀座１丁目","lat":34.050848,"lng":131.803569},{"code":"35215066002","name":"みなみ銀座２丁目","lat":34.049719,"lng":131.804565},{"code":"35215067001","name":"御幸通１丁目","lat":34.053322,"lng":131.805686},{"code":"35215067002","name":"御幸通２丁目","lat":34.052143,"lng":131.803971},{"code":"352150680","name":"有楽町","lat":34.052716,"lng":131.802213},{"code":"35215069001","name":"本町１丁目","lat":34.053042,"lng":131.80296},{"code":"35215069002","name":"本町２丁目","lat":34.054604,"lng":131.801936},{"code":"35215070001","name":"栄町１丁目","lat":34.054038,"lng":131.804634},{"code":"35215070002","name":"栄町２丁目","lat":34.053515,"lng":131.803753},{"code":"352150711","name":"那智町","lat":34.044647,"lng":131.805245},{"code":"352150712","name":"晴海町","lat":34.037761,"lng":131.792105},{"code":"352150714","name":"住崎町","lat":34.049149,"lng":131.803307},{"code":"352150720","name":"築港町","lat":34.04958,"lng":131.800607},{"code":"352150730","name":"千代田町","lat":34.053158,"lng":131.800279},{"code":"352150742","name":"御影町","lat":34.059058,"lng":131.792011},{"code":"35215075001","name":"新宿通１丁目","lat":34.057533,"lng":131.801742},{"code":"35215075002","name":"新宿通２丁目","lat":34.059295,"lng":131.800908},{"code":"35215075003","name":"新宿通３丁目","lat":34.060998,"lng":131.800099},{"code":"35215075004","name":"新宿通４丁目","lat":34.062299,"lng":131.799487},{"code":"35215075005","name":"新宿通５丁目","lat":34.064013,"lng":131.800386},{"code":"35215075006","name":"新宿通６丁目","lat":34.065518,"lng":131.798626},{"code":"35215076001","name":"戎町１丁目","lat":34.054679,"lng":131.802459},{"code":"35215076002","name":"戎町２丁目","lat":34.055984,"lng":131.801914},{"code":"35215076003","name":"戎町３丁目","lat":34.057309,"lng":131.801087},{"code":"35215077001","name":"野上町１丁目","lat":34.055711,"lng":131.801247},{"code":"35215077002","name":"野上町２丁目","lat":34.057153,"lng":131.800555},{"code":"35215078001","name":"都町１丁目","lat":34.05419,"lng":131.801118},{"code":"35215078002","name":"都町２丁目","lat":34.055402,"lng":131.800339},{"code":"35215078003","name":"都町３丁目","lat":34.05687,"lng":131.799627},{"code":"35215079001","name":"相生町１丁目","lat":34.058927,"lng":131.799788},{"code":"35215079002","name":"相生町２丁目","lat":34.060737,"lng":131.798955},{"code":"35215079003","name":"相生町３丁目","lat":34.06223,"lng":131.798256},{"code":"35215080001","name":"初音町１丁目","lat":34.059137,"lng":131.800199},{"code":"35215080002","name":"初音町２丁目","lat":34.061002,"lng":131.799421},{"code":"35215080003","name":"初音町３丁目","lat":34.062143,"lng":131.798723},{"code":"35215081001","name":"沖見町１丁目","lat":34.058724,"lng":131.799003},{"code":"35215081002","name":"沖見町２丁目","lat":34.060558,"lng":131.79829},{"code":"35215081003","name":"沖見町３丁目","lat":34.061968,"lng":131.797626},{"code":"352150821","name":"徳山港町","lat":34.052038,"lng":131.795663},{"code":"352150822","name":"入船町","lat":34.056176,"lng":131.797924},{"code":"352150830","name":"権現町","lat":34.057363,"lng":131.798342},{"code":"35215084001","name":"西松原１丁目","lat":34.063855,"lng":131.797799},{"code":"35215084002","name":"西松原２丁目","lat":34.063164,"lng":131.79679},{"code":"35215084003","name":"西松原３丁目","lat":34.06576,"lng":131.795857},{"code":"35215084004","name":"西松原４丁目","lat":34.06465,"lng":131.794679},{"code":"352150850","name":"大字徳山","lat":34.071355,"lng":131.794802},{"code":"35215086001","name":"今宿町１丁目","lat":34.056474,"lng":131.803518},{"code":"35215086002","name":"今宿町２丁目","lat":34.057862,"lng":131.802759},{"code":"35215086003","name":"今宿町３丁目","lat":34.059643,"lng":131.80194},{"code":"35215086004","name":"今宿町４丁目","lat":34.061126,"lng":131.801248},{"code":"35215087001","name":"緑町１丁目","lat":34.058094,"lng":131.804179},{"code":"35215087002","name":"緑町２丁目","lat":34.059444,"lng":131.805034},{"code":"35215087003","name":"緑町３丁目","lat":34.060105,"lng":131.803168},{"code":"35215088001","name":"月丘町１丁目","lat":34.059285,"lng":131.807679},{"code":"35215088002","name":"月丘町２丁目","lat":34.060077,"lng":131.805711},{"code":"35215088003","name":"月丘町３丁目","lat":34.060894,"lng":131.803607},{"code":"35215088004","name":"月丘町４丁目","lat":34.061991,"lng":131.801176},{"code":"352150890","name":"原宿町","lat":34.0623,"lng":131.80438},{"code":"352150900","name":"今住町","lat":34.063073,"lng":131.802385},{"code":"352150910","name":"住吉町","lat":34.064634,"lng":131.804537},{"code":"352150920","name":"岡田町","lat":34.061487,"lng":131.806434},{"code":"352150930","name":"大字徳山","lat":34.069756,"lng":131.799495},{"code":"35215095001","name":"大字徳山字東北山","lat":34.069866,"lng":131.807562},{"code":"35215095002","name":"大字徳山字西北山","lat":34.070153,"lng":131.802817},{"code":"352150960","name":"大字徳山","lat":34.075762,"lng":131.809296},{"code":"352150970","name":"大字譲羽","lat":34.071693,"lng":131.859139},{"code":"352150980","name":"大字久米","lat":34.051189,"lng":131.848688},{"code":"352150990","name":"大字櫛ケ浜","lat":34.026593,"lng":131.829534},{"code":"35215100101","name":"鼓海１丁目","lat":34.022388,"lng":131.824875},{"code":"35215100102","name":"鼓海２丁目","lat":34.021449,"lng":131.820844},{"code":"35215100103","name":"鼓海３丁目","lat":34.021704,"lng":131.817379},{"code":"352151002","name":"大字栗屋","lat":34.010689,"lng":131.813843},{"code":"35215101001","name":"大字大島字居守","lat":34.007364,"lng":131.825235},{"code":"35215101002","name":"大字大島字大原","lat":33.98495,"lng":131.799859},{"code":"352151020","name":"大字粭島","lat":33.979364,"lng":131.762526},{"code":"352151030","name":"大字大津島","lat":34.012127,"lng":131.719657},{"code":"352151040","name":"大字夜市","lat":34.094054,"lng":131.713166},{"code":"352151050","name":"大字戸田","lat":34.07155,"lng":131.681117},{"code":"352151060","name":"大字湯野","lat":34.109801,"lng":131.667956},{"code":"352151070","name":"大字四熊","lat":34.11122,"lng":131.763626},{"code":"352151080","name":"大字小畑","lat":34.095524,"lng":131.745911},{"code":"352151090","name":"大字下上","lat":34.086278,"lng":131.779347},{"code":"352151100","name":"大字中野","lat":34.128726,"lng":131.782398},{"code":"352151110","name":"大字上村","lat":34.090138,"lng":131.799485},{"code":"352151120","name":"大字川曲","lat":34.104901,"lng":131.818487},{"code":"352151130","name":"大字大向","lat":34.17509,"lng":131.826577},{"code":"352151140","name":"大字大道理","lat":34.158412,"lng":131.799315},{"code":"352151150","name":"大字長穂","lat":34.135359,"lng":131.836666},{"code":"352151160","name":"大字莇地","lat":34.110805,"lng":131.840772},{"code":"35215117001","name":"大字須々万奥字奥光","lat":34.143822,"lng":131.873285},{"code":"35215117002","name":"大字須々万本郷字片地上","lat":34.112537,"lng":131.862908},{"code":"35215118001","name":"大字中須北字椿","lat":34.146133,"lng":131.935384},{"code":"35215118002","name":"大字中須南字川上","lat":34.10692,"lng":131.912957},{"code":"352151190","name":"大字須万","lat":34.209159,"lng":131.918722},{"code":"352151200","name":"大字金峰","lat":34.173064,"lng":131.906831},{"code":"352151210","name":"新宮町","lat":34.040428,"lng":131.813352},{"code":"35215122001","name":"富田１丁目","lat":34.073951,"lng":131.751082},{"code":"35215122002","name":"富田２丁目","lat":34.074141,"lng":131.754958},{"code":"35215123001","name":"平野１丁目","lat":34.071815,"lng":131.751088},{"code":"35215123002","name":"平野２丁目","lat":34.07165,"lng":131.754758},{"code":"35215124001","name":"温田１丁目","lat":34.072827,"lng":131.746344},{"code":"35215124002","name":"温田２丁目","lat":34.071045,"lng":131.744522},{"code":"352151250","name":"丸山町","lat":34.076146,"lng":131.749884},{"code":"352151260","name":"港町","lat":34.068691,"lng":131.74804},{"code":"352151270","name":"浜田","lat":34.069358,"lng":131.755418},{"code":"352151280","name":"日地町","lat":34.076117,"lng":131.754719},{"code":"352151290","name":"小川屋町","lat":34.066778,"lng":131.753976},{"code":"352151300","name":"開成町","lat":34.056189,"lng":131.754693},{"code":"352151310","name":"野村南町","lat":34.058765,"lng":131.775477},{"code":"352151320","name":"渚町","lat":34.057493,"lng":131.784968},{"code":"35215133001","name":"大字富田中溝","lat":34.075254,"lng":131.758067},{"code":"35215133002","name":"大字富田新町北","lat":34.076827,"lng":131.761969},{"code":"35215133003","name":"大字富田新町中","lat":34.07511,"lng":131.760011},{"code":"35215133004","name":"大字富田新町東","lat":34.073384,"lng":131.761161},{"code":"35215133005","name":"大字富田新町西","lat":34.072974,"lng":131.758312},{"code":"35215133006","name":"大字富田浜田","lat":34.071211,"lng":131.757674},{"code":"35215133007","name":"大字富田古市北","lat":34.070893,"lng":131.760614},{"code":"35215133010","name":"大字富田大神","lat":34.090078,"lng":131.764465},{"code":"35215133011","name":"大字富田","lat":34.081899,"lng":131.752188},{"code":"35215133014","name":"大字富田","lat":34.07702,"lng":131.766999},{"code":"35215133016","name":"大字富田","lat":34.074329,"lng":131.783529},{"code":"35215133021","name":"大字富田","lat":34.037972,"lng":131.755138},{"code":"352151340","name":"河内町","lat":34.07825,"lng":131.756624},{"code":"352151350","name":"坂根町","lat":34.081097,"lng":131.757215},{"code":"352151360","name":"新堤町","lat":34.078101,"lng":131.760702},{"code":"35215137001","name":"大神１丁目","lat":34.081979,"lng":131.762648},{"code":"35215137002","name":"大神２丁目","lat":34.08183,"lng":131.765184},{"code":"35215137003","name":"大神３丁目","lat":34.079531,"lng":131.765225},{"code":"35215137004","name":"大神４丁目","lat":34.08421,"lng":131.767444},{"code":"35215137005","name":"大神５丁目","lat":34.087199,"lng":131.762105},{"code":"35215138001","name":"政所１丁目","lat":34.074547,"lng":131.769025},{"code":"35215138002","name":"政所２丁目","lat":34.072754,"lng":131.768341},{"code":"35215138003","name":"政所３丁目","lat":34.072425,"lng":131.77207},{"code":"35215138004","name":"政所４丁目","lat":34.074444,"lng":131.773957},{"code":"35215139001","name":"土井１丁目","lat":34.079132,"lng":131.771143},{"code":"35215139002","name":"土井２丁目","lat":34.076822,"lng":131.773659},{"code":"352151400","name":"桶川町","lat":34.071788,"lng":131.77494},{"code":"352151410","name":"古川町","lat":34.069797,"lng":131.775196},{"code":"35215142001","name":"川手１丁目","lat":34.070303,"lng":131.778683},{"code":"35215142002","name":"川手２丁目","lat":34.068565,"lng":131.780765},{"code":"35215143001","name":"川崎１丁目","lat":34.073086,"lng":131.776965},{"code":"35215143002","name":"川崎２丁目","lat":34.072842,"lng":131.779502},{"code":"35215143003","name":"川崎３丁目","lat":34.070981,"lng":131.785819},{"code":"352151440","name":"西千代田町","lat":34.068785,"lng":131.785215},{"code":"35215145001","name":"野村１丁目","lat":34.063486,"lng":131.76697},{"code":"35215145002","name":"野村２丁目","lat":34.064149,"lng":131.774225},{"code":"35215145003","name":"野村３丁目","lat":34.064662,"lng":131.779368},{"code":"352151460","name":"椎木町","lat":34.066585,"lng":131.781372},{"code":"352151470","name":"道源町","lat":34.065097,"lng":131.784874},{"code":"352151480","name":"三笹町","lat":34.06227,"lng":131.785778},{"code":"35215149001","name":"清水１丁目","lat":34.070914,"lng":131.76812},{"code":"35215149002","name":"清水２丁目","lat":34.069126,"lng":131.772501},{"code":"35215151001","name":"羽島１丁目","lat":34.074586,"lng":131.725722},{"code":"35215151002","name":"羽島２丁目","lat":34.075327,"lng":131.722206},{"code":"35215151003","name":"羽島３丁目","lat":34.072452,"lng":131.722251},{"code":"352151520","name":"かせ河原町","lat":34.070419,"lng":131.725985},{"code":"352151530","name":"中畷町","lat":34.071418,"lng":131.728136},{"code":"35215154001","name":"室尾１丁目","lat":34.067476,"lng":131.730422},{"code":"35215154002","name":"室尾２丁目","lat":34.064226,"lng":131.728875},{"code":"352151550","name":"長田町","lat":34.06158,"lng":131.723474},{"code":"35215156001","name":"大字福川羽島","lat":34.070263,"lng":131.720007},{"code":"35215156002","name":"大字福川","lat":34.083281,"lng":131.730368},{"code":"35215156003","name":"大字福川","lat":34.078069,"lng":131.741789},{"code":"35215157001","name":"若山１丁目","lat":34.076286,"lng":131.72845},{"code":"35215157002","name":"若山２丁目","lat":34.07846,"lng":131.723432},{"code":"352151580","name":"上迫町","lat":34.079681,"lng":131.732881},{"code":"352151590","name":"皿山町","lat":34.078475,"lng":131.737817},{"code":"352151600","name":"御姫町","lat":34.074635,"lng":131.727435},{"code":"352151610","name":"本陣町","lat":34.075052,"lng":131.732303},{"code":"352151620","name":"福川中市町","lat":34.07474,"lng":131.734705},{"code":"352151630","name":"新地町","lat":34.071421,"lng":131.732838},{"code":"352151640","name":"西桝町","lat":34.068479,"lng":131.734475},{"code":"35215165001","name":"新田１丁目","lat":34.065176,"lng":131.734578},{"code":"35215165002","name":"新田２丁目","lat":34.062586,"lng":131.735038},{"code":"35215166001","name":"福川１丁目","lat":34.074062,"lng":131.742067},{"code":"35215166002","name":"福川２丁目","lat":34.074265,"lng":131.738904},{"code":"35215166003","name":"福川３丁目","lat":34.074132,"lng":131.736632},{"code":"352151670","name":"社地町","lat":34.072332,"lng":131.738468},{"code":"352151680","name":"福川南町","lat":34.068261,"lng":131.739252},{"code":"35215169001","name":"大字高瀬大崩","lat":34.177695,"lng":131.77798},{"code":"35215169002","name":"大字高瀬西迫上","lat":34.186115,"lng":131.762866},{"code":"35215169003","name":"大字高瀬西迫下","lat":34.180155,"lng":131.75209},{"code":"35215169004","name":"大字高瀬巣山","lat":34.183797,"lng":131.741208},{"code":"35215169005","name":"大字高瀬秋字明","lat":34.174826,"lng":131.75936},{"code":"35215169006","name":"大字高瀬殿明","lat":34.166831,"lng":131.762882},{"code":"35215169007","name":"大字高瀬大原","lat":34.165752,"lng":131.751611},{"code":"35215170001","name":"大字夏切中村","lat":34.163472,"lng":131.74491},{"code":"35215170002","name":"大字夏切林","lat":34.16479,"lng":131.737518},{"code":"35215170003","name":"大字夏切原赤","lat":34.156373,"lng":131.728823},{"code":"35215170004","name":"大字夏切夏切","lat":34.149126,"lng":131.742975},{"code":"35215171001","name":"大字垰升谷","lat":34.153747,"lng":131.763642},{"code":"35215171002","name":"大字垰山河内","lat":34.151653,"lng":131.753604},{"code":"35215171003","name":"大字垰垰の畑","lat":34.132504,"lng":131.749826},{"code":"35215171004","name":"大字垰神頭谷","lat":34.140321,"lng":131.745256},{"code":"35215171005","name":"大字垰野広","lat":34.136134,"lng":131.74157},{"code":"35215171006","name":"大字垰和田","lat":34.146501,"lng":131.732579},{"code":"35215172001","name":"大字米光米光上","lat":34.138186,"lng":131.733094},{"code":"35215172002","name":"大字米光米光下","lat":34.136809,"lng":131.726287},{"code":"35215172003","name":"大字米光大谷","lat":34.121728,"lng":131.738351},{"code":"35215172004","name":"大字米光池広","lat":34.127053,"lng":131.729894},{"code":"35215172005","name":"大字米光平木","lat":34.131898,"lng":131.718915},{"code":"35215173001","name":"大字馬神十郎","lat":34.122611,"lng":131.722076},{"code":"35215173002","name":"大字馬神車木","lat":34.113263,"lng":131.728774},{"code":"35215173003","name":"大字馬神打木野","lat":34.127156,"lng":131.711687},{"code":"35215173004","name":"大字馬神木屋ケ迫","lat":34.126234,"lng":131.703949},{"code":"35215173005","name":"大字馬神田戸","lat":34.133541,"lng":131.696111},{"code":"35215173006","name":"大字馬神湯野峠","lat":34.118726,"lng":131.702016},{"code":"35215173007","name":"大字馬神矢地峠","lat":34.116073,"lng":131.710202},{"code":"35215173008","name":"大字馬神西広沢","lat":34.11834,"lng":131.714756},{"code":"35215174001","name":"古市１丁目","lat":34.068278,"lng":131.760357},{"code":"35215174002","name":"古市２丁目","lat":34.069414,"lng":131.764632},{"code":"35215175001","name":"宮の前１丁目","lat":34.074517,"lng":131.764084},{"code":"35215175002","name":"宮の前２丁目","lat":34.072806,"lng":131.764612},{"code":"352151760","name":"中央町","lat":34.071107,"lng":131.764694},{"code":"35215177001","name":"古泉１丁目","lat":34.067103,"lng":131.764924},{"code":"35215177002","name":"古泉２丁目","lat":34.06681,"lng":131.768579},{"code":"35215177003","name":"古泉３丁目","lat":34.066439,"lng":131.772435},{"code":"352151780","name":"花園町","lat":34.066977,"lng":131.775432},{"code":"352151790","name":"大字八代","lat":34.093449,"lng":131.943664},{"code":"352151800","name":"大字清尾","lat":34.05506,"lng":131.988083},{"code":"352151810","name":"大字樋口","lat":34.072698,"lng":131.979051},{"code":"352151820","name":"大字原","lat":34.066747,"lng":131.962976},{"code":"35215183101","name":"勝間ヶ丘１丁目","lat":34.047067,"lng":131.953745},{"code":"35215183102","name":"勝間ヶ丘２丁目","lat":34.048371,"lng":131.953135},{"code":"35215183103","name":"勝間ヶ丘３丁目","lat":34.050136,"lng":131.953773},{"code":"35215183201","name":"藤ヶ台１丁目","lat":34.047509,"lng":131.954811},{"code":"35215183202","name":"藤ヶ台２丁目","lat":34.047899,"lng":131.955927},{"code":"352151833","name":"大字呼坂","lat":34.050082,"lng":131.948579},{"code":"352151840","name":"大字奥関屋","lat":34.068186,"lng":131.945735},{"code":"352151851","name":"清光台町","lat":34.031544,"lng":131.95104},{"code":"352151852","name":"大字大河内","lat":34.023775,"lng":131.944944},{"code":"35215186101","name":"新清光台１丁目","lat":34.035135,"lng":131.949491},{"code":"35215186102","name":"新清光台２丁目","lat":34.035785,"lng":131.952336},{"code":"35215186103","name":"新清光台３丁目","lat":34.033668,"lng":131.953187},{"code":"35215186104","name":"新清光台４丁目","lat":34.032963,"lng":131.952196},{"code":"352151862","name":"大字中村","lat":34.033004,"lng":131.959229},{"code":"352151871","name":"熊毛中央町","lat":34.04924,"lng":131.969423},{"code":"352151872","name":"大字安田","lat":34.039206,"lng":131.973156},{"code":"35215187301","name":"鶴見台１丁目","lat":34.052396,"lng":131.974422},{"code":"35215187302","name":"鶴見台２丁目","lat":34.051083,"lng":131.974757},{"code":"35215187303","name":"鶴見台３丁目","lat":34.049937,"lng":131.975099},{"code":"35215187304","name":"鶴見台４丁目","lat":34.051819,"lng":131.977019},{"code":"35215187305","name":"鶴見台５丁目","lat":34.050702,"lng":131.976968},{"code":"35215187306","name":"鶴見台６丁目","lat":34.049387,"lng":131.976874},{"code":"352151880","name":"大字小松原","lat":34.044944,"lng":132.008034},{"code":"352151890","name":"大字大潮","lat":34.296962,"lng":131.781296},{"code":"352151900","name":"大字鹿野上","lat":34.267605,"lng":131.845063},{"code":"352151910","name":"大字鹿野中","lat":34.233728,"lng":131.792539},{"code":"352151920","name":"大字鹿野下","lat":34.211023,"lng":131.82339},{"code":"352151930","name":"大字巣山","lat":34.228013,"lng":131.766328},{"code":"352151940","name":"大字須万鹿野","lat":34.227339,"lng":131.877551},{"code":"352151950","name":"大字金峰鹿野","lat":34.194535,"lng":131.859739},{"code":"35215196001","name":"新地１丁目","lat":34.067432,"lng":131.792564},{"code":"35215196002","name":"新地２丁目","lat":34.06627,"lng":131.791792},{"code":"35215196003","name":"新地３丁目","lat":34.068187,"lng":131.78848},{"code":"35215197001","name":"江口１丁目","lat":34.063033,"lng":131.794228},{"code":"35215197002","name":"江口２丁目","lat":34.06485,"lng":131.790226},{"code":"35215197003","name":"江口３丁目","lat":34.06582,"lng":131.787374},{"code":"352151980","name":"南浦山町","lat":34.069091,"lng":131.791141},{"code":"35215199001","name":"高水原１丁目","lat":34.052411,"lng":131.969711},{"code":"35215199002","name":"高水原２丁目","lat":34.053124,"lng":131.97243},{"code":"35215199003","name":"高水原３丁目","lat":34.054087,"lng":131.971494},{"code":"352152000","name":"呼坂本町","lat":34.051031,"lng":131.967824},{"code":"352152010","name":"学園台","lat":34.050378,"lng":131.846741},{"code":"352152020","name":"竹島町","lat":34.051302,"lng":131.759485},{"code":"35215203001","name":"大字徳山字若草町","lat":34.048257,"lng":131.820029},{"code":"35215203002","name":"大字徳山字舞車町","lat":34.050878,"lng":131.820519},{"code":"35215203003","name":"大字徳山字青山町","lat":34.042925,"lng":131.820076},{"code":"35215203004","name":"大字徳山字上遠石町","lat":34.044715,"lng":131.821262},{"code":"35215203005","name":"大字徳山字遠石１丁目","lat":34.042674,"lng":131.821725},{"code":"35215203006","name":"大字徳山","lat":34.041131,"lng":131.831514},{"code":"35215203007","name":"大字徳山","lat":34.056157,"lng":131.831389},{"code":"35215204001","name":"浦山１丁目","lat":34.068538,"lng":131.794587},{"code":"35215204002","name":"浦山２丁目","lat":34.069563,"lng":131.795127},{"code":"352152050","name":"御山町","lat":34.067149,"lng":131.799441},{"code":"35215206001","name":"北山１丁目","lat":34.06663,"lng":131.802676},{"code":"35215206002","name":"北山２丁目","lat":34.067882,"lng":131.801317},{"code":"35215207001","name":"東北山１丁目","lat":34.066512,"lng":131.807318},{"code":"35215207002","name":"東北山２丁目","lat":34.067336,"lng":131.805756},{"code":"35215208001","name":"蓮ケ浴１丁目","lat":34.065187,"lng":131.808222},{"code":"35215208002","name":"蓮ケ浴２丁目","lat":34.066442,"lng":131.808511}]}
