{"municipality":"36203","name":"小松島市","prefecture":"徳島県","source":{"dataset":"frogcat/japan-small-area","census":"平成27年国勢調査 小地域（e-Stat 統計LOD）","license":"MIT（リポジトリ）／政府統計の総合窓口(e-Stat)の利用規約（元データ・出典表記必要）","fetched":"2026-07-06"},"towns":[{"code":"36203001001","name":"小松島町字門田","lat":34.005221,"lng":134.575529},{"code":"36203001002","name":"小松島町字西堀川","lat":34.006148,"lng":134.580287},{"code":"36203001003","name":"小松島町字高須","lat":34.004881,"lng":134.587303},{"code":"36203001004","name":"小松島町字中筋","lat":34.004181,"lng":134.58906},{"code":"36203001005","name":"小松島町字中筋","lat":34.003266,"lng":134.590474},{"code":"36203001006","name":"小松島町字南開","lat":34.002401,"lng":134.588694},{"code":"36203001007","name":"小松島町字領田","lat":34.005419,"lng":134.572443},{"code":"36203001008","name":"小松島町字喜来","lat":34.004847,"lng":134.573838},{"code":"36203001009","name":"小松島町字菖蒲田","lat":34.006419,"lng":134.572553},{"code":"36203001010","name":"小松島町字北浜","lat":34.01454,"lng":134.587468},{"code":"36203001011","name":"小松島町字元根井","lat":34.014673,"lng":134.590757},{"code":"36203001012","name":"小松島町字馬場ノ本","lat":34.01191,"lng":134.577457},{"code":"36203001013","name":"小松島町字若井崎","lat":34.012778,"lng":134.580794},{"code":"36203001014","name":"小松島町字井利ノ口","lat":34.011867,"lng":134.583427},{"code":"36203001015","name":"小松島町字井利ノ口","lat":34.010784,"lng":134.582233},{"code":"36203001016","name":"小松島町字外開","lat":34.009974,"lng":134.583437},{"code":"36203001017","name":"小松島町字新港","lat":34.011153,"lng":134.589133},{"code":"36203001018","name":"小松島町字北開","lat":34.011775,"lng":134.585194},{"code":"36203001019","name":"小松島町字外開","lat":34.009732,"lng":134.586187},{"code":"36203001020","name":"小松島町字網渕","lat":34.01072,"lng":134.586302},{"code":"362030020","name":"神田瀬町","lat":34.008639,"lng":134.578795},{"code":"362030030","name":"松島町","lat":34.008172,"lng":134.584263},{"code":"362030040","name":"堀川町","lat":34.006539,"lng":134.583271},{"code":"362030050","name":"南小松島町","lat":34.006437,"lng":134.588446},{"code":"362030060","name":"横須町","lat":34.000936,"lng":134.59527},{"code":"362030070","name":"金磯町","lat":33.992627,"lng":134.604466},{"code":"36203008001","name":"田野町字釿石","lat":33.974994,"lng":134.575185},{"code":"36203008002","name":"田野町字中須","lat":33.986273,"lng":134.57774},{"code":"36203008003","name":"田野町字平田","lat":33.988121,"lng":134.583226},{"code":"36203008004","name":"田野町字月ノ輪","lat":33.987753,"lng":134.586339},{"code":"36203008005","name":"田野町字赤石南","lat":33.988402,"lng":134.595128},{"code":"36203008006","name":"田野町字赤石南","lat":33.981084,"lng":134.596502},{"code":"36203008007","name":"田野町字本村","lat":33.981964,"lng":134.590056},{"code":"36203008008","name":"田野町字中須","lat":33.982684,"lng":134.582282},{"code":"36203008009","name":"田野町字中須","lat":33.979099,"lng":134.586178},{"code":"36203008010","name":"田野町字宮ノ下","lat":33.974771,"lng":134.582848},{"code":"36203008011","name":"田野町字鳥居本","lat":33.971994,"lng":134.588703},{"code":"36203009001","name":"芝生町字網干","lat":33.999836,"lng":134.581167},{"code":"36203009002","name":"芝生町字西居屋敷","lat":33.993202,"lng":134.576318},{"code":"36203009003","name":"芝生町字西浦","lat":33.994986,"lng":134.580171},{"code":"36203009004","name":"芝生町字宮ノ前","lat":33.991475,"lng":134.581647},{"code":"36203009005","name":"芝生町字西居屋敷","lat":33.993276,"lng":134.582845},{"code":"36203009006","name":"芝生町字網干","lat":33.996943,"lng":134.581642},{"code":"36203009007","name":"芝生町字東居屋敷","lat":33.997113,"lng":134.58404},{"code":"36203009008","name":"芝生町字内開","lat":33.994151,"lng":134.585465},{"code":"36203009009","name":"芝生町字横須","lat":33.996059,"lng":134.590133},{"code":"36203010001","name":"日開野町字井理守","lat":34.006097,"lng":134.578871},{"code":"36203010002","name":"日開野町字井理守","lat":34.005456,"lng":134.582767},{"code":"36203010003","name":"日開野町字高須","lat":34.002199,"lng":134.585543},{"code":"36203010004","name":"日開野町字行地","lat":34.000329,"lng":134.589879},{"code":"36203010005","name":"日開野町字加々ミ松","lat":34.004881,"lng":134.567459},{"code":"36203010006","name":"日開野町字末次","lat":34.004618,"lng":134.576924},{"code":"36203010007","name":"日開野町字川田","lat":34.003519,"lng":134.578153},{"code":"36203010008","name":"日開野町字堤花","lat":34.004626,"lng":134.580403},{"code":"36203010009","name":"日開野町字破閑道","lat":34.00291,"lng":134.582293},{"code":"36203010010","name":"日開野町字弥三次","lat":34.001008,"lng":134.578152},{"code":"36203010011","name":"日開野町字宮免","lat":34.000115,"lng":134.574042},{"code":"36203011001","name":"新居見町字義方","lat":34.000087,"lng":134.568627},{"code":"36203011002","name":"新居見町字東山下","lat":33.995462,"lng":134.568242},{"code":"36203011003","name":"新居見町字西川","lat":33.998973,"lng":134.565202},{"code":"36203011004","name":"新居見町字高内","lat":33.996918,"lng":134.566004},{"code":"36203012001","name":"田浦町字矢三","lat":34.003598,"lng":134.555866},{"code":"36203012002","name":"田浦町字本村","lat":34.002645,"lng":134.558335},{"code":"36203012003","name":"田浦町字原田","lat":34.000819,"lng":134.560047},{"code":"36203012004","name":"田浦町字子安","lat":34.000465,"lng":134.562425},{"code":"36203012005","name":"田浦町字近里","lat":34.00272,"lng":134.566262},{"code":"36203012006","name":"田浦町字岩金","lat":33.99882,"lng":134.56294},{"code":"36203012007","name":"田浦町字神子ノ内","lat":33.996235,"lng":134.558612},{"code":"36203012008","name":"田浦町字原田","lat":33.999378,"lng":134.557145},{"code":"36203012009","name":"田浦町字中村","lat":33.99777,"lng":134.555289},{"code":"36203012010","name":"田浦町字中西","lat":34.00099,"lng":134.553875},{"code":"36203012011","name":"田浦町字北原","lat":33.999244,"lng":134.551311},{"code":"36203012012","name":"田浦町字西原","lat":33.991386,"lng":134.551028},{"code":"36203012013","name":"田浦町字中西","lat":33.994012,"lng":134.555097},{"code":"36203012014","name":"田浦町字前山","lat":33.991258,"lng":134.566561},{"code":"36203013001","name":"前原町字宮","lat":34.013894,"lng":134.560013},{"code":"36203013002","name":"前原町字中川原","lat":34.011724,"lng":134.563257},{"code":"36203013003","name":"前原町西久保","lat":34.01349,"lng":134.565785},{"code":"36203013004","name":"前原町字福徳","lat":34.006088,"lng":134.561961},{"code":"36203013005","name":"前原町字中川原","lat":34.008092,"lng":134.557974},{"code":"36203014001","name":"江田町字敷地前","lat":34.02064,"lng":134.561479},{"code":"36203014002","name":"江田町字腰前","lat":34.017892,"lng":134.567023},{"code":"36203014003","name":"江田町字大江田","lat":34.015695,"lng":134.564097},{"code":"36203015001","name":"中田町字広見","lat":34.018712,"lng":134.570406},{"code":"36203015002","name":"中田町字土持","lat":34.017394,"lng":134.569774},{"code":"36203015003","name":"中田町字狭間","lat":34.015224,"lng":134.572004},{"code":"36203015004","name":"中田町字狭間","lat":34.015483,"lng":134.571036},{"code":"36203015005","name":"中田町字狭間","lat":34.015317,"lng":134.56898},{"code":"36203015006","name":"中田町字池ノ内","lat":34.019716,"lng":134.573083},{"code":"36203015007","name":"中田町字西山","lat":34.02088,"lng":134.583352},{"code":"36203015008","name":"中田町字東山","lat":34.01839,"lng":134.585262},{"code":"36203015009","name":"中田町字東山","lat":34.017334,"lng":134.594715},{"code":"36203015010","name":"中田町字脇谷","lat":34.018231,"lng":134.589844},{"code":"36203015011","name":"中田町字浜田","lat":34.017586,"lng":134.586965},{"code":"36203015012","name":"中田町字上浜田","lat":34.017342,"lng":134.583389},{"code":"36203015014","name":"中田町字西山","lat":34.018021,"lng":134.578311},{"code":"36203015015","name":"中田町字内開","lat":34.015989,"lng":134.578579},{"code":"36203015016","name":"中田町字奥林","lat":34.016033,"lng":134.57468},{"code":"36203015017","name":"中田町字千代ケ原","lat":34.015099,"lng":134.576406},{"code":"36203015018","name":"中田町字狭間","lat":34.017481,"lng":134.573822},{"code":"36203015019","name":"中田町字内開","lat":34.014606,"lng":134.579916},{"code":"36203015020","name":"中田町字新開","lat":34.014916,"lng":134.583096},{"code":"36203016001","name":"中郷町字西久保","lat":34.012587,"lng":134.566424},{"code":"36203016002","name":"中郷町字露ノ本","lat":34.010969,"lng":134.567594},{"code":"36203016003","name":"中郷町字西野","lat":34.012781,"lng":134.568783},{"code":"36203016004","name":"中郷町字桜馬場","lat":34.013541,"lng":134.573238},{"code":"36203016005","name":"中郷町字長手","lat":34.012037,"lng":134.571496},{"code":"36203016006","name":"中郷町字県前","lat":34.009135,"lng":134.574575},{"code":"36203016007","name":"中郷町字豊ノ本","lat":34.011364,"lng":134.574788},{"code":"36203016008","name":"中郷町字大瀬町","lat":34.007363,"lng":134.575392},{"code":"36203016009","name":"中郷町字加藤","lat":34.008393,"lng":134.570421},{"code":"36203016010","name":"中郷町字前田","lat":34.008011,"lng":134.565726},{"code":"36203017001","name":"立江町字小田ノ浦","lat":33.975029,"lng":134.599193},{"code":"36203017002","name":"立江町字松塚","lat":33.974324,"lng":134.606077},{"code":"36203017003","name":"立江町字宮前","lat":33.971902,"lng":134.606465},{"code":"36203017004","name":"立江町字青森","lat":33.9785,"lng":134.608158},{"code":"36203017005","name":"立江町字若松","lat":33.968126,"lng":134.606465},{"code":"36203017006","name":"立江町字若松","lat":33.970667,"lng":134.608779},{"code":"36203017007","name":"立江町字金岡","lat":33.969179,"lng":134.603508},{"code":"36203017008","name":"立江町字清水","lat":33.966195,"lng":134.599889},{"code":"36203017009","name":"立江町字柳ノ内","lat":33.965167,"lng":134.604878},{"code":"36203017010","name":"立江町字豊田","lat":33.960265,"lng":134.606218},{"code":"36203017011","name":"立江町字豊田","lat":33.963446,"lng":134.608323},{"code":"36203017012","name":"立江町字北田頭","lat":33.964293,"lng":134.611484},{"code":"36203017013","name":"立江町字東金岡","lat":33.969645,"lng":134.605942},{"code":"36203017014","name":"立江町字南山","lat":33.954325,"lng":134.605159},{"code":"36203017015","name":"立江町字万代","lat":33.966979,"lng":134.60553},{"code":"36203017016","name":"立江町字南田頭","lat":33.967713,"lng":134.609878},{"code":"36203018000","name":"櫛渕町","lat":33.961447,"lng":134.576686},{"code":"36203018001","name":"櫛渕町字小松","lat":33.963051,"lng":134.592552},{"code":"36203018002","name":"櫛渕町字油免","lat":33.960604,"lng":134.59423},{"code":"36203018003","name":"櫛渕町字久友","lat":33.961024,"lng":134.587094},{"code":"36203018004","name":"櫛渕町字藤ケ崎","lat":33.959085,"lng":134.583581},{"code":"36203018005","name":"櫛渕町字北佃","lat":33.957125,"lng":134.579863},{"code":"36203018006","name":"櫛渕町字中田","lat":33.95575,"lng":134.574371},{"code":"36203018007","name":"櫛渕町字左近田","lat":33.945796,"lng":134.57196},{"code":"36203018008","name":"櫛渕町字太田","lat":33.950932,"lng":134.584206},{"code":"36203018009","name":"櫛渕町字北佃","lat":33.95514,"lng":134.592952},{"code":"36203018010","name":"櫛渕町字佐山","lat":33.949134,"lng":134.593676},{"code":"362030190","name":"豊浦町","lat":33.987797,"lng":134.618243},{"code":"36203020001","name":"和田津開町字ヒガシ","lat":33.987378,"lng":134.628323},{"code":"36203020002","name":"和田津開町字屋敷ノ西","lat":33.984812,"lng":134.623919},{"code":"36203021000","name":"赤石町","lat":33.98202,"lng":134.609764},{"code":"36203021001","name":"赤石町字緑松","lat":33.983213,"lng":134.619552},{"code":"36203022001","name":"大林町字蛭子免","lat":33.979456,"lng":134.621106},{"code":"36203022002","name":"大林町字金島","lat":33.979798,"lng":134.618044},{"code":"36203022003","name":"大林町字森ノ本","lat":33.976677,"lng":134.611944},{"code":"36203022004","name":"大林町字金岡","lat":33.977331,"lng":134.616137},{"code":"36203022005","name":"大林町字岩戸","lat":33.971209,"lng":134.619275},{"code":"36203022006","name":"大林町字宮免","lat":33.969347,"lng":134.614222},{"code":"36203023001","name":"坂野町字鸛の巣","lat":33.984104,"lng":134.624728},{"code":"36203023002","name":"坂野町字大原","lat":33.983078,"lng":134.625815},{"code":"36203023003","name":"坂野町字島ノ内","lat":33.985098,"lng":134.630444},{"code":"36203023004","name":"坂野町字野神","lat":33.984976,"lng":134.636371},{"code":"36203023005","name":"坂野町字神長","lat":33.986299,"lng":134.645198},{"code":"36203023006","name":"坂野町字楠塚","lat":33.982895,"lng":134.640133},{"code":"36203023007","name":"坂野町字境野","lat":33.980686,"lng":134.641753},{"code":"36203023008","name":"坂野町字経塚","lat":33.980604,"lng":134.637521},{"code":"36203023009","name":"坂野町字野神","lat":33.982023,"lng":134.634143},{"code":"36203023010","name":"坂野町字大久保","lat":33.981458,"lng":134.63543},{"code":"36203023011","name":"坂野町字松の","lat":33.983174,"lng":134.632083},{"code":"36203023012","name":"坂野町字根上り","lat":33.981911,"lng":134.631548},{"code":"36203023013","name":"坂野町字苅屋","lat":33.97921,"lng":134.62554},{"code":"36203023014","name":"坂野町字種井","lat":33.980132,"lng":134.631644},{"code":"36203023015","name":"坂野町字原京","lat":33.976955,"lng":134.630056},{"code":"36203023016","name":"坂野町字立花","lat":33.975463,"lng":134.633978},{"code":"36203023017","name":"坂野町字細野","lat":33.979628,"lng":134.63583},{"code":"36203023018","name":"坂野町字松コロ","lat":33.976154,"lng":134.638306},{"code":"36203023019","name":"坂野町字太郎丸","lat":33.972906,"lng":134.630138},{"code":"36203023020","name":"坂野町字大場","lat":33.970388,"lng":134.635651},{"code":"36203023021","name":"坂野町字目佐","lat":33.967029,"lng":134.63354},{"code":"36203023022","name":"坂野町字黒地","lat":33.965083,"lng":134.634627},{"code":"36203023023","name":"坂野町字相久","lat":33.96908,"lng":134.628754},{"code":"36203023024","name":"坂野町字砥鼻","lat":33.972525,"lng":134.624714},{"code":"36203023025","name":"坂野町字ミゾ口","lat":33.966373,"lng":134.63098},{"code":"36203023026","name":"坂野町字樫のべ","lat":33.968707,"lng":134.625982},{"code":"362030240","name":"間新田町","lat":33.989225,"lng":134.639225},{"code":"36203025001","name":"和田島町字洲端","lat":34.004393,"lng":134.628956},{"code":"36203025002","name":"和田島町字遠見","lat":34.008096,"lng":134.631074},{"code":"36203025003","name":"和田島町字西林","lat":34.005647,"lng":134.636965},{"code":"36203025004","name":"和田島町字西林","lat":34.002581,"lng":134.632534},{"code":"36203025005","name":"和田島町字浜塚","lat":33.995533,"lng":134.634391},{"code":"36203025006","name":"和田島町字西浜手","lat":33.999664,"lng":134.635323},{"code":"36203025007","name":"和田島町字勢以元","lat":34.001478,"lng":134.638269},{"code":"36203025008","name":"和田島町字外開","lat":34.003689,"lng":134.640956},{"code":"36203025009","name":"和田島町字明神東","lat":33.999811,"lng":134.643349},{"code":"36203025010","name":"和田島町字東新開","lat":33.995973,"lng":134.646487},{"code":"36203025011","name":"和田島町字東新開","lat":33.99177,"lng":134.646311},{"code":"36203025012","name":"和田島町字明神北","lat":33.996714,"lng":134.642404},{"code":"36203025013","name":"和田島町字塚の間","lat":33.996447,"lng":134.638242},{"code":"36203025014","name":"和田島町字松田新田","lat":33.991535,"lng":134.632374}]}
