{"municipality":"36301","name":"勝浦郡勝浦町","prefecture":"徳島県","source":{"dataset":"frogcat/japan-small-area","census":"平成27年国勢調査 小地域（e-Stat 統計LOD）","license":"MIT（リポジトリ）／政府統計の総合窓口(e-Stat)の利用規約（元データ・出典表記必要）","fetched":"2026-07-06"},"towns":[{"code":"363010010","name":"大字沼江","lat":33.947536,"lng":134.547705},{"code":"363010020","name":"大字中角","lat":33.937306,"lng":134.534247},{"code":"363010030","name":"大字生名","lat":33.922654,"lng":134.517867},{"code":"363010040","name":"大字星谷","lat":33.949782,"lng":134.517515},{"code":"363010050","name":"大字久国","lat":33.929386,"lng":134.50953},{"code":"363010060","name":"大字棚野","lat":33.894441,"lng":134.464935},{"code":"363010070","name":"大字三渓","lat":33.941522,"lng":134.482811},{"code":"363010080","name":"大字坂本","lat":33.941999,"lng":134.447798}]}
