{"municipality":"36387","name":"海部郡美波町","prefecture":"徳島県","source":{"dataset":"frogcat/japan-small-area","census":"平成27年国勢調査 小地域（e-Stat 統計LOD）","license":"MIT（リポジトリ）／政府統計の総合窓口(e-Stat)の利用規約（元データ・出典表記必要）","fetched":"2026-07-06"},"towns":[{"code":"363870010","name":"阿部","lat":33.794155,"lng":134.635095},{"code":"363870020","name":"志和岐","lat":33.782764,"lng":134.609383},{"code":"363870030","name":"東由岐","lat":33.769907,"lng":134.598695},{"code":"363870040","name":"西の地","lat":33.781737,"lng":134.596116},{"code":"363870050","name":"西由岐","lat":33.771395,"lng":134.58965},{"code":"363870060","name":"木岐","lat":33.762102,"lng":134.565269},{"code":"363870070","name":"伊座利","lat":33.80614,"lng":134.665819},{"code":"363870080","name":"港町","lat":33.773123,"lng":134.593136},{"code":"363870090","name":"田井","lat":33.777738,"lng":134.579684},{"code":"36387010001","name":"赤松字流矢","lat":33.777785,"lng":134.495365},{"code":"36387010002","name":"赤松字阿地屋","lat":33.778248,"lng":134.499373},{"code":"36387010003","name":"赤松字栗作","lat":33.770728,"lng":134.472495},{"code":"36387010004","name":"赤松字総屋敷","lat":33.776948,"lng":134.48459},{"code":"36387010005","name":"赤松字寺野","lat":33.76319,"lng":134.50206},{"code":"36387010006","name":"赤松字遠野","lat":33.771314,"lng":134.493246},{"code":"36387010007","name":"赤松字野田","lat":33.772346,"lng":134.49942},{"code":"36387010008","name":"赤松字日浦","lat":33.755729,"lng":134.443623},{"code":"36387010009","name":"赤松字耳瀬","lat":33.776635,"lng":134.513847},{"code":"36387011001","name":"恵比須浜","lat":33.737193,"lng":134.560874},{"code":"36387011002","name":"恵比須浜字田井","lat":33.747478,"lng":134.554552},{"code":"36387012002","name":"奥河内字井ノ上","lat":33.741154,"lng":134.538665},{"code":"36387012003","name":"奥河内字奥潟","lat":33.719754,"lng":134.508996},{"code":"36387012004","name":"奥河内字櫛ケ谷","lat":33.719968,"lng":134.532212},{"code":"36387012005","name":"奥河内字寺前","lat":33.730349,"lng":134.526367},{"code":"36387012006","name":"奥河内字弁財天","lat":33.716493,"lng":134.522897},{"code":"36387012007","name":"奥河内字井ノ上","lat":33.735099,"lng":134.535548},{"code":"36387013001","name":"北河内字大戸","lat":33.791642,"lng":134.550462},{"code":"36387013002","name":"北河内字北分","lat":33.759883,"lng":134.521181},{"code":"36387013003","name":"北河内字久望","lat":33.774235,"lng":134.539316},{"code":"36387013004","name":"北河内字登り","lat":33.751864,"lng":134.540196},{"code":"36387013005","name":"北河内字本村","lat":33.74611,"lng":134.530867},{"code":"36387014001","name":"西河内字平戸","lat":33.744461,"lng":134.498956},{"code":"36387014002","name":"西河内字田々川","lat":33.742203,"lng":134.526484},{"code":"36387014003","name":"西河内字丹前","lat":33.730209,"lng":134.507664},{"code":"36387014004","name":"西河内字月輪","lat":33.734553,"lng":134.523216},{"code":"363870150","name":"日和佐浦","lat":33.732291,"lng":134.540822},{"code":"36387016001","name":"山河内字なか","lat":33.712129,"lng":134.478168},{"code":"36387016002","name":"山河内字大越","lat":33.727868,"lng":134.420001},{"code":"36387016003","name":"山河内字かんば","lat":33.708192,"lng":134.462964},{"code":"36387016004","name":"山河内字西山","lat":33.735917,"lng":134.460891},{"code":"36387016005","name":"山河内字白沢","lat":33.701588,"lng":134.49203},{"code":"36387016006","name":"山河内字本村","lat":33.725843,"lng":134.487636}]}
