{"municipality":"38214","name":"西予市","prefecture":"愛媛県","source":{"dataset":"frogcat/japan-small-area","census":"平成27年国勢調査 小地域（e-Stat 統計LOD）","license":"MIT（リポジトリ）／政府統計の総合窓口(e-Stat)の利用規約（元データ・出典表記必要）","fetched":"2026-07-06"},"towns":[{"code":"382140010","name":"明浜町高山","lat":33.323108,"lng":132.43636},{"code":"382140020","name":"明浜町狩浜","lat":33.321919,"lng":132.461674},{"code":"382140030","name":"明浜町渡江","lat":33.323833,"lng":132.478793},{"code":"382140040","name":"明浜町宮野浦","lat":33.31305,"lng":132.416374},{"code":"382140050","name":"明浜町俵津","lat":33.334956,"lng":132.48354},{"code":"382140060","name":"明浜町田之浜","lat":33.321342,"lng":132.391427},{"code":"38214007001","name":"宇和町卯之町１丁目","lat":33.368393,"lng":132.5084},{"code":"38214007002","name":"宇和町卯之町２丁目","lat":33.367785,"lng":132.51337},{"code":"38214007003","name":"宇和町卯之町３丁目","lat":33.360841,"lng":132.511619},{"code":"38214007004","name":"宇和町卯之町４丁目","lat":33.358406,"lng":132.511391},{"code":"38214007005","name":"宇和町卯之町５丁目","lat":33.35952,"lng":132.523278},{"code":"382140080","name":"宇和町れんげ","lat":33.385429,"lng":132.498348},{"code":"382140090","name":"宇和町永長","lat":33.373464,"lng":132.489198},{"code":"382140100","name":"宇和町上松葉","lat":33.381729,"lng":132.508934},{"code":"38214011000","name":"宇和町下松葉","lat":33.375411,"lng":132.505393},{"code":"38214011001","name":"宇和町下松葉","lat":33.376524,"lng":132.499026},{"code":"382140120","name":"宇和町久枝","lat":33.365393,"lng":132.497462},{"code":"382140130","name":"宇和町小野田","lat":33.364041,"lng":132.488822},{"code":"382140140","name":"宇和町野田","lat":33.35495,"lng":132.484485},{"code":"382140150","name":"宇和町神領","lat":33.3647,"lng":132.503723},{"code":"382140160","name":"宇和町伊賀上","lat":33.34633,"lng":132.507994},{"code":"382140170","name":"宇和町小原","lat":33.391756,"lng":132.483512},{"code":"382140180","name":"宇和町岩木","lat":33.398621,"lng":132.471428},{"code":"382140190","name":"宇和町郷内","lat":33.388139,"lng":132.455697},{"code":"382140200","name":"宇和町西山田","lat":33.372921,"lng":132.45925},{"code":"382140210","name":"宇和町山田","lat":33.356275,"lng":132.464449},{"code":"382140220","name":"宇和町大江","lat":33.40839,"lng":132.514753},{"code":"382140230","name":"宇和町杢所","lat":33.399696,"lng":132.495529},{"code":"382140240","name":"宇和町清沢","lat":33.392488,"lng":132.493641},{"code":"382140250","name":"宇和町加茂","lat":33.399321,"lng":132.515368},{"code":"382140260","name":"宇和町坂戸","lat":33.390449,"lng":132.509737},{"code":"382140270","name":"宇和町田苗真土","lat":33.405636,"lng":132.497053},{"code":"382140280","name":"宇和町久保","lat":33.445562,"lng":132.518997},{"code":"382140290","name":"宇和町信里","lat":33.432895,"lng":132.532484},{"code":"382140300","name":"宇和町河内","lat":33.436912,"lng":132.498536},{"code":"382140310","name":"宇和町伊延","lat":33.427643,"lng":132.493333},{"code":"382140320","name":"宇和町伊延","lat":33.417382,"lng":132.48673},{"code":"382140330","name":"宇和町岡山","lat":33.419608,"lng":132.501682},{"code":"382140340","name":"宇和町瀬戸","lat":33.417161,"lng":132.514927},{"code":"382140350","name":"宇和町東多田","lat":33.42527,"lng":132.514812},{"code":"382140360","name":"宇和町田野中","lat":33.413848,"lng":132.538512},{"code":"382140370","name":"宇和町伊崎","lat":33.395667,"lng":132.526393},{"code":"382140380","name":"宇和町平野","lat":33.401393,"lng":132.547072},{"code":"382140390","name":"宇和町窪","lat":33.39295,"lng":132.547982},{"code":"382140400","name":"宇和町常定寺","lat":33.387511,"lng":132.533814},{"code":"382140410","name":"宇和町新城","lat":33.379256,"lng":132.538122},{"code":"382140420","name":"宇和町明石","lat":33.370795,"lng":132.528912},{"code":"382140430","name":"宇和町稲生","lat":33.361177,"lng":132.538014},{"code":"382140440","name":"宇和町皆田","lat":33.344164,"lng":132.53424},{"code":"382140450","name":"宇和町下川","lat":33.345571,"lng":132.55468},{"code":"382140460","name":"宇和町明間","lat":33.345255,"lng":132.592039},{"code":"382140470","name":"宇和町ひまわり","lat":33.370684,"lng":132.504573},{"code":"382140480","name":"野村町野村","lat":33.357531,"lng":132.641653},{"code":"382140490","name":"野村町片川","lat":33.391681,"lng":132.627382},{"code":"382140500","name":"野村町阿下","lat":33.38228,"lng":132.669396},{"code":"382140510","name":"野村町釜川","lat":33.394617,"lng":132.694387},{"code":"382140520","name":"野村町白髭","lat":33.434837,"lng":132.573118},{"code":"382140530","name":"野村町松渓","lat":33.416937,"lng":132.591275},{"code":"382140540","name":"野村町鳥鹿野","lat":33.409,"lng":132.569945},{"code":"382140550","name":"野村町旭","lat":33.39382,"lng":132.589031},{"code":"382140560","name":"野村町長谷","lat":33.380019,"lng":132.570969},{"code":"382140570","name":"野村町四郎谷","lat":33.383392,"lng":132.604124},{"code":"382140580","name":"野村町河西","lat":33.365304,"lng":132.606568},{"code":"382140590","name":"野村町高瀬","lat":33.425457,"lng":132.632358},{"code":"382140600","name":"野村町富野川","lat":33.4168,"lng":132.612205},{"code":"382140610","name":"野村町平野","lat":33.399808,"lng":132.640719},{"code":"382140620","name":"野村町蔵良","lat":33.402069,"lng":132.657318},{"code":"382140630","name":"野村町中通川","lat":33.41639,"lng":132.665284},{"code":"382140640","name":"野村町大西","lat":33.404381,"lng":132.669136},{"code":"382140650","name":"野村町鎌田","lat":33.40595,"lng":132.683797},{"code":"382140660","name":"野村町栗ノ木","lat":33.411812,"lng":132.698903},{"code":"382140670","name":"野村町西","lat":33.419243,"lng":132.68416},{"code":"382140680","name":"野村町予子林","lat":33.432975,"lng":132.726401},{"code":"382140690","name":"野村町坂石","lat":33.409457,"lng":132.71408},{"code":"382140700","name":"野村町舟戸","lat":33.460948,"lng":132.765302},{"code":"382140710","name":"野村町惣川","lat":33.472442,"lng":132.794608},{"code":"382140720","name":"野村町小松","lat":33.493811,"lng":132.831952},{"code":"382140730","name":"野村町大野ケ原","lat":33.484578,"lng":132.878348},{"code":"38214074001","name":"城川町遊子谷","lat":33.434063,"lng":132.760852},{"code":"38214074002","name":"城川町遊子谷","lat":33.431302,"lng":132.772116},{"code":"38214074003","name":"城川町遊子谷","lat":33.422065,"lng":132.768274},{"code":"38214074004","name":"城川町遊子谷","lat":33.415081,"lng":132.762448},{"code":"38214074005","name":"城川町遊子谷","lat":33.43215,"lng":132.745337},{"code":"38214074006","name":"城川町遊子谷","lat":33.415268,"lng":132.740663},{"code":"38214075001","name":"城川町野井川","lat":33.446325,"lng":132.78911},{"code":"38214075002","name":"城川町野井川","lat":33.441116,"lng":132.793737},{"code":"38214075003","name":"城川町野井川","lat":33.439925,"lng":132.808799},{"code":"38214075004","name":"城川町野井川","lat":33.436275,"lng":132.794185},{"code":"38214075005","name":"城川町野井川","lat":33.434123,"lng":132.781048},{"code":"38214076001","name":"城川町土居","lat":33.388594,"lng":132.773594},{"code":"38214076002","name":"城川町土居","lat":33.382506,"lng":132.771541},{"code":"38214076003","name":"城川町土居","lat":33.380782,"lng":132.764014},{"code":"38214076004","name":"城川町土居","lat":33.38525,"lng":132.767174},{"code":"38214076005","name":"城川町土居","lat":33.386635,"lng":132.76321},{"code":"38214076006","name":"城川町土居","lat":33.393974,"lng":132.761676},{"code":"38214076007","name":"城川町土居","lat":33.382381,"lng":132.766443},{"code":"38214077001","name":"城川町古市","lat":33.360568,"lng":132.765041},{"code":"38214077002","name":"城川町古市","lat":33.369185,"lng":132.78085},{"code":"38214077003","name":"城川町古市","lat":33.374288,"lng":132.772738},{"code":"38214077004","name":"城川町古市","lat":33.381904,"lng":132.787902},{"code":"38214078001","name":"城川町窪野","lat":33.41616,"lng":132.78873},{"code":"38214078002","name":"城川町窪野","lat":33.425348,"lng":132.796007},{"code":"38214078003","name":"城川町窪野","lat":33.422812,"lng":132.811997},{"code":"38214078004","name":"城川町窪野","lat":33.41216,"lng":132.815329},{"code":"38214078005","name":"城川町窪野","lat":33.406732,"lng":132.817418},{"code":"38214078006","name":"城川町窪野","lat":33.407154,"lng":132.796876},{"code":"38214078007","name":"城川町窪野","lat":33.403444,"lng":132.791197},{"code":"38214078008","name":"城川町窪野","lat":33.407389,"lng":132.781419},{"code":"38214078009","name":"城川町窪野","lat":33.395947,"lng":132.789486},{"code":"38214078010","name":"城川町窪野","lat":33.395353,"lng":132.772477},{"code":"38214078011","name":"城川町窪野","lat":33.412172,"lng":132.776196},{"code":"38214079001","name":"城川町高野子","lat":33.363829,"lng":132.788187},{"code":"38214079002","name":"城川町高野子","lat":33.374146,"lng":132.802787},{"code":"38214079003","name":"城川町高野子","lat":33.360806,"lng":132.813995},{"code":"38214079004","name":"城川町高野子","lat":33.359086,"lng":132.802996},{"code":"38214079005","name":"城川町高野子","lat":33.350535,"lng":132.794607},{"code":"38214079006","name":"城川町高野子","lat":33.361239,"lng":132.79583},{"code":"38214080001","name":"城川町川津南","lat":33.375328,"lng":132.814452},{"code":"38214080002","name":"城川町川津南","lat":33.379321,"lng":132.821316},{"code":"38214080003","name":"城川町川津南","lat":33.393784,"lng":132.819275},{"code":"38214080004","name":"城川町川津南","lat":33.390248,"lng":132.824402},{"code":"38214080005","name":"城川町川津南","lat":33.387664,"lng":132.840448},{"code":"38214080006","name":"城川町川津南","lat":33.386191,"lng":132.841983},{"code":"38214081001","name":"城川町嘉喜尾","lat":33.386162,"lng":132.739957},{"code":"38214081002","name":"城川町嘉喜尾","lat":33.394629,"lng":132.74789},{"code":"38214081003","name":"城川町嘉喜尾","lat":33.400292,"lng":132.7404},{"code":"38214081004","name":"城川町嘉喜尾","lat":33.405191,"lng":132.737095},{"code":"38214081005","name":"城川町嘉喜尾","lat":33.408759,"lng":132.750633},{"code":"38214082001","name":"城川町魚成","lat":33.35685,"lng":132.702625},{"code":"38214082002","name":"城川町魚成","lat":33.369102,"lng":132.708322},{"code":"38214082003","name":"城川町魚成","lat":33.375892,"lng":132.698844},{"code":"38214082004","name":"城川町魚成","lat":33.377922,"lng":132.707222},{"code":"38214082005","name":"城川町魚成","lat":33.377083,"lng":132.715887},{"code":"38214082006","name":"城川町魚成","lat":33.371528,"lng":132.723501},{"code":"38214082007","name":"城川町魚成","lat":33.386421,"lng":132.716493},{"code":"38214082008","name":"城川町魚成","lat":33.380015,"lng":132.730965},{"code":"38214083001","name":"城川町下相","lat":33.378612,"lng":132.75073},{"code":"38214083002","name":"城川町下相","lat":33.359094,"lng":132.7391},{"code":"38214084001","name":"城川町田穂","lat":33.362046,"lng":132.677209},{"code":"38214084002","name":"城川町田穂","lat":33.372645,"lng":132.690991},{"code":"38214085001","name":"城川町男河内","lat":33.396571,"lng":132.719993},{"code":"38214085002","name":"城川町男河内","lat":33.395586,"lng":132.730048},{"code":"38214086001","name":"三瓶町朝立","lat":33.391857,"lng":132.42269},{"code":"38214086002","name":"三瓶町朝立","lat":33.383327,"lng":132.423929},{"code":"38214086003","name":"三瓶町朝立","lat":33.388766,"lng":132.435248},{"code":"38214086004","name":"三瓶町朝立","lat":33.381245,"lng":132.421019},{"code":"38214086005","name":"三瓶町朝立","lat":33.381056,"lng":132.424096},{"code":"382140870","name":"三瓶町鴫山","lat":33.408362,"lng":132.419789},{"code":"382140880","name":"三瓶町和泉","lat":33.401484,"lng":132.439144},{"code":"38214089001","name":"三瓶町津布理","lat":33.372133,"lng":132.434147},{"code":"38214089002","name":"三瓶町津布理","lat":33.379372,"lng":132.423206},{"code":"382140900","name":"三瓶町安土","lat":33.376118,"lng":132.419195},{"code":"382140910","name":"三瓶町有網代","lat":33.369765,"lng":132.414012},{"code":"382140920","name":"三瓶町有太刀","lat":33.364603,"lng":132.417868},{"code":"382140930","name":"三瓶町蔵貫浦","lat":33.35455,"lng":132.421071},{"code":"382140940","name":"三瓶町蔵貫","lat":33.348201,"lng":132.437485},{"code":"382140950","name":"三瓶町下泊","lat":33.333897,"lng":132.388098},{"code":"382140960","name":"三瓶町皆江","lat":33.335559,"lng":132.411237},{"code":"382140970","name":"三瓶町周木","lat":33.379012,"lng":132.390115},{"code":"382140980","name":"三瓶町二及","lat":33.379204,"lng":132.401889},{"code":"382140990","name":"三瓶町垣生","lat":33.391069,"lng":132.410238},{"code":"382141000","name":"三瓶町長早","lat":33.370611,"lng":132.395406}]}
