{"municipality":"39201","name":"高知市","prefecture":"高知県","source":{"dataset":"frogcat/japan-small-area","census":"平成27年国勢調査 小地域（e-Stat 統計LOD）","license":"MIT（リポジトリ）／政府統計の総合窓口(e-Stat)の利用規約（元データ・出典表記必要）","fetched":"2026-07-06"},"towns":[{"code":"39201001001","name":"上町１丁目","lat":33.55643,"lng":133.526204},{"code":"39201001002","name":"上町２丁目","lat":33.556301,"lng":133.524041},{"code":"39201001003","name":"上町３丁目","lat":33.556391,"lng":133.521939},{"code":"39201001004","name":"上町４丁目","lat":33.556352,"lng":133.519766},{"code":"39201001005","name":"上町５丁目","lat":33.556578,"lng":133.517742},{"code":"392010020","name":"本丁筋","lat":33.55728,"lng":133.51632},{"code":"392010030","name":"水通町","lat":33.556624,"lng":133.516494},{"code":"392010040","name":"通町","lat":33.555927,"lng":133.516698},{"code":"392010050","name":"唐人町","lat":33.556131,"lng":133.541141},{"code":"392010060","name":"与力町","lat":33.55706,"lng":133.538656},{"code":"39201007001","name":"鷹匠町１丁目","lat":33.556077,"lng":133.534896},{"code":"39201007002","name":"鷹匠町２丁目","lat":33.555337,"lng":133.530733},{"code":"39201008001","name":"本町１丁目","lat":33.559003,"lng":133.539188},{"code":"39201008002","name":"本町２丁目","lat":33.558623,"lng":133.537454},{"code":"39201008003","name":"本町３丁目","lat":33.558137,"lng":133.535508},{"code":"39201008004","name":"本町４丁目","lat":33.557912,"lng":133.533314},{"code":"39201008005","name":"本町５丁目","lat":33.557918,"lng":133.530795},{"code":"392010090","name":"升形","lat":33.556869,"lng":133.52835},{"code":"39201010001","name":"帯屋町１丁目","lat":33.560591,"lng":133.540217},{"code":"39201010002","name":"帯屋町２丁目","lat":33.560005,"lng":133.535848},{"code":"39201011001","name":"追手筋１丁目","lat":33.561852,"lng":133.540122},{"code":"39201011002","name":"追手筋２丁目","lat":33.56161,"lng":133.535812},{"code":"392010120","name":"廿代町","lat":33.563353,"lng":133.539516},{"code":"392010130","name":"永国寺町","lat":33.563798,"lng":133.535169},{"code":"39201014001","name":"丸ノ内１丁目","lat":33.560761,"lng":133.53022},{"code":"39201014002","name":"丸ノ内２丁目","lat":33.56327,"lng":133.531954},{"code":"392010150","name":"中の島","lat":33.554661,"lng":133.555451},{"code":"392010160","name":"九反田","lat":33.556641,"lng":133.549523},{"code":"392010170","name":"菜園場町","lat":33.559515,"lng":133.548429},{"code":"392010180","name":"農人町","lat":33.557852,"lng":133.550767},{"code":"392010190","name":"城見町","lat":33.559077,"lng":133.550894},{"code":"392010200","name":"堺町","lat":33.558369,"lng":133.541106},{"code":"39201021001","name":"南はりまや町１丁目","lat":33.558287,"lng":133.543294},{"code":"39201021002","name":"南はりまや町２丁目","lat":33.558012,"lng":133.54561},{"code":"392010220","name":"弘化台","lat":33.54721,"lng":133.565109},{"code":"39201023001","name":"桜井町１丁目","lat":33.562094,"lng":133.548843},{"code":"39201023002","name":"桜井町２丁目","lat":33.561668,"lng":133.551612},{"code":"39201024001","name":"はりまや町１丁目","lat":33.559988,"lng":133.54442},{"code":"39201024002","name":"はりまや町２丁目","lat":33.561382,"lng":133.545036},{"code":"39201024003","name":"はりまや町３丁目","lat":33.562967,"lng":133.545008},{"code":"392010250","name":"宝永町","lat":33.561342,"lng":133.554004},{"code":"392010260","name":"弥生町","lat":33.561743,"lng":133.557999},{"code":"392010270","name":"丸池町","lat":33.561238,"lng":133.563376},{"code":"392010280","name":"小倉町","lat":33.559784,"lng":133.56712},{"code":"392010290","name":"東雲町","lat":33.559255,"lng":133.562478},{"code":"392010300","name":"日の出町","lat":33.560121,"lng":133.557515},{"code":"39201031001","name":"知寄町１丁目","lat":33.558682,"lng":133.556731},{"code":"39201031002","name":"知寄町２丁目","lat":33.558103,"lng":133.560048},{"code":"39201031003","name":"知寄町３丁目","lat":33.557365,"lng":133.564306},{"code":"392010320","name":"青柳町","lat":33.55509,"lng":133.56526},{"code":"392010330","name":"稲荷町","lat":33.556053,"lng":133.560633},{"code":"392010340","name":"若松町","lat":33.553199,"lng":133.562476},{"code":"392010350","name":"高そね","lat":33.5728,"lng":133.55617},{"code":"392010360","name":"杉井流","lat":33.569133,"lng":133.556257},{"code":"392010370","name":"北金田","lat":33.566539,"lng":133.556613},{"code":"392010380","name":"南金田","lat":33.5641,"lng":133.557056},{"code":"392010390","name":"札場","lat":33.563767,"lng":133.561712},{"code":"392010400","name":"南御座","lat":33.566378,"lng":133.561302},{"code":"392010410","name":"北御座","lat":33.569057,"lng":133.561144},{"code":"392010420","name":"南川添","lat":33.571523,"lng":133.560871},{"code":"392010430","name":"北川添","lat":33.574105,"lng":133.560758},{"code":"392010440","name":"北久保","lat":33.570708,"lng":133.565465},{"code":"392010450","name":"南久保","lat":33.566584,"lng":133.566494},{"code":"392010460","name":"海老ノ丸","lat":33.563488,"lng":133.566814},{"code":"392010470","name":"中宝永町","lat":33.55893,"lng":133.55361},{"code":"392010480","name":"南宝永町","lat":33.557108,"lng":133.553452},{"code":"392010490","name":"二葉町","lat":33.556709,"lng":133.556248},{"code":"392010500","name":"入明町","lat":33.566292,"lng":133.53123},{"code":"392010510","name":"洞ケ島町","lat":33.566535,"lng":133.533279},{"code":"392010520","name":"寿町","lat":33.56651,"lng":133.535077},{"code":"392010530","name":"中水道","lat":33.568217,"lng":133.534429},{"code":"392010540","name":"幸町","lat":33.568361,"lng":133.530854},{"code":"392010550","name":"伊勢崎町","lat":33.570421,"lng":133.530397},{"code":"392010560","name":"相模町","lat":33.569957,"lng":133.534105},{"code":"392010570","name":"吉田町","lat":33.571776,"lng":133.533923},{"code":"39201058001","name":"愛宕町１丁目","lat":33.566232,"lng":133.537132},{"code":"39201058002","name":"愛宕町２丁目","lat":33.568122,"lng":133.537783},{"code":"39201058003","name":"愛宕町３丁目","lat":33.571211,"lng":133.537128},{"code":"39201058004","name":"愛宕町４丁目","lat":33.574031,"lng":133.536883},{"code":"39201059001","name":"大川筋１丁目","lat":33.564568,"lng":133.53981},{"code":"39201059002","name":"大川筋２丁目","lat":33.565015,"lng":133.533653},{"code":"392010600","name":"駅前町","lat":33.564953,"lng":133.54355},{"code":"392010610","name":"相生町","lat":33.564615,"lng":133.545837},{"code":"392010620","name":"江陽町","lat":33.568245,"lng":133.552932},{"code":"39201063001","name":"北本町１丁目","lat":33.56595,"lng":133.540444},{"code":"39201063002","name":"北本町２丁目","lat":33.566235,"lng":133.545332},{"code":"39201063003","name":"北本町３丁目","lat":33.565268,"lng":133.549631},{"code":"39201063004","name":"北本町４丁目","lat":33.564838,"lng":133.553294},{"code":"39201064001","name":"栄田町１丁目","lat":33.567497,"lng":133.541172},{"code":"39201064002","name":"栄田町２丁目","lat":33.56753,"lng":133.543913},{"code":"39201064003","name":"栄田町３丁目","lat":33.567441,"lng":133.546898},{"code":"39201065001","name":"新本町１丁目","lat":33.568723,"lng":133.541042},{"code":"39201065002","name":"新本町２丁目","lat":33.569107,"lng":133.546224},{"code":"392010660","name":"昭和町","lat":33.570091,"lng":133.541207},{"code":"392010670","name":"和泉町","lat":33.571637,"lng":133.541214},{"code":"392010680","name":"塩田町","lat":33.571889,"lng":133.545646},{"code":"39201069001","name":"比島町１丁目","lat":33.568099,"lng":133.549881},{"code":"39201069002","name":"比島町２丁目","lat":33.571409,"lng":133.55178},{"code":"39201069003","name":"比島町３丁目","lat":33.571411,"lng":133.549041},{"code":"39201069004","name":"比島町４丁目","lat":33.573438,"lng":133.549521},{"code":"392010700","name":"井口町","lat":33.558673,"lng":133.516144},{"code":"392010710","name":"平和町","lat":33.561142,"lng":133.51518},{"code":"392010720","name":"三ノ丸","lat":33.563269,"lng":133.517357},{"code":"392010730","name":"宮前町","lat":33.560229,"lng":133.517886},{"code":"392010740","name":"西町","lat":33.559113,"lng":133.52059},{"code":"392010751","name":"大膳町","lat":33.560012,"lng":133.523877},{"code":"392010752","name":"大膳町","lat":33.559961,"lng":133.522656},{"code":"392010760","name":"山ノ端町","lat":33.561438,"lng":133.520211},{"code":"392010770","name":"桜馬場","lat":33.562339,"lng":133.526276},{"code":"392010780","name":"城北町","lat":33.565216,"lng":133.526182},{"code":"392010790","name":"北八反町","lat":33.569314,"lng":133.523162},{"code":"392010800","name":"宝町","lat":33.568756,"lng":133.527843},{"code":"392010810","name":"小津町","lat":33.564862,"lng":133.528752},{"code":"39201082001","name":"越前町１丁目","lat":33.560012,"lng":133.525688},{"code":"39201082002","name":"越前町２丁目","lat":33.562277,"lng":133.524239},{"code":"39201083001","name":"新屋敷１丁目","lat":33.564857,"lng":133.523528},{"code":"39201083002","name":"新屋敷２丁目","lat":33.564397,"lng":133.520364},{"code":"39201084001","name":"八反町１丁目","lat":33.568207,"lng":133.525258},{"code":"39201084002","name":"八反町２丁目","lat":33.567402,"lng":133.522655},{"code":"392010850","name":"東城山町","lat":33.549662,"lng":133.518283},{"code":"392010860","name":"城山町","lat":33.550413,"lng":133.513233},{"code":"392010870","name":"東石立町","lat":33.552981,"lng":133.522265},{"code":"392010880","name":"石立町","lat":33.553157,"lng":133.515325},{"code":"392010890","name":"玉水町","lat":33.555679,"lng":133.515397},{"code":"392010900","name":"縄手町","lat":33.554194,"lng":133.511576},{"code":"392010910","name":"鏡川町","lat":33.553545,"lng":133.50695},{"code":"392010920","name":"下島町","lat":33.554641,"lng":133.506222},{"code":"39201093001","name":"旭町１丁目","lat":33.556577,"lng":133.513996},{"code":"39201093002","name":"旭町２丁目","lat":33.555684,"lng":133.510702},{"code":"39201093003","name":"旭町３丁目","lat":33.555741,"lng":133.505797},{"code":"392010940","name":"赤石町","lat":33.557191,"lng":133.510931},{"code":"392010950","name":"中須賀町","lat":33.558547,"lng":133.511662},{"code":"392010960","name":"旭駅前町","lat":33.557612,"lng":133.508806},{"code":"392010970","name":"元町","lat":33.557838,"lng":133.506954},{"code":"392010980","name":"南元町","lat":33.556809,"lng":133.507056},{"code":"392010990","name":"旭上町","lat":33.556659,"lng":133.504048},{"code":"392011000","name":"水源町","lat":33.556978,"lng":133.502985},{"code":"392011010","name":"本宮町","lat":33.556197,"lng":133.499269},{"code":"392011020","name":"上本宮町","lat":33.555311,"lng":133.493386},{"code":"392011030","name":"大谷","lat":33.558724,"lng":133.493527},{"code":"392011040","name":"岩ケ淵","lat":33.559318,"lng":133.487199},{"code":"392011050","name":"鳥越","lat":33.562462,"lng":133.488795},{"code":"392011060","name":"塚ノ原","lat":33.562608,"lng":133.495608},{"code":"392011070","name":"西塚ノ原","lat":33.564845,"lng":133.491417},{"code":"392011080","name":"長尾山町","lat":33.559059,"lng":133.499779},{"code":"392011090","name":"旭天神町","lat":33.560249,"lng":133.504909},{"code":"392011100","name":"佐々木町","lat":33.561822,"lng":133.501353},{"code":"392011110","name":"北端町","lat":33.560379,"lng":133.509366},{"code":"392011120","name":"山手町","lat":33.561153,"lng":133.513654},{"code":"392011130","name":"横内","lat":33.565639,"lng":133.498509},{"code":"392011140","name":"口細山","lat":33.569885,"lng":133.491123},{"code":"392011150","name":"尾立","lat":33.573659,"lng":133.484491},{"code":"392011160","name":"蓮台","lat":33.584853,"lng":133.491966},{"code":"392011170","name":"福井町","lat":33.571166,"lng":133.503559},{"code":"392011180","name":"福井扇町","lat":33.567968,"lng":133.510571},{"code":"392011190","name":"福井東町","lat":33.565176,"lng":133.514425},{"code":"392011200","name":"土居町","lat":33.554843,"lng":133.545335},{"code":"392011210","name":"役知町","lat":33.554295,"lng":133.548536},{"code":"39201122001","name":"潮新町１丁目","lat":33.551615,"lng":133.548664},{"code":"39201122002","name":"潮新町２丁目","lat":33.549894,"lng":133.551016},{"code":"392011230","name":"仲田町","lat":33.548469,"lng":133.553403},{"code":"392011240","name":"北新田町","lat":33.553045,"lng":133.552471},{"code":"392011250","name":"新田町","lat":33.550707,"lng":133.555876},{"code":"392011260","name":"南新田町","lat":33.547836,"lng":133.55819},{"code":"392011270","name":"梅ノ辻","lat":33.554526,"lng":133.54296},{"code":"39201128001","name":"桟橋通１丁目","lat":33.551801,"lng":133.545685},{"code":"39201128002","name":"桟橋通２丁目","lat":33.548727,"lng":133.546914},{"code":"39201128003","name":"桟橋通３丁目","lat":33.546851,"lng":133.549119},{"code":"39201128004","name":"桟橋通４丁目","lat":33.544068,"lng":133.550932},{"code":"39201128005","name":"桟橋通５丁目","lat":33.53903,"lng":133.550634},{"code":"39201128006","name":"桟橋通６丁目","lat":33.541129,"lng":133.556764},{"code":"392011290","name":"天神町","lat":33.554302,"lng":133.538258},{"code":"392011300","name":"筆山町","lat":33.551807,"lng":133.53641},{"code":"39201131001","name":"塩屋崎町１丁目","lat":33.551882,"lng":133.54143},{"code":"39201131002","name":"塩屋崎町２丁目","lat":33.549335,"lng":133.539241},{"code":"39201132001","name":"百石町１丁目","lat":33.550734,"lng":133.543721},{"code":"39201132002","name":"百石町２丁目","lat":33.547642,"lng":133.543413},{"code":"39201132003","name":"百石町３丁目","lat":33.545255,"lng":133.546497},{"code":"39201132004","name":"百石町４丁目","lat":33.543955,"lng":133.545216},{"code":"392011330","name":"南ノ丸町","lat":33.541742,"lng":133.548264},{"code":"392011340","name":"南竹島町","lat":33.539269,"lng":133.546737},{"code":"392011350","name":"竹島町","lat":33.541588,"lng":133.543461},{"code":"392011361","name":"北竹島町","lat":33.545183,"lng":133.542439},{"code":"392011362","name":"北竹島町","lat":33.544228,"lng":133.540142},{"code":"392011370","name":"北高見町","lat":33.5463,"lng":133.536209},{"code":"392011380","name":"高見町","lat":33.54149,"lng":133.536369},{"code":"392011390","name":"六泉寺町","lat":33.538186,"lng":133.542649},{"code":"392011400","name":"孕東町","lat":33.534444,"lng":133.555908},{"code":"392011410","name":"孕西町","lat":33.534251,"lng":133.546186},{"code":"392011420","name":"深谷町","lat":33.532783,"lng":133.53539},{"code":"392011430","name":"南中山","lat":33.536487,"lng":133.532877},{"code":"392011440","name":"北中山","lat":33.538361,"lng":133.53285},{"code":"392011450","name":"幸崎","lat":33.543636,"lng":133.528657},{"code":"392011460","name":"小石木町","lat":33.548633,"lng":133.529993},{"code":"392011470","name":"大原町","lat":33.55286,"lng":133.530421},{"code":"392011480","name":"河ノ瀬町","lat":33.550044,"lng":133.522714},{"code":"392011490","name":"南河ノ瀬町","lat":33.546704,"lng":133.522835},{"code":"39201150001","name":"萩町１丁目","lat":33.54635,"lng":133.554881},{"code":"39201150002","name":"萩町２丁目","lat":33.544241,"lng":133.557554},{"code":"392011510","name":"池","lat":33.529298,"lng":133.590324},{"code":"39201152101","name":"十津１丁目","lat":33.529614,"lng":133.570296},{"code":"39201152102","name":"十津２丁目","lat":33.523479,"lng":133.570824},{"code":"39201152103","name":"十津３丁目","lat":33.52504,"lng":133.573464},{"code":"39201152104","name":"十津４丁目","lat":33.529196,"lng":133.57572},{"code":"39201152105","name":"十津５丁目","lat":33.525262,"lng":133.57712},{"code":"39201152106","name":"十津６丁目","lat":33.522523,"lng":133.578345},{"code":"39201152200","name":"仁井田（その１）","lat":33.530383,"lng":133.58217},{"code":"39201152201","name":"仁井田（その２）","lat":33.51637,"lng":133.583787},{"code":"392011530","name":"種崎","lat":33.506028,"lng":133.569338},{"code":"392011540","name":"吸江","lat":33.547579,"lng":133.570763},{"code":"392011550","name":"五台山","lat":33.542985,"lng":133.585997},{"code":"392011560","name":"屋頭","lat":33.552395,"lng":133.593123},{"code":"39201157101","name":"高須１丁目","lat":33.55828,"lng":133.583661},{"code":"39201157102","name":"高須２丁目","lat":33.560258,"lng":133.58734},{"code":"39201157103","name":"高須３丁目","lat":33.56213,"lng":133.59065},{"code":"392011572","name":"高須","lat":33.560163,"lng":133.580109},{"code":"39201158001","name":"葛島１丁目","lat":33.558867,"lng":133.571284},{"code":"39201158002","name":"葛島２丁目","lat":33.55724,"lng":133.572599},{"code":"39201158003","name":"葛島３丁目","lat":33.554304,"lng":133.569142},{"code":"39201158004","name":"葛島４丁目","lat":33.554359,"lng":133.573227},{"code":"39201159001","name":"高須新町１丁目","lat":33.557868,"lng":133.576547},{"code":"39201159002","name":"高須新町２丁目","lat":33.558045,"lng":133.579186},{"code":"39201159003","name":"高須新町３丁目","lat":33.55485,"lng":133.576463},{"code":"39201159004","name":"高須新町４丁目","lat":33.55542,"lng":133.579048},{"code":"392011600","name":"布師田","lat":33.581214,"lng":133.590149},{"code":"39201161101","name":"一宮しなね１丁目","lat":33.591584,"lng":133.574237},{"code":"39201161102","name":"一宮しなね２丁目","lat":33.592127,"lng":133.577535},{"code":"39201161201","name":"一宮東町１丁目","lat":33.582774,"lng":133.576979},{"code":"39201161202","name":"一宮東町２丁目","lat":33.586958,"lng":133.580283},{"code":"39201161203","name":"一宮東町３丁目","lat":33.588728,"lng":133.581865},{"code":"39201161204","name":"一宮東町４丁目","lat":33.589935,"lng":133.582974},{"code":"39201161205","name":"一宮東町５丁目","lat":33.591837,"lng":133.580621},{"code":"392011613","name":"一宮徳谷","lat":33.582836,"lng":133.582482},{"code":"39201161401","name":"一宮中町１丁目","lat":33.583049,"lng":133.570544},{"code":"39201161402","name":"一宮中町２丁目","lat":33.58252,"lng":133.573533},{"code":"39201161403","name":"一宮中町３丁目","lat":33.586607,"lng":133.575117},{"code":"39201161501","name":"一宮南町１丁目","lat":33.578099,"lng":133.56572},{"code":"39201161502","name":"一宮南町２丁目","lat":33.579317,"lng":133.571747},{"code":"39201161601","name":"一宮西町１丁目","lat":33.5852,"lng":133.564826},{"code":"39201161602","name":"一宮西町２丁目","lat":33.587477,"lng":133.567952},{"code":"39201161603","name":"一宮西町３丁目","lat":33.586845,"lng":133.571031},{"code":"39201161604","name":"一宮西町４丁目","lat":33.590236,"lng":133.570535},{"code":"392011617","name":"一宮","lat":33.596761,"lng":133.573835},{"code":"39201162101","name":"薊野西町１丁目","lat":33.576293,"lng":133.549642},{"code":"39201162102","name":"薊野西町２丁目","lat":33.57547,"lng":133.553992},{"code":"39201162103","name":"薊野西町３丁目","lat":33.577554,"lng":133.553739},{"code":"39201162201","name":"薊野北町１丁目","lat":33.579909,"lng":133.550901},{"code":"39201162202","name":"薊野北町２丁目","lat":33.581401,"lng":133.555702},{"code":"39201162203","name":"薊野北町３丁目","lat":33.583505,"lng":133.552624},{"code":"39201162204","name":"薊野北町４丁目","lat":33.584793,"lng":133.558667},{"code":"392011623","name":"薊野東町","lat":33.582353,"lng":133.562913},{"code":"392011624","name":"薊野中町","lat":33.579761,"lng":133.559081},{"code":"392011625","name":"薊野南町","lat":33.576847,"lng":133.56075},{"code":"392011626","name":"薊野","lat":33.59342,"lng":133.554171},{"code":"392011630","name":"重倉","lat":33.612798,"lng":133.552962},{"code":"392011640","name":"久礼野","lat":33.61843,"lng":133.565576},{"code":"392011650","name":"愛宕山","lat":33.576783,"lng":133.537711},{"code":"392011660","name":"前里","lat":33.57898,"lng":133.540154},{"code":"392011670","name":"東秦泉寺","lat":33.584684,"lng":133.546031},{"code":"392011680","name":"中秦泉寺","lat":33.589414,"lng":133.532712},{"code":"392011690","name":"三園町","lat":33.574288,"lng":133.533845},{"code":"392011700","name":"西秦泉寺","lat":33.578184,"lng":133.532509},{"code":"392011710","name":"北秦泉寺","lat":33.589228,"lng":133.539727},{"code":"392011720","name":"宇津野","lat":33.587198,"lng":133.52505},{"code":"392011730","name":"三谷","lat":33.598387,"lng":133.526395},{"code":"392011740","name":"七ツ淵","lat":33.605926,"lng":133.539672},{"code":"39201175001","name":"加賀野井１丁目","lat":33.579734,"lng":133.528388},{"code":"39201175002","name":"加賀野井２丁目","lat":33.580004,"lng":133.525486},{"code":"392011760","name":"愛宕山南町","lat":33.573506,"lng":133.540142},{"code":"39201177001","name":"秦南町１丁目","lat":33.575528,"lng":133.543447},{"code":"39201177002","name":"秦南町２丁目","lat":33.575895,"lng":133.546877},{"code":"392011780","name":"東久万","lat":33.575926,"lng":133.528608},{"code":"392011790","name":"中久万","lat":33.571891,"lng":133.525546},{"code":"392011800","name":"西久万","lat":33.576854,"lng":133.521152},{"code":"392011810","name":"南久万","lat":33.571969,"lng":133.520861},{"code":"392011820","name":"万々","lat":33.575294,"lng":133.512751},{"code":"392011830","name":"中万々","lat":33.57043,"lng":133.516191},{"code":"392011840","name":"南万々","lat":33.567104,"lng":133.518589},{"code":"392011850","name":"柴巻","lat":33.596554,"lng":133.493006},{"code":"392011860","name":"円行寺","lat":33.590511,"lng":133.508269},{"code":"39201187001","name":"一ツ橋町１丁目","lat":33.573795,"lng":133.531674},{"code":"39201187002","name":"一ツ橋町２丁目","lat":33.572929,"lng":133.529384},{"code":"392011881","name":"朝倉横町","lat":33.545417,"lng":133.493253},{"code":"392011882","name":"朝倉南町","lat":33.542478,"lng":133.493771},{"code":"392011884","name":"朝倉東町","lat":33.54507,"lng":133.497665},{"code":"392011885","name":"朝倉甲","lat":33.540823,"lng":133.497559},{"code":"392011890","name":"朝倉乙","lat":33.550521,"lng":133.484473},{"code":"392011900","name":"朝倉丙","lat":33.55481,"lng":133.47801},{"code":"392011911","name":"針木西","lat":33.530805,"lng":133.46268},{"code":"392011912","name":"朝倉丁","lat":33.545671,"lng":133.478922},{"code":"392011921","name":"槇山町","lat":33.538106,"lng":133.484622},{"code":"392011922","name":"針木東町","lat":33.533555,"lng":133.476599},{"code":"392011923","name":"大谷公園町","lat":33.535643,"lng":133.48065},{"code":"39201192501","name":"朝倉西町１丁目","lat":33.542114,"lng":133.483102},{"code":"39201192502","name":"朝倉西町２丁目","lat":33.539476,"lng":133.478494},{"code":"39201192601","name":"針木北１丁目","lat":33.540821,"lng":133.472566},{"code":"39201192602","name":"針木北２丁目","lat":33.539533,"lng":133.467193},{"code":"392011927","name":"針木本町","lat":33.535286,"lng":133.473237},{"code":"392011928","name":"針木南","lat":33.528593,"lng":133.469517},{"code":"392011929","name":"朝倉戊","lat":33.531736,"lng":133.479864},{"code":"392011930","name":"朝倉己","lat":33.531252,"lng":133.487937},{"code":"392011940","name":"宗安寺","lat":33.571371,"lng":133.472497},{"code":"392011950","name":"行川","lat":33.583683,"lng":133.461039},{"code":"392011960","name":"針原","lat":33.595543,"lng":133.46575},{"code":"392011970","name":"上里","lat":33.596343,"lng":133.444988},{"code":"392011980","name":"領家","lat":33.582601,"lng":133.438048},{"code":"392011990","name":"唐岩","lat":33.576927,"lng":133.444373},{"code":"39201200001","name":"曙町１丁目","lat":33.550839,"lng":133.492578},{"code":"39201200002","name":"曙町２丁目","lat":33.549304,"lng":133.486552},{"code":"39201201001","name":"朝倉本町１丁目","lat":33.548144,"lng":133.491626},{"code":"39201201002","name":"朝倉本町２丁目","lat":33.546315,"lng":133.487299},{"code":"392012020","name":"若草町","lat":33.543533,"lng":133.488185},{"code":"392012030","name":"若草南町","lat":33.540996,"lng":133.489418},{"code":"392012040","name":"鵜来巣","lat":33.540808,"lng":133.485326},{"code":"392012051","name":"鴨部上町","lat":33.550903,"lng":133.498241},{"code":"39201205201","name":"鴨部１丁目","lat":33.552056,"lng":133.504521},{"code":"39201205202","name":"鴨部２丁目","lat":33.549349,"lng":133.502728},{"code":"39201205203","name":"鴨部３丁目","lat":33.547731,"lng":133.499504},{"code":"392012053","name":"鴨部","lat":33.546475,"lng":133.506278},{"code":"39201206000","name":"神田（その１）","lat":33.534187,"lng":133.512393},{"code":"39201206001","name":"神田（その２）","lat":33.54507,"lng":133.512368},{"code":"392012070","name":"鴨部高町","lat":33.552046,"lng":133.496515},{"code":"39201208000","name":"長浜（その１）","lat":33.493741,"lng":133.545064},{"code":"39201208001","name":"長浜（その２）","lat":33.505797,"lng":133.538761},{"code":"392012090","name":"横浜","lat":33.526259,"lng":133.54062},{"code":"39201210101","name":"瀬戸１丁目","lat":33.513053,"lng":133.54528},{"code":"39201210102","name":"瀬戸２丁目","lat":33.506338,"lng":133.54568},{"code":"392012102","name":"瀬戸","lat":33.504889,"lng":133.544462},{"code":"39201211001","name":"瀬戸西町１丁目","lat":33.515257,"lng":133.542147},{"code":"39201211002","name":"瀬戸西町２丁目","lat":33.512979,"lng":133.543533},{"code":"39201211003","name":"瀬戸西町３丁目","lat":33.510706,"lng":133.542414},{"code":"39201212001","name":"瀬戸東町１丁目","lat":33.515639,"lng":133.547567},{"code":"39201212002","name":"瀬戸東町２丁目","lat":33.5129,"lng":133.54785},{"code":"39201212003","name":"瀬戸東町３丁目","lat":33.509968,"lng":133.547937},{"code":"392012130","name":"長浜宮田","lat":33.504263,"lng":133.531511},{"code":"39201214001","name":"横浜新町１丁目","lat":33.521729,"lng":133.534105},{"code":"39201214002","name":"横浜新町２丁目","lat":33.519655,"lng":133.532074},{"code":"39201214003","name":"横浜新町３丁目","lat":33.516088,"lng":133.533561},{"code":"39201214004","name":"横浜新町４丁目","lat":33.517599,"lng":133.536478},{"code":"39201214005","name":"横浜新町５丁目","lat":33.515049,"lng":133.5384},{"code":"392012150","name":"御畳瀬","lat":33.504952,"lng":133.557109},{"code":"392012160","name":"浦戸","lat":33.496442,"lng":133.56619},{"code":"392012170","name":"大津甲","lat":33.574618,"lng":133.613335},{"code":"392012180","name":"大津乙","lat":33.570433,"lng":133.594219},{"code":"392012190","name":"介良甲","lat":33.56602,"lng":133.619925},{"code":"392012200","name":"介良乙","lat":33.559401,"lng":133.605694},{"code":"392012210","name":"介良丙","lat":33.550005,"lng":133.607135},{"code":"392012220","name":"介良","lat":33.56381,"lng":133.614186},{"code":"39201223001","name":"潮見台１丁目","lat":33.56077,"lng":133.621656},{"code":"39201223002","name":"潮見台２丁目","lat":33.559311,"lng":133.617968},{"code":"39201223003","name":"潮見台３丁目","lat":33.555935,"lng":133.618397},{"code":"39201225001","name":"瀬戸南町１丁目","lat":33.508038,"lng":133.541279},{"code":"39201225002","name":"瀬戸南町２丁目","lat":33.505387,"lng":133.542978},{"code":"392012260","name":"横浜東町","lat":33.520369,"lng":133.547558},{"code":"392012270","name":"横浜西町","lat":33.518399,"lng":133.542208},{"code":"39201228001","name":"みづき１丁目","lat":33.581471,"lng":133.516308},{"code":"39201228002","name":"みづき２丁目","lat":33.58097,"lng":133.521259},{"code":"39201228003","name":"みづき３丁目","lat":33.583485,"lng":133.518437},{"code":"392012290","name":"みづき山","lat":33.592104,"lng":133.517901},{"code":"392012300","name":"横浜南町","lat":33.51218,"lng":133.539597},{"code":"39201231001","name":"長浜蒔絵台１丁目","lat":33.515352,"lng":133.526232},{"code":"39201231002","name":"長浜蒔絵台２丁目","lat":33.513072,"lng":133.527011},{"code":"392012320","name":"高須本町","lat":33.560143,"lng":133.57977},{"code":"392012330","name":"高須新木","lat":33.563054,"lng":133.586854},{"code":"392012350","name":"高須東町","lat":33.558207,"lng":133.594048},{"code":"392012360","name":"高須西町","lat":33.55167,"lng":133.569843},{"code":"392012370","name":"高須絶海","lat":33.551081,"lng":133.572567},{"code":"392012380","name":"高須大谷","lat":33.552394,"lng":133.577635},{"code":"392012390","name":"高須大島","lat":33.552896,"lng":133.58204},{"code":"392012400","name":"高須砂地","lat":33.568221,"lng":133.57294},{"code":"392012410","name":"鏡柿ノ又","lat":33.645296,"lng":133.413999},{"code":"392012420","name":"鏡敷ノ山","lat":33.633518,"lng":133.411763},{"code":"392012430","name":"鏡横矢","lat":33.617679,"lng":133.419153},{"code":"392012440","name":"鏡吉原","lat":33.6518,"lng":133.439147},{"code":"392012450","name":"鏡狩山","lat":33.639975,"lng":133.452104},{"code":"392012460","name":"鏡今井","lat":33.631,"lng":133.46745},{"code":"392012470","name":"鏡的渕","lat":33.616365,"lng":133.443282},{"code":"392012480","name":"鏡竹奈路","lat":33.61896,"lng":133.429622},{"code":"392012490","name":"鏡白岩","lat":33.621893,"lng":133.452252},{"code":"392012500","name":"鏡草峰","lat":33.61125,"lng":133.457147},{"code":"392012510","name":"鏡大利","lat":33.609274,"lng":133.484349},{"code":"392012520","name":"鏡小浜","lat":33.595636,"lng":133.475206},{"code":"392012530","name":"鏡大河内","lat":33.585221,"lng":133.478839},{"code":"392012540","name":"鏡去坂","lat":33.600084,"lng":133.453716},{"code":"392012550","name":"鏡増原","lat":33.601961,"lng":133.426199},{"code":"392012560","name":"鏡葛山","lat":33.596731,"lng":133.433727},{"code":"392012570","name":"鏡梅ノ木","lat":33.5946,"lng":133.417723},{"code":"392012580","name":"鏡小山","lat":33.582964,"lng":133.42131},{"code":"392012590","name":"土佐山中切","lat":33.647873,"lng":133.477643},{"code":"392012600","name":"土佐山東川","lat":33.651994,"lng":133.492892},{"code":"392012610","name":"土佐山高川","lat":33.660061,"lng":133.522811},{"code":"392012620","name":"土佐山梶谷","lat":33.644116,"lng":133.543091},{"code":"392012630","name":"土佐山西川","lat":33.651425,"lng":133.557025},{"code":"392012640","name":"土佐山菖蒲","lat":33.642958,"lng":133.57165},{"code":"392012650","name":"土佐山","lat":33.626137,"lng":133.533941},{"code":"392012660","name":"土佐山桑尾","lat":33.63844,"lng":133.510941},{"code":"392012670","name":"土佐山弘瀬","lat":33.616959,"lng":133.501703},{"code":"392012680","name":"土佐山都網","lat":33.613418,"lng":133.52089},{"code":"392012690","name":"春野町弘岡上","lat":33.506179,"lng":133.450359},{"code":"392012700","name":"春野町弘岡中","lat":33.511955,"lng":133.465224},{"code":"392012710","name":"春野町弘岡下","lat":33.508778,"lng":133.479075},{"code":"392012720","name":"春野町森山","lat":33.490216,"lng":133.470896},{"code":"392012730","name":"春野町仁ノ","lat":33.472801,"lng":133.49021},{"code":"392012740","name":"春野町西畑","lat":33.475113,"lng":133.472031},{"code":"392012750","name":"春野町西分","lat":33.510921,"lng":133.49524},{"code":"392012760","name":"春野町芳原","lat":33.51093,"lng":133.510009},{"code":"392012770","name":"春野町秋山","lat":33.487526,"lng":133.496439},{"code":"392012780","name":"春野町甲殿","lat":33.478026,"lng":133.510581},{"code":"392012790","name":"春野町東諸木","lat":33.489937,"lng":133.524049},{"code":"392012800","name":"春野町西諸木","lat":33.49197,"lng":133.509265},{"code":"39201281101","name":"春野町南ヶ丘１丁目","lat":33.515511,"lng":133.519517},{"code":"39201281102","name":"春野町南ヶ丘２丁目","lat":33.51587,"lng":133.517898},{"code":"39201281103","name":"春野町南ヶ丘３丁目","lat":33.515236,"lng":133.516429},{"code":"39201281104","name":"春野町南ヶ丘４丁目","lat":33.517901,"lng":133.515263},{"code":"39201281105","name":"春野町南ヶ丘５丁目","lat":33.51795,"lng":133.51772},{"code":"39201281106","name":"春野町南ヶ丘６丁目","lat":33.51839,"lng":133.519752},{"code":"39201281107","name":"春野町南ヶ丘７丁目","lat":33.518616,"lng":133.52211},{"code":"39201281108","name":"春野町南ヶ丘８丁目","lat":33.519759,"lng":133.519325},{"code":"39201281109","name":"春野町南ヶ丘９丁目","lat":33.520717,"lng":133.521854},{"code":"392012812","name":"春野町内ノ谷","lat":33.514392,"lng":133.52184},{"code":"392012820","name":"春野町平和","lat":33.501768,"lng":133.518}]}
