{"municipality":"39208","name":"宿毛市","prefecture":"高知県","source":{"dataset":"frogcat/japan-small-area","census":"平成27年国勢調査 小地域（e-Stat 統計LOD）","license":"MIT（リポジトリ）／政府統計の総合窓口(e-Stat)の利用規約（元データ・出典表記必要）","fetched":"2026-07-06"},"towns":[{"code":"392080010","name":"桜町","lat":32.940294,"lng":132.726955},{"code":"392080020","name":"与市明","lat":32.941947,"lng":132.719841},{"code":"392080030","name":"萩原","lat":32.939706,"lng":132.723649},{"code":"392080040","name":"長田町","lat":32.9369,"lng":132.720905},{"code":"392080050","name":"幸町","lat":32.935036,"lng":132.722442},{"code":"392080060","name":"松田町","lat":32.944194,"lng":132.729191},{"code":"392080070","name":"高砂","lat":32.927636,"lng":132.703507},{"code":"392080080","name":"片島","lat":32.922996,"lng":132.698382},{"code":"392080090","name":"大島","lat":32.915373,"lng":132.687444},{"code":"39208010001","name":"西町１丁目","lat":32.92994,"lng":132.687298},{"code":"39208010002","name":"西町２丁目","lat":32.927368,"lng":132.688038},{"code":"39208010003","name":"西町３丁目","lat":32.926916,"lng":132.68465},{"code":"39208010004","name":"西町４丁目","lat":32.928457,"lng":132.684483},{"code":"39208010005","name":"西町５丁目","lat":32.931047,"lng":132.686009},{"code":"39208011101","name":"中央１丁目","lat":32.937626,"lng":132.725746},{"code":"39208011102","name":"中央２丁目","lat":32.939516,"lng":132.730227},{"code":"39208011103","name":"中央３丁目","lat":32.937177,"lng":132.731817},{"code":"39208011104","name":"中央４丁目","lat":32.937238,"lng":132.730043},{"code":"39208011105","name":"中央５丁目","lat":32.936565,"lng":132.728964},{"code":"39208011106","name":"中央６丁目","lat":32.936282,"lng":132.727565},{"code":"39208011107","name":"中央７丁目","lat":32.93587,"lng":132.725708},{"code":"39208011108","name":"中央８丁目","lat":32.933399,"lng":132.728926},{"code":"392080113","name":"南沖須賀","lat":32.933906,"lng":132.726796},{"code":"39208011401","name":"駅前町１丁目","lat":32.932915,"lng":132.71335},{"code":"39208011402","name":"駅前町２丁目","lat":32.930849,"lng":132.714424},{"code":"39208011509","name":"宿毛新田","lat":32.930744,"lng":132.714255},{"code":"39208011510","name":"宿毛","lat":32.942501,"lng":132.715823},{"code":"39208011511","name":"宿毛金比羅山","lat":32.945166,"lng":132.724837},{"code":"392080120","name":"市島","lat":32.920941,"lng":132.704098},{"code":"392080130","name":"藻津","lat":32.934518,"lng":132.662942},{"code":"392080140","name":"宇須々木","lat":32.92881,"lng":132.669144},{"code":"39208015101","name":"港南台１丁目","lat":32.929929,"lng":132.68274},{"code":"39208015102","name":"港南台２丁目","lat":32.929412,"lng":132.681334},{"code":"392080152","name":"樺","lat":32.933676,"lng":132.677665},{"code":"392080160","name":"池島","lat":32.923382,"lng":132.686446},{"code":"392080171","name":"自由ケ丘","lat":32.932559,"lng":132.690756},{"code":"392080172","name":"大深浦","lat":32.937827,"lng":132.687667},{"code":"392080180","name":"山北","lat":33.007908,"lng":132.689193},{"code":"39208019001","name":"二ノ宮高石","lat":32.969218,"lng":132.716964},{"code":"39208019002","name":"二ノ宮平井","lat":32.950382,"lng":132.732993},{"code":"39208019003","name":"二ノ宮二宮","lat":32.966649,"lng":132.73328},{"code":"392080200","name":"野地","lat":32.96081,"lng":132.703689},{"code":"392080210","name":"草木藪","lat":32.957506,"lng":132.687464},{"code":"392080221","name":"西片島","lat":32.929449,"lng":132.699074},{"code":"392080222","name":"小深浦","lat":32.942616,"lng":132.694851},{"code":"39208023101","name":"四季の丘１丁目","lat":32.935416,"lng":132.710904},{"code":"39208023102","name":"四季の丘２丁目","lat":32.935381,"lng":132.709444},{"code":"392080232","name":"錦","lat":32.938933,"lng":132.703657},{"code":"392080240","name":"中角","lat":32.966389,"lng":132.750013},{"code":"392080250","name":"和田","lat":32.94456,"lng":132.745937},{"code":"392080261","name":"さくらが丘","lat":32.950379,"lng":132.766347},{"code":"392080262","name":"押ノ川","lat":32.948304,"lng":132.763887},{"code":"392080270","name":"坂ノ下","lat":32.927093,"lng":132.727092},{"code":"392080280","name":"橋上町出井","lat":33.078796,"lng":132.681451},{"code":"392080290","name":"橋上町楠山","lat":33.044779,"lng":132.721466},{"code":"392080300","name":"橋上町還住藪","lat":33.015157,"lng":132.709508},{"code":"392080310","name":"橋上町京法","lat":32.992535,"lng":132.726934},{"code":"392080320","name":"橋上町坂本","lat":33.014288,"lng":132.746174},{"code":"392080330","name":"橋上町神有","lat":32.998062,"lng":132.763173},{"code":"392080340","name":"橋上町奥奈路","lat":32.988543,"lng":132.760224},{"code":"392080350","name":"橋上町橋上","lat":32.97665,"lng":132.768022},{"code":"392080360","name":"橋上町平野","lat":32.972065,"lng":132.756895},{"code":"392080370","name":"山奈町山田","lat":33.009107,"lng":132.79602},{"code":"392080380","name":"山奈町芳奈","lat":32.976397,"lng":132.791113},{"code":"392080390","name":"平田町中山","lat":32.961223,"lng":132.774227},{"code":"39208040101","name":"平田町東平１丁目","lat":32.963221,"lng":132.809392},{"code":"39208040102","name":"平田町東平２丁目","lat":32.962177,"lng":132.81142},{"code":"392080402","name":"平田町戸内","lat":32.950055,"lng":132.790959},{"code":"392080410","name":"平田町黒川","lat":32.928167,"lng":132.796765},{"code":"392080420","name":"小筑紫町都賀川","lat":32.913546,"lng":132.745723},{"code":"392080430","name":"小筑紫町田ノ浦","lat":32.916124,"lng":132.745626},{"code":"392080440","name":"小筑紫町内外ノ浦","lat":32.90292,"lng":132.717674},{"code":"392080450","name":"小筑紫町呼崎","lat":32.904116,"lng":132.730465},{"code":"392080460","name":"小筑紫町湊","lat":32.893705,"lng":132.721403},{"code":"392080470","name":"小筑紫町大海","lat":32.89069,"lng":132.713889},{"code":"392080480","name":"小筑紫町伊与野","lat":32.890867,"lng":132.742281},{"code":"392080490","name":"小筑紫町小筑紫","lat":32.88097,"lng":132.722271},{"code":"392080500","name":"小筑紫町福良","lat":32.868553,"lng":132.728086},{"code":"392080510","name":"小筑紫町石原","lat":32.860712,"lng":132.76152},{"code":"392080520","name":"小筑紫町栄喜","lat":32.875625,"lng":132.705774},{"code":"39208053001","name":"沖の島町鵜来島","lat":32.801645,"lng":132.48958},{"code":"39208053002","name":"沖の島町鵜来島姫島","lat":32.738764,"lng":132.48937},{"code":"392080540","name":"沖の島町母島","lat":32.738287,"lng":132.55087},{"code":"392080550","name":"沖の島町弘瀬","lat":32.72054,"lng":132.557495},{"code":"392080570","name":"貝塚","lat":32.940105,"lng":132.711754},{"code":"392080580","name":"新港","lat":32.923756,"lng":132.677719},{"code":"39208059001","name":"駅東町１丁目","lat":32.933893,"lng":132.715919},{"code":"39208059002","name":"駅東町２丁目","lat":32.934608,"lng":132.717496},{"code":"39208059003","name":"駅東町３丁目","lat":32.933529,"lng":132.718605},{"code":"39208059004","name":"駅東町４丁目","lat":32.932299,"lng":132.716977},{"code":"39208059005","name":"駅東町１丁目","lat":32.935032,"lng":132.716098}]}
