{"municipality":"39402","name":"高岡郡佐川町","prefecture":"高知県","source":{"dataset":"frogcat/japan-small-area","census":"平成27年国勢調査 小地域（e-Stat 統計LOD）","license":"MIT（リポジトリ）／政府統計の総合窓口(e-Stat)の利用規約（元データ・出典表記必要）","fetched":"2026-07-06"},"towns":[{"code":"39402001001","name":"甲上郷","lat":33.501931,"lng":133.306336},{"code":"39402001002","name":"甲上郷町営住宅","lat":33.497238,"lng":133.305778},{"code":"39402001003","name":"甲東元町","lat":33.498442,"lng":133.295691},{"code":"39402001004","name":"甲さくら園","lat":33.498642,"lng":133.297193},{"code":"39402001005","name":"甲紫円","lat":33.493311,"lng":133.293407},{"code":"39402001006","name":"甲東町３区","lat":33.499326,"lng":133.292342},{"code":"39402001007","name":"甲東町４区上","lat":33.496913,"lng":133.289556},{"code":"39402001008","name":"甲東町４区下","lat":33.498801,"lng":133.291312},{"code":"39402001009","name":"甲東町５区","lat":33.500378,"lng":133.290736},{"code":"39402001010","name":"甲東町６区","lat":33.500068,"lng":133.289776},{"code":"39402001011","name":"甲春日","lat":33.502678,"lng":133.293166},{"code":"39402001012","name":"甲上町７区","lat":33.496293,"lng":133.287378},{"code":"39402001013","name":"甲西町８区","lat":33.499786,"lng":133.287715},{"code":"39402001014","name":"甲西町９区上","lat":33.498106,"lng":133.284875},{"code":"39402001015","name":"甲西町９区下","lat":33.499954,"lng":133.286153},{"code":"39402001016","name":"甲松崎","lat":33.502112,"lng":133.28621},{"code":"39402001017","name":"甲高北病院","lat":33.503626,"lng":133.287017},{"code":"39402001018","name":"甲中本町","lat":33.503235,"lng":133.28332},{"code":"39402001019","name":"甲三野","lat":33.505607,"lng":133.285681},{"code":"39402002001","name":"乙松崎","lat":33.504561,"lng":133.288047},{"code":"39402002002","name":"乙春日荘","lat":33.50431,"lng":133.286475},{"code":"39402002003","name":"乙中本町","lat":33.506036,"lng":133.283321},{"code":"39402002004","name":"乙鳥の巣","lat":33.486094,"lng":133.285167},{"code":"39402002005","name":"乙室原","lat":33.490642,"lng":133.2824},{"code":"39402002006","name":"乙岡崎","lat":33.498896,"lng":133.279947},{"code":"39402002007","name":"乙虎杖野","lat":33.506062,"lng":133.277322},{"code":"39402002008","name":"乙中組","lat":33.505755,"lng":133.280783},{"code":"39402002009","name":"乙島の土居","lat":33.502862,"lng":133.279893},{"code":"39402002010","name":"乙清和病院","lat":33.506523,"lng":133.279826},{"code":"39402002011","name":"乙富士見町","lat":33.51101,"lng":133.28524},{"code":"39402002012","name":"乙富士見町町営住宅","lat":33.50881,"lng":133.283131},{"code":"39402002013","name":"乙三野","lat":33.506571,"lng":133.29019},{"code":"39402002014","name":"乙青去","lat":33.510004,"lng":133.290075},{"code":"39402002015","name":"乙荷稲","lat":33.511865,"lng":133.297879},{"code":"39402002016","name":"乙下山","lat":33.51968,"lng":133.296842},{"code":"39402002017","name":"乙馬ノ原","lat":33.525102,"lng":133.287709},{"code":"39402002018","name":"乙柳瀬","lat":33.508366,"lng":133.28168},{"code":"39402003001","name":"丙柏原","lat":33.500963,"lng":133.263093},{"code":"39402003002","name":"丙桂","lat":33.502949,"lng":133.270679},{"code":"39402003003","name":"丙虎杖野","lat":33.506918,"lng":133.273702},{"code":"39402003004","name":"丙市の瀬","lat":33.521445,"lng":133.2837},{"code":"39402003005","name":"丙立野","lat":33.517619,"lng":133.278502},{"code":"39402003006","name":"丙柳瀬","lat":33.512275,"lng":133.282712},{"code":"39402003007","name":"丙九反田","lat":33.512875,"lng":133.276868},{"code":"39402003008","name":"丙川内ケ谷下","lat":33.512809,"lng":133.269278},{"code":"39402003009","name":"丙電力所","lat":33.511869,"lng":133.27406},{"code":"39402003010","name":"丙川内ケ谷上","lat":33.511133,"lng":133.259306},{"code":"39402003011","name":"丙中山","lat":33.518359,"lng":133.260186},{"code":"394020040","name":"室原","lat":33.49227,"lng":133.277955},{"code":"39402005001","name":"川ノ内組舟床","lat":33.4572,"lng":133.288912},{"code":"39402005002","name":"川ノ内組川ノ内","lat":33.450755,"lng":133.266042},{"code":"394020060","name":"西山組","lat":33.46629,"lng":133.261968},{"code":"39402007001","name":"西組山瀬","lat":33.468741,"lng":133.272902},{"code":"39402007002","name":"西組岩井口","lat":33.484572,"lng":133.27117},{"code":"39402007003","name":"西組塚谷","lat":33.480167,"lng":133.27239},{"code":"39402007004","name":"西組下伏尾","lat":33.478625,"lng":133.276443},{"code":"39402007005","name":"西組上伏尾","lat":33.476049,"lng":133.27408},{"code":"39402007006","name":"西組二の部","lat":33.479287,"lng":133.281272},{"code":"39402007007","name":"西組駅前丁","lat":33.4763,"lng":133.282964},{"code":"39402007008","name":"西組芝の坊","lat":33.473828,"lng":133.279142},{"code":"39402007009","name":"西組畜産試験場","lat":33.470033,"lng":133.278938},{"code":"39402008001","name":"中組駅前丁","lat":33.476789,"lng":133.284136},{"code":"39402008002","name":"中組芝の坊","lat":33.473594,"lng":133.282182},{"code":"39402008003","name":"中組角口","lat":33.466867,"lng":133.281357},{"code":"39402008004","name":"中組狩場","lat":33.467111,"lng":133.285276},{"code":"39402008005","name":"中組野添","lat":33.46852,"lng":133.28874},{"code":"39402008006","name":"中組薄木","lat":33.469533,"lng":133.294491},{"code":"39402008007","name":"中組入寺山","lat":33.47418,"lng":133.287454},{"code":"39402008008","name":"中組大平","lat":33.472787,"lng":133.296714},{"code":"39402009001","name":"東組二の部丁","lat":33.479743,"lng":133.285891},{"code":"39402009002","name":"東組駅前丁","lat":33.476683,"lng":133.286076},{"code":"39402009003","name":"東組入寺山","lat":33.476157,"lng":133.290672},{"code":"39402009004","name":"東組大平","lat":33.471463,"lng":133.303884},{"code":"39402009005","name":"東組上美都岐","lat":33.480626,"lng":133.295987},{"code":"39402009006","name":"東組西下美都岐","lat":33.482085,"lng":133.288121},{"code":"39402009007","name":"東組東下美都岐","lat":33.484533,"lng":133.292567},{"code":"39402010001","name":"永野大平","lat":33.474392,"lng":133.314327},{"code":"39402010002","name":"永野東下美都岐","lat":33.48416,"lng":133.297867},{"code":"39402010003","name":"永野襟野々","lat":33.4885,"lng":133.298823},{"code":"39402010004","name":"永野川原田","lat":33.4824,"lng":133.303704},{"code":"39402010005","name":"永野兎田","lat":33.484024,"lng":133.308022},{"code":"39402010006","name":"永野砂止","lat":33.482207,"lng":133.31771},{"code":"39402010007","name":"永野埴生ノ川","lat":33.491451,"lng":133.316383},{"code":"39402010008","name":"永野楠谷","lat":33.493808,"lng":133.312209},{"code":"39402010009","name":"永野中谷","lat":33.495087,"lng":133.308049},{"code":"39402010010","name":"永野南谷","lat":33.491527,"lng":133.308791},{"code":"39402010011","name":"永野鉢ケ森","lat":33.491363,"lng":133.304361},{"code":"39402010012","name":"永野囃田","lat":33.494988,"lng":133.303003},{"code":"39402010013","name":"永野古用地","lat":33.495158,"lng":133.300306},{"code":"39402010014","name":"永野花ノ木","lat":33.492776,"lng":133.298693},{"code":"39402011001","name":"本郷耕高平","lat":33.490403,"lng":133.269478},{"code":"39402011002","name":"本郷耕下郷","lat":33.491811,"lng":133.263018},{"code":"39402011003","name":"本郷耕中村","lat":33.492709,"lng":133.255225},{"code":"39402011004","name":"本郷耕山田","lat":33.497122,"lng":133.249986},{"code":"39402011005","name":"本郷耕堂野々","lat":33.495218,"lng":133.243505},{"code":"39402011006","name":"本郷耕松ノ木","lat":33.498695,"lng":133.23163},{"code":"39402012001","name":"西山耕下郷","lat":33.487264,"lng":133.260001},{"code":"39402012002","name":"西山耕西山","lat":33.470925,"lng":133.24237},{"code":"39402012003","name":"西山耕中村","lat":33.485109,"lng":133.248325},{"code":"394020130","name":"古畑耕","lat":33.482591,"lng":133.216057},{"code":"394020140","name":"峰耕","lat":33.49901,"lng":133.20777},{"code":"394020150","name":"本郷山","lat":33.508032,"lng":133.222304},{"code":"394020160","name":"四ツ白","lat":33.543832,"lng":133.31511},{"code":"394020170","name":"二ツ野","lat":33.539869,"lng":133.3046},{"code":"394020180","name":"中野","lat":33.52963,"lng":133.298003},{"code":"394020190","name":"瑞応","lat":33.534194,"lng":133.284383},{"code":"394020200","name":"庄田","lat":33.529481,"lng":133.274117},{"code":"39402021001","name":"黒原山本","lat":33.546955,"lng":133.294124},{"code":"39402021002","name":"黒原源住，薬師堂","lat":33.538362,"lng":133.283806},{"code":"39402021003","name":"黒原原","lat":33.548373,"lng":133.286238},{"code":"39402021004","name":"黒原岬","lat":33.550945,"lng":133.283884},{"code":"39402021005","name":"黒原寺野","lat":33.551639,"lng":133.280322},{"code":"39402021006","name":"黒原場所ケ内","lat":33.551217,"lng":133.276221},{"code":"39402021007","name":"黒原台住","lat":33.551609,"lng":133.271913},{"code":"394020220","name":"平野","lat":33.5474,"lng":133.26598},{"code":"394020230","name":"大田川","lat":33.540493,"lng":133.272201},{"code":"39402024001","name":"加茂長竹","lat":33.50647,"lng":133.328976},{"code":"39402024002","name":"加茂竹の倉","lat":33.518857,"lng":133.326219},{"code":"39402024003","name":"加茂横山","lat":33.511991,"lng":133.316336},{"code":"39402024004","name":"加茂本村西","lat":33.519048,"lng":133.30822},{"code":"39402024005","name":"加茂本村東","lat":33.526281,"lng":133.317375},{"code":"39402024006","name":"加茂弘岡","lat":33.526975,"lng":133.325274},{"code":"394020250","name":"岩目地","lat":33.52441,"lng":133.326802}]}
