{"municipality":"40349","name":"糟屋郡粕屋町","prefecture":"福岡県","source":{"dataset":"frogcat/japan-small-area","census":"平成27年国勢調査 小地域（e-Stat 統計LOD）","license":"MIT（リポジトリ）／政府統計の総合窓口(e-Stat)の利用規約（元データ・出典表記必要）","fetched":"2026-07-06"},"towns":[{"code":"40349001001","name":"大字大隈","lat":33.620868,"lng":130.492009},{"code":"40349001002","name":"大字大隈","lat":33.616904,"lng":130.488409},{"code":"403490020","name":"大字上大隈","lat":33.628267,"lng":130.493885},{"code":"403490030","name":"大字江辻","lat":33.628575,"lng":130.47651},{"code":"40349004001","name":"大字戸原","lat":33.625355,"lng":130.468054},{"code":"40349004002","name":"大字戸原","lat":33.619926,"lng":130.477911},{"code":"40349005002","name":"大字戸原","lat":33.619023,"lng":130.476042},{"code":"40349005004","name":"大字長者原","lat":33.616214,"lng":130.48259},{"code":"40349005005","name":"大字長者原","lat":33.616169,"lng":130.477735},{"code":"40349006002","name":"大字内橋","lat":33.62317,"lng":130.460502},{"code":"40349006003","name":"大字内橋","lat":33.622788,"lng":130.453387},{"code":"40349006004","name":"大字内橋","lat":33.62162,"lng":130.455906},{"code":"40349006005","name":"大字内橋","lat":33.619095,"lng":130.459439},{"code":"40349006006","name":"大字内橋","lat":33.622058,"lng":130.465962},{"code":"403490070","name":"大字酒殿","lat":33.602523,"lng":130.484985},{"code":"40349008101","name":"花ケ浦一丁目","lat":33.609142,"lng":130.477832},{"code":"40349008102","name":"花ケ浦二丁目","lat":33.611033,"lng":130.476215},{"code":"40349008103","name":"花ケ浦三丁目","lat":33.610874,"lng":130.472656},{"code":"40349008104","name":"花ケ浦四丁目","lat":33.608657,"lng":130.47384},{"code":"40349008201","name":"若宮一丁目","lat":33.613171,"lng":130.474457},{"code":"40349008202","name":"若宮二丁目","lat":33.614947,"lng":130.473459},{"code":"40349008301","name":"大字仲原","lat":33.613467,"lng":130.478658},{"code":"40349008304","name":"大字仲原","lat":33.607272,"lng":130.463943},{"code":"40349008305","name":"大字仲原","lat":33.614859,"lng":130.476946},{"code":"40349008307","name":"大字仲原","lat":33.613301,"lng":130.44965},{"code":"40349008308","name":"大字仲原","lat":33.610545,"lng":130.451396},{"code":"40349008309","name":"大字仲原","lat":33.603312,"lng":130.468222},{"code":"40349008310","name":"大字仲原","lat":33.613611,"lng":130.48691},{"code":"40349008401","name":"仲原一丁目","lat":33.606541,"lng":130.470858},{"code":"40349008402","name":"仲原二丁目","lat":33.609309,"lng":130.469133},{"code":"40349008403","name":"仲原三丁目","lat":33.609851,"lng":130.465296},{"code":"40349010001","name":"大字阿恵","lat":33.615711,"lng":130.457886},{"code":"40349010002","name":"大字阿恵","lat":33.617433,"lng":130.449991},{"code":"403490110","name":"大字柚須","lat":33.614951,"lng":130.447513},{"code":"40349012001","name":"駕与丁一丁目","lat":33.609935,"lng":130.480098},{"code":"40349012002","name":"駕与丁二丁目","lat":33.612029,"lng":130.484256},{"code":"40349012003","name":"駕与丁三丁目","lat":33.608268,"lng":130.485488},{"code":"40349013001","name":"原町一丁目","lat":33.611762,"lng":130.467521},{"code":"40349013002","name":"原町二丁目","lat":33.613268,"lng":130.469411},{"code":"40349013003","name":"原町三丁目","lat":33.615592,"lng":130.469882},{"code":"40349013004","name":"原町四丁目","lat":33.613333,"lng":130.465137},{"code":"40349013005","name":"原町五丁目","lat":33.61573,"lng":130.466386},{"code":"40349014001","name":"甲仲原一丁目","lat":33.606032,"lng":130.478425},{"code":"40349014002","name":"甲仲原二丁目","lat":33.604784,"lng":130.47487},{"code":"40349014003","name":"甲仲原三丁目","lat":33.603384,"lng":130.471881},{"code":"40349014004","name":"甲仲原四丁目","lat":33.600147,"lng":130.474337},{"code":"40349015001","name":"長者原西一丁目","lat":33.618078,"lng":130.473924},{"code":"40349015002","name":"長者原西二丁目","lat":33.618681,"lng":130.470735},{"code":"40349015003","name":"長者原西三丁目","lat":33.617866,"lng":130.464898},{"code":"40349015004","name":"長者原西四丁目","lat":33.61973,"lng":130.465495}]}
