{"municipality":"40342","name":"糟屋郡篠栗町","prefecture":"福岡県","source":{"dataset":"frogcat/japan-small-area","census":"平成27年国勢調査 小地域（e-Stat 統計LOD）","license":"MIT（リポジトリ）／政府統計の総合窓口(e-Stat)の利用規約（元データ・出典表記必要）","fetched":"2026-07-06"},"towns":[{"code":"403420010","name":"大字篠栗","lat":33.619939,"lng":130.562349},{"code":"403420020","name":"大字高田","lat":33.631118,"lng":130.528834},{"code":"403420030","name":"大字金出","lat":33.633757,"lng":130.54318},{"code":"403420040","name":"大字萩尾","lat":33.654097,"lng":130.560385},{"code":"403420050","name":"大字尾仲","lat":33.619839,"lng":130.516322},{"code":"403420060","name":"大字若杉","lat":33.606138,"lng":130.529719},{"code":"403420070","name":"大字乙犬","lat":33.614015,"lng":130.508821},{"code":"403420080","name":"大字和田","lat":33.629709,"lng":130.503987},{"code":"403420090","name":"大字津波黒","lat":33.632618,"lng":130.516181},{"code":"403420100","name":"大字田中","lat":33.62661,"lng":130.518386}]}
