{"municipality":"41327","name":"神埼郡吉野ヶ里町","prefecture":"佐賀県","source":{"dataset":"frogcat/japan-small-area","census":"平成27年国勢調査 小地域（e-Stat 統計LOD）","license":"MIT（リポジトリ）／政府統計の総合窓口(e-Stat)の利用規約（元データ・出典表記必要）","fetched":"2026-07-06"},"towns":[{"code":"41327001001","name":"吉田新宮田","lat":33.336738,"lng":130.407748},{"code":"41327001002","name":"吉田目達原","lat":33.335346,"lng":130.412124},{"code":"41327001003","name":"吉田上中杖上","lat":33.328905,"lng":130.407294},{"code":"41327001004","name":"吉田苔野","lat":33.325549,"lng":130.405977},{"code":"41327001005","name":"吉田吉田","lat":33.32347,"lng":130.398775},{"code":"41327001006","name":"吉田萩原","lat":33.329561,"lng":130.40243},{"code":"41327001007","name":"吉田鳥ノ隈","lat":33.329508,"lng":130.39594},{"code":"41327002001","name":"田手吉野ヶ里","lat":33.327497,"lng":130.388422},{"code":"41327002002","name":"田手田手村","lat":33.321682,"lng":130.38778},{"code":"41327002003","name":"田手田手宿","lat":33.31934,"lng":130.389001},{"code":"41327002004","name":"田手力田","lat":33.315841,"lng":130.391378},{"code":"41327002005","name":"田手衣村","lat":33.310179,"lng":130.391997},{"code":"41327002006","name":"田手伊保戸","lat":33.304512,"lng":130.394261},{"code":"41327003001","name":"豆田曽根","lat":33.308069,"lng":130.407407},{"code":"41327003002","name":"豆田上中杖","lat":33.317854,"lng":130.402831},{"code":"41327003003","name":"豆田下中杖","lat":33.313747,"lng":130.407479},{"code":"41327003004","name":"豆田上豆田","lat":33.317164,"lng":130.397697},{"code":"41327003005","name":"豆田下豆田","lat":33.31156,"lng":130.399911},{"code":"41327004001","name":"箱川箱川上分","lat":33.305369,"lng":130.401269},{"code":"41327004002","name":"箱川箱川下分","lat":33.299514,"lng":130.399259},{"code":"41327004003","name":"箱川乙ノ馬手","lat":33.293695,"lng":130.397123},{"code":"41327004004","name":"箱川下藤","lat":33.294255,"lng":130.402738},{"code":"41327004005","name":"箱川田中","lat":33.287026,"lng":130.398548},{"code":"413270050","name":"立野","lat":33.321894,"lng":130.409559},{"code":"41327006001","name":"松隈小川内","lat":33.415037,"lng":130.397812},{"code":"41327006002","name":"松隈永山","lat":33.387943,"lng":130.384806},{"code":"41327006003","name":"松隈坂本","lat":33.39509,"lng":130.395708},{"code":"41327006004","name":"松隈松隈","lat":33.37825,"lng":130.386842},{"code":"41327007001","name":"石動上石動","lat":33.372647,"lng":130.411353},{"code":"41327007002","name":"石動下石動","lat":33.354108,"lng":130.408074},{"code":"41327007003","name":"石動西石動","lat":33.358368,"lng":130.3986},{"code":"41327008001","name":"三津上三津東","lat":33.356185,"lng":130.392974},{"code":"41327008002","name":"三津上三津西","lat":33.369084,"lng":130.381505},{"code":"41327008003","name":"三津下三津西","lat":33.347635,"lng":130.388677},{"code":"41327008005","name":"三津","lat":33.344177,"lng":130.385422},{"code":"41327008006","name":"三津下三津東","lat":33.348782,"lng":130.396959},{"code":"41327009001","name":"大曲大曲","lat":33.344491,"lng":130.408934},{"code":"41327009002","name":"大曲横田","lat":33.339202,"lng":130.400359},{"code":"41327009004","name":"大曲川原団地","lat":33.340887,"lng":130.398455},{"code":"41327009005","name":"大曲永田ケ里","lat":33.340301,"lng":130.39023},{"code":"41327009006","name":"大曲中の原団地","lat":33.33734,"lng":130.386916},{"code":"41327009007","name":"大曲大塚ケ里","lat":33.335032,"lng":130.393986},{"code":"41327009008","name":"大曲辛上","lat":33.333514,"lng":130.388716}]}
