{"municipality":"41346","name":"三養基郡みやき町","prefecture":"佐賀県","source":{"dataset":"frogcat/japan-small-area","census":"平成27年国勢調査 小地域（e-Stat 統計LOD）","license":"MIT（リポジトリ）／政府統計の総合窓口(e-Stat)の利用規約（元データ・出典表記必要）","fetched":"2026-07-06"},"towns":[{"code":"41346001001","name":"大字東尾東尾","lat":33.327028,"lng":130.458418},{"code":"41346001002","name":"大字東尾西尾","lat":33.326046,"lng":130.452071},{"code":"41346002001","name":"大字中津隈中東","lat":33.321543,"lng":130.443048},{"code":"41346002002","name":"大字中津隈板部","lat":33.327206,"lng":130.445641},{"code":"41346002003","name":"大字中津隈中西","lat":33.322781,"lng":130.434239},{"code":"41346003001","name":"大字江口江口","lat":33.309655,"lng":130.456974},{"code":"41346003002","name":"大字江口西大島","lat":33.31539,"lng":130.465781},{"code":"41346003003","name":"大字江口中野","lat":33.309252,"lng":130.469024},{"code":"41346003004","name":"大字江口東大島","lat":33.314833,"lng":130.47311},{"code":"41346003005","name":"大字江口豆津","lat":33.312791,"lng":130.482858},{"code":"41346003006","name":"大字江口笹野","lat":33.308646,"lng":130.475705},{"code":"41346004001","name":"大字白壁市原","lat":33.320817,"lng":130.47614},{"code":"41346004002","name":"大字白壁千栗","lat":33.33165,"lng":130.47781},{"code":"41346004003","name":"大字白壁石貝","lat":33.331474,"lng":130.472297},{"code":"41346004004","name":"大字白壁白壁","lat":33.330031,"lng":130.465025},{"code":"41346004005","name":"大字白壁座主野","lat":33.32082,"lng":130.466867},{"code":"41346004006","name":"大字白壁皿山","lat":33.340356,"lng":130.46613},{"code":"41346004007","name":"大字白壁白石","lat":33.344025,"lng":130.461344},{"code":"41346004008","name":"大字白壁石貝団地","lat":33.335372,"lng":130.47684},{"code":"41346005001","name":"大字西島字東分","lat":33.300214,"lng":130.449994},{"code":"41346005002","name":"大字西島字西分","lat":33.300128,"lng":130.442187},{"code":"41346005003","name":"大字西島字本分","lat":33.298728,"lng":130.43612},{"code":"41346005004","name":"大字西島字田島","lat":33.309189,"lng":130.446034},{"code":"41346005005","name":"大字西島字田中","lat":33.306772,"lng":130.441582},{"code":"41346006001","name":"大字坂口字坂口","lat":33.269943,"lng":130.443375},{"code":"41346006002","name":"大字坂口字浜田","lat":33.279941,"lng":130.446076},{"code":"41346006003","name":"大字坂口字納江","lat":33.278763,"lng":130.438525},{"code":"41346007001","name":"大字天建寺字土井外","lat":33.288005,"lng":130.460309},{"code":"41346007002","name":"大字天建寺字土井内","lat":33.291182,"lng":130.451698},{"code":"41346007003","name":"大字天建寺字持丸","lat":33.285035,"lng":130.443175},{"code":"41346007004","name":"大字天建寺字南島","lat":33.290792,"lng":130.442725},{"code":"41346008001","name":"大字市武字江見","lat":33.293735,"lng":130.431136},{"code":"41346008002","name":"大字市武字新町","lat":33.295048,"lng":130.427265},{"code":"41346008003","name":"大字市武字市武","lat":33.296625,"lng":130.419727},{"code":"41346008004","name":"大字市武字六田","lat":33.29068,"lng":130.423176},{"code":"41346009001","name":"大字寄人字大坂間","lat":33.285283,"lng":130.425425},{"code":"41346009002","name":"大字寄人字和泉","lat":33.287994,"lng":130.419439},{"code":"41346009003","name":"大字寄人字新村","lat":33.292136,"lng":130.41089},{"code":"41346009004","name":"大字寄人字直代","lat":33.284155,"lng":130.412987},{"code":"41346009005","name":"大字寄人字続命院","lat":33.283573,"lng":130.408127},{"code":"41346009006","name":"大字寄人字南里ケ里","lat":33.288211,"lng":130.403475},{"code":"41346010001","name":"大字東津字東津","lat":33.278283,"lng":130.425301},{"code":"41346010002","name":"大字東津字松枝","lat":33.275903,"lng":130.418027},{"code":"41346010003","name":"大字東津字向島","lat":33.274886,"lng":130.411385},{"code":"41346011001","name":"大字簑原山田","lat":33.382075,"lng":130.432854},{"code":"41346011002","name":"大字簑原香田","lat":33.362937,"lng":130.450771},{"code":"41346011003","name":"大字簑原簑原","lat":33.356974,"lng":130.449794},{"code":"41346011004","name":"大字簑原簑原","lat":33.348706,"lng":130.448272},{"code":"41346011005","name":"大字簑原中原","lat":33.34527,"lng":130.453717},{"code":"41346012001","name":"大字原古賀石井","lat":33.338531,"lng":130.449945},{"code":"41346012002","name":"大字原古賀東寒水","lat":33.336411,"lng":130.443346},{"code":"41346012003","name":"大字原古賀西寒水","lat":33.334538,"lng":130.433085},{"code":"41346012004","name":"大字原古賀原古賀","lat":33.345739,"lng":130.439806},{"code":"41346012005","name":"大字原古賀上地","lat":33.346951,"lng":130.434022},{"code":"41346012006","name":"大字原古賀高柳","lat":33.352585,"lng":130.43175},{"code":"41346012007","name":"大字原古賀綾部","lat":33.36089,"lng":130.435772}]}
