{"municipality":"41425","name":"杵島郡白石町","prefecture":"佐賀県","source":{"dataset":"frogcat/japan-small-area","census":"平成27年国勢調査 小地域（e-Stat 統計LOD）","license":"MIT（リポジトリ）／政府統計の総合窓口(e-Stat)の利用規約（元データ・出典表記必要）","fetched":"2026-07-06"},"towns":[{"code":"41425001001","name":"大字廿治上廿治","lat":33.179569,"lng":130.132896},{"code":"41425001002","name":"大字廿治廿治町","lat":33.178453,"lng":130.137045},{"code":"41425001003","name":"大字廿治中廿治","lat":33.178453,"lng":130.142689},{"code":"41425001004","name":"大字廿治江越","lat":33.177482,"lng":130.127663},{"code":"41425001005","name":"大字廿治吉村","lat":33.170496,"lng":130.124144},{"code":"41425001006","name":"大字廿治廿治新村","lat":33.177516,"lng":130.154574},{"code":"41425001007","name":"大字廿治廿治移","lat":33.174634,"lng":130.163509},{"code":"41425002001","name":"大字福田揚田","lat":33.184378,"lng":130.132226},{"code":"41425002002","name":"大字福田郷司給移東","lat":33.18538,"lng":130.165183},{"code":"41425002003","name":"大字福田栄町","lat":33.186391,"lng":130.138818},{"code":"41425002004","name":"大字福田秀津","lat":33.183765,"lng":130.138213},{"code":"41425002005","name":"大字福田屋形通","lat":33.184223,"lng":130.137009},{"code":"41425002006","name":"大字福田五反田","lat":33.182922,"lng":130.149359},{"code":"41425002007","name":"大字福田福田","lat":33.180515,"lng":130.165164},{"code":"41425002008","name":"大字福田福富移","lat":33.174254,"lng":130.167567},{"code":"41425003001","name":"大字福吉大戸","lat":33.187029,"lng":130.147365},{"code":"41425003002","name":"大字福吉深通","lat":33.191058,"lng":130.166711},{"code":"41425003003","name":"大字福吉福吉","lat":33.195519,"lng":130.173995},{"code":"41425003004","name":"大字福吉東深通","lat":33.18825,"lng":130.170339},{"code":"41425004001","name":"大字今泉今泉","lat":33.194957,"lng":130.12374},{"code":"41425004002","name":"大字今泉網代","lat":33.187887,"lng":130.130665},{"code":"41425004003","name":"大字今泉伊ケ代","lat":33.189156,"lng":130.123585},{"code":"41425004004","name":"大字今泉多田","lat":33.182942,"lng":130.12123},{"code":"41425005001","name":"大字東郷西郷","lat":33.201286,"lng":130.133117},{"code":"41425005002","name":"大字東郷中郷","lat":33.193878,"lng":130.139723},{"code":"41425005003","name":"大字東郷東郷","lat":33.189108,"lng":130.143639},{"code":"41425005004","name":"大字東郷東郷移","lat":33.190502,"lng":130.150754},{"code":"41425006001","name":"大字馬洗神辺","lat":33.195961,"lng":130.11156},{"code":"41425006002","name":"大字馬洗馬田","lat":33.193518,"lng":130.116649},{"code":"41425006003","name":"大字馬洗宮田","lat":33.18958,"lng":130.100776},{"code":"41425006004","name":"大字馬洗法蔵寺","lat":33.186772,"lng":130.093102},{"code":"41425007001","name":"大字堤船野","lat":33.179812,"lng":130.085874},{"code":"41425007002","name":"大字堤内堤","lat":33.180339,"lng":130.105336},{"code":"41425007003","name":"大字堤三町","lat":33.18602,"lng":130.111496},{"code":"41425007004","name":"大字堤嘉瀬川","lat":33.173162,"lng":130.088967},{"code":"41425008001","name":"大字湯崎小島","lat":33.179361,"lng":130.113616},{"code":"41425008002","name":"大字湯崎湯崎","lat":33.174839,"lng":130.1037},{"code":"41425008003","name":"大字湯崎久治","lat":33.172048,"lng":130.108749},{"code":"41425008004","name":"大字湯崎川津","lat":33.168479,"lng":130.098247},{"code":"41425009001","name":"大字大渡喜佐木","lat":33.199591,"lng":130.095275},{"code":"41425009002","name":"大字大渡岡崎","lat":33.195398,"lng":130.103454},{"code":"41425009003","name":"大字大渡下箕具","lat":33.203661,"lng":130.107574},{"code":"41425009004","name":"大字大渡鳥巣","lat":33.192774,"lng":130.09259},{"code":"41425010001","name":"大字築切西分","lat":33.165723,"lng":130.143016},{"code":"41425010002","name":"大字築切道目","lat":33.167167,"lng":130.147835},{"code":"41425010003","name":"大字築切北揚","lat":33.16678,"lng":130.14982},{"code":"41425010004","name":"大字築切八の割","lat":33.164846,"lng":130.160439},{"code":"41425010005","name":"大字築切沖小路","lat":33.160799,"lng":130.155537},{"code":"41425010006","name":"大字築切一の籠","lat":33.161481,"lng":130.147154},{"code":"41425010007","name":"大字築切弥平搦","lat":33.158926,"lng":130.169115},{"code":"41425010008","name":"大字築切築切搦","lat":33.154811,"lng":130.163077},{"code":"41425011001","name":"大字遠江太原","lat":33.171553,"lng":130.152011},{"code":"41425011002","name":"大字遠江新観音","lat":33.168464,"lng":130.178456},{"code":"41425011003","name":"大字遠江遠江搦","lat":33.165466,"lng":130.173468},{"code":"41425011004","name":"大字遠江旭通","lat":33.171419,"lng":130.135662},{"code":"41425011005","name":"大字遠江太原搦","lat":33.160186,"lng":130.182914},{"code":"41425012001","name":"大字横手大井","lat":33.165192,"lng":130.130506},{"code":"41425012002","name":"大字横手只江","lat":33.162369,"lng":130.139826},{"code":"41425012003","name":"大字横手新昌","lat":33.165267,"lng":130.135896},{"code":"41425012004","name":"大字横手天神","lat":33.159796,"lng":130.134641},{"code":"41425012005","name":"大字横手中南","lat":33.154477,"lng":130.150023},{"code":"414250130","name":"大字新拓","lat":33.145941,"lng":130.177086},{"code":"41425014001","name":"大字福富上区","lat":33.179016,"lng":130.174154},{"code":"41425014002","name":"大字福富中区","lat":33.181424,"lng":130.181128},{"code":"41425014003","name":"大字福富下区","lat":33.186611,"lng":130.187589},{"code":"41425014004","name":"大字福富南区","lat":33.170271,"lng":130.190388},{"code":"41425014005","name":"大字福富東区","lat":33.177614,"lng":130.197749},{"code":"41425014009","name":"大字福富北区","lat":33.197313,"lng":130.186419},{"code":"41425015006","name":"大字福富下分六府方区","lat":33.187491,"lng":130.200596},{"code":"41425015007","name":"大字福富下分東六府方区","lat":33.183976,"lng":130.214398},{"code":"41425015008","name":"大字福富下分住ノ江区","lat":33.196053,"lng":130.194735},{"code":"414250160","name":"大字八平","lat":33.168358,"lng":130.212075},{"code":"41425017001","name":"大字牛屋東上","lat":33.154828,"lng":130.133443},{"code":"41425017002","name":"大字牛屋中央","lat":33.151843,"lng":130.138892},{"code":"41425017003","name":"大字牛屋新通","lat":33.154368,"lng":130.138843},{"code":"41425017004","name":"大字牛屋大和","lat":33.145439,"lng":130.146675},{"code":"41425017005","name":"大字牛屋日登","lat":33.146611,"lng":130.1416},{"code":"41425017006","name":"大字牛屋大西","lat":33.147407,"lng":130.138894},{"code":"41425017007","name":"大字牛屋共栄","lat":33.149551,"lng":130.136492},{"code":"41425017008","name":"大字牛屋沖清","lat":33.145405,"lng":130.136325},{"code":"41425017009","name":"大字牛屋興亜","lat":33.148256,"lng":130.134858},{"code":"41425017010","name":"大字牛屋新盛","lat":33.149501,"lng":130.132711},{"code":"41425017011","name":"大字牛屋西南","lat":33.143977,"lng":130.132054},{"code":"41425017012","name":"大字牛屋新興","lat":33.135482,"lng":130.137399},{"code":"41425017013","name":"大字牛屋干拓","lat":33.141635,"lng":130.150715},{"code":"41425018001","name":"大字戸ケ里高町","lat":33.161808,"lng":130.116597},{"code":"41425018002","name":"大字戸ケ里廻里","lat":33.160913,"lng":130.121849},{"code":"41425018003","name":"大字戸ケ里廻里津","lat":33.156038,"lng":130.126009},{"code":"41425018004","name":"大字戸ケ里戸ケ里","lat":33.145052,"lng":130.128308},{"code":"41425019001","name":"大字辺田久治","lat":33.173469,"lng":130.115801},{"code":"41425019002","name":"大字辺田六ケ里","lat":33.166402,"lng":130.11197},{"code":"41425019003","name":"大字辺田辺田","lat":33.163426,"lng":130.097191},{"code":"41425020001","name":"大字田野上上田野上","lat":33.156652,"lng":130.093045},{"code":"41425020002","name":"大字田野上下田野上","lat":33.15565,"lng":130.105448},{"code":"41425020003","name":"大字田野上島津","lat":33.156119,"lng":130.111438},{"code":"41425021001","name":"大字坂田古賀","lat":33.149242,"lng":130.120196},{"code":"41425021002","name":"大字坂田原田","lat":33.147635,"lng":130.114884},{"code":"41425021003","name":"大字坂田坂田","lat":33.146,"lng":130.102455},{"code":"41425021004","name":"大字坂田白岩","lat":33.141453,"lng":130.092836},{"code":"41425022001","name":"大字深浦室島","lat":33.139795,"lng":130.119883},{"code":"41425022002","name":"大字深浦竜王","lat":33.131369,"lng":130.124511},{"code":"41425022003","name":"大字深浦深浦東分","lat":33.134576,"lng":130.11421},{"code":"41425022004","name":"大字深浦深浦西分","lat":33.136926,"lng":130.105187},{"code":"41425022005","name":"大字深浦百貫","lat":33.13247,"lng":130.105702},{"code":"41425022006","name":"大字深浦古渡","lat":33.133522,"lng":130.096825},{"code":"41425022007","name":"大字深浦大谷","lat":33.133357,"lng":130.089604},{"code":"41425022008","name":"大字深浦牛間田","lat":33.135464,"lng":130.080102},{"code":"41425023001","name":"大字新明新明１","lat":33.120889,"lng":130.140913},{"code":"41425023002","name":"大字新明新明２","lat":33.126044,"lng":130.150932},{"code":"41425023003","name":"大字新明新明３","lat":33.130261,"lng":130.155627},{"code":"41425023004","name":"大字新明新明４","lat":33.136152,"lng":130.159878}]}
