{"municipality":"42211","name":"五島市","prefecture":"長崎県","source":{"dataset":"frogcat/japan-small-area","census":"平成27年国勢調査 小地域（e-Stat 統計LOD）","license":"MIT（リポジトリ）／政府統計の総合窓口(e-Stat)の利用規約（元データ・出典表記必要）","fetched":"2026-07-06"},"towns":[{"code":"422110010","name":"下大津町","lat":32.683489,"lng":128.867163},{"code":"422110020","name":"上大津町","lat":32.674,"lng":128.84343},{"code":"42211003001","name":"三尾野１丁目","lat":32.692017,"lng":128.838786},{"code":"42211003002","name":"三尾野２丁目","lat":32.691493,"lng":128.840681},{"code":"42211003003","name":"三尾野３丁目","lat":32.690328,"lng":128.837268},{"code":"422110031","name":"三尾野町","lat":32.681711,"lng":128.833388},{"code":"422110041","name":"池田町","lat":32.693321,"lng":128.846362},{"code":"42211004201","name":"東浜町１丁目","lat":32.694586,"lng":128.848329},{"code":"42211004202","name":"東浜町２丁目","lat":32.694707,"lng":128.851003},{"code":"42211004203","name":"東浜町３丁目","lat":32.692094,"lng":128.850152},{"code":"422110043","name":"紺屋町","lat":32.691089,"lng":128.848212},{"code":"42211004401","name":"福江町","lat":32.698292,"lng":128.843145},{"code":"42211004402","name":"福江町","lat":32.700242,"lng":128.844911},{"code":"42211004404","name":"福江町","lat":32.699298,"lng":128.848743},{"code":"42211004405","name":"福江町","lat":32.69891,"lng":128.846284},{"code":"42211004406","name":"福江町","lat":32.696691,"lng":128.841373},{"code":"422110050","name":"幸町","lat":32.694044,"lng":128.840182},{"code":"422110060","name":"錦町","lat":32.693017,"lng":128.842415},{"code":"422110070","name":"江川町","lat":32.697742,"lng":128.844084},{"code":"422110080","name":"栄町","lat":32.69635,"lng":128.845853},{"code":"422110090","name":"中央町","lat":32.694694,"lng":128.843866},{"code":"422110100","name":"末広町","lat":32.695404,"lng":128.842533},{"code":"422110110","name":"松山町","lat":32.70515,"lng":128.838346},{"code":"422110120","name":"大荒町","lat":32.706366,"lng":128.82739},{"code":"422110130","name":"木場町","lat":32.69233,"lng":128.831118},{"code":"422110140","name":"吉久木町","lat":32.693721,"lng":128.818546},{"code":"422110150","name":"籠淵町","lat":32.706415,"lng":128.800336},{"code":"422110160","name":"平蔵町","lat":32.732616,"lng":128.842029},{"code":"422110170","name":"奥浦町","lat":32.737273,"lng":128.816107},{"code":"422110180","name":"戸岐町","lat":32.773527,"lng":128.806783},{"code":"422110190","name":"下崎山町","lat":32.662948,"lng":128.877869},{"code":"422110200","name":"上崎山町","lat":32.650621,"lng":128.864248},{"code":"422110210","name":"向町","lat":32.649961,"lng":128.887435},{"code":"422110220","name":"長手町","lat":32.669619,"lng":128.868273},{"code":"422110230","name":"赤島町","lat":32.592445,"lng":128.914996},{"code":"422110240","name":"堤町","lat":32.67551,"lng":128.797202},{"code":"422110250","name":"吉田町","lat":32.687251,"lng":128.793569},{"code":"422110260","name":"高田町","lat":32.671856,"lng":128.798829},{"code":"422110270","name":"野々切町","lat":32.650873,"lng":128.832947},{"code":"422110280","name":"浜町","lat":32.189677,"lng":128.490092},{"code":"422110290","name":"小泊町","lat":32.645063,"lng":128.820456},{"code":"422110300","name":"増田町","lat":32.661342,"lng":128.779086},{"code":"422110310","name":"黄島町","lat":32.565907,"lng":128.899518},{"code":"422110320","name":"本窯町","lat":32.771905,"lng":128.996087},{"code":"422110330","name":"伊福貴町","lat":32.75632,"lng":128.975147},{"code":"422110340","name":"久賀町","lat":32.789974,"lng":128.875627},{"code":"422110350","name":"蕨町","lat":32.816874,"lng":128.886799},{"code":"422110360","name":"猪之木町","lat":32.813906,"lng":128.853525},{"code":"422110370","name":"田ノ浦町","lat":32.787484,"lng":128.85645},{"code":"42211045001","name":"武家屋敷１丁目","lat":32.691733,"lng":128.844637},{"code":"42211045002","name":"武家屋敷２丁目","lat":32.689935,"lng":128.846342},{"code":"42211045003","name":"武家屋敷３丁目","lat":32.690688,"lng":128.843651},{"code":"422110460","name":"坂の上","lat":32.688947,"lng":128.83842},{"code":"422110470","name":"大円寺町","lat":32.688822,"lng":128.831351},{"code":"422110480","name":"新港町","lat":32.701338,"lng":128.847478},{"code":"42211100001","name":"富江町富江","lat":32.614247,"lng":128.765043},{"code":"42211100003","name":"富江町富江","lat":32.613827,"lng":128.768379},{"code":"42211100004","name":"富江町富江","lat":32.616294,"lng":128.76272},{"code":"42211100005","name":"富江町富江","lat":32.615737,"lng":128.766925},{"code":"42211100006","name":"富江町富江","lat":32.616205,"lng":128.764926},{"code":"42211100007","name":"富江町富江","lat":32.61629,"lng":128.768082},{"code":"42211100008","name":"富江町富江","lat":32.618529,"lng":128.768844},{"code":"42211100009","name":"富江町富江","lat":32.614872,"lng":128.768882},{"code":"42211100010","name":"富江町富江","lat":32.614686,"lng":128.768227},{"code":"42211100012","name":"富江町富江","lat":32.614974,"lng":128.769969},{"code":"42211100013","name":"富江町富江","lat":32.616153,"lng":128.77057},{"code":"42211101001","name":"富江町狩立","lat":32.612476,"lng":128.765003},{"code":"42211101002","name":"富江町狩立","lat":32.612388,"lng":128.767216},{"code":"42211101004","name":"富江町狩立","lat":32.614704,"lng":128.761858},{"code":"42211101019","name":"富江町狩立","lat":32.612514,"lng":128.759083},{"code":"42211101020","name":"富江町狩立","lat":32.606699,"lng":128.762935},{"code":"42211101022","name":"富江町狩立","lat":32.606509,"lng":128.756717},{"code":"42211102004","name":"富江町松尾","lat":32.615621,"lng":128.760819},{"code":"42211102017","name":"富江町松尾","lat":32.624901,"lng":128.758832},{"code":"42211102018","name":"富江町松尾","lat":32.617363,"lng":128.760556},{"code":"42211102019","name":"富江町松尾","lat":32.613464,"lng":128.756572},{"code":"42211102021","name":"富江町松尾","lat":32.618107,"lng":128.753776},{"code":"42211102022","name":"富江町松尾","lat":32.612626,"lng":128.751722},{"code":"422111030","name":"富江町田尾","lat":32.640973,"lng":128.756999},{"code":"422111040","name":"富江町繁敷","lat":32.64807,"lng":128.740085},{"code":"42211105023","name":"富江町山手","lat":32.623651,"lng":128.743706},{"code":"42211105030","name":"富江町山手","lat":32.607262,"lng":128.744641},{"code":"42211106030","name":"富江町長峰","lat":32.608225,"lng":128.736749},{"code":"42211106031","name":"富江町長峰","lat":32.613689,"lng":128.723091},{"code":"42211106032","name":"富江町長峰","lat":32.613152,"lng":128.700366},{"code":"42211106033","name":"富江町長峰","lat":32.610717,"lng":128.680366},{"code":"42211107022","name":"富江町黒瀬","lat":32.605271,"lng":128.753131},{"code":"42211107029","name":"富江町黒瀬","lat":32.598722,"lng":128.747228},{"code":"42211107030","name":"富江町黒瀬","lat":32.604685,"lng":128.744092},{"code":"422111080","name":"富江町山下","lat":32.591804,"lng":128.757199},{"code":"42211109025","name":"富江町岳","lat":32.593269,"lng":128.77931},{"code":"42211109026","name":"富江町岳","lat":32.585173,"lng":128.766509},{"code":"42211109027","name":"富江町岳","lat":32.579887,"lng":128.771914},{"code":"42211110011","name":"富江町職人","lat":32.605227,"lng":128.771759},{"code":"42211110012","name":"富江町職人","lat":32.613688,"lng":128.770778},{"code":"42211110025","name":"富江町職人","lat":32.602616,"lng":128.782953},{"code":"42211111011","name":"富江町土取","lat":32.612406,"lng":128.772243},{"code":"42211111012","name":"富江町土取","lat":32.614215,"lng":128.775914},{"code":"42211111024","name":"富江町土取","lat":32.605173,"lng":128.785544},{"code":"42211111025","name":"富江町土取","lat":32.594138,"lng":128.790876},{"code":"422111120","name":"富江町黒島","lat":32.6004,"lng":128.835084},{"code":"422111130","name":"玉之浦町玉之浦","lat":32.639242,"lng":128.620965},{"code":"422111140","name":"玉之浦町大宝","lat":32.605269,"lng":128.655406},{"code":"422111150","name":"玉之浦町小川","lat":32.62197,"lng":128.674879},{"code":"422111160","name":"玉之浦町中須","lat":32.633832,"lng":128.670936},{"code":"422111170","name":"玉之浦町幾久山","lat":32.639398,"lng":128.701247},{"code":"422111180","name":"玉之浦町上の平","lat":32.646947,"lng":128.719191},{"code":"422111190","name":"玉之浦町荒川","lat":32.671754,"lng":128.688655},{"code":"422111200","name":"玉之浦町布浦","lat":32.646175,"lng":128.659874},{"code":"422111210","name":"玉之浦町頓泊","lat":32.698683,"lng":128.660798},{"code":"422111220","name":"玉之浦町丹奈","lat":32.685493,"lng":128.662953},{"code":"422111230","name":"玉之浦町立谷","lat":32.606673,"lng":128.637251},{"code":"42211124001","name":"三井楽町浜ノ畔","lat":32.750181,"lng":128.695826},{"code":"42211124002","name":"三井楽町浜ノ畔","lat":32.748834,"lng":128.693233},{"code":"42211124003","name":"三井楽町浜ノ畔","lat":32.754587,"lng":128.682966},{"code":"42211124004","name":"三井楽町浜ノ畔","lat":32.74985,"lng":128.685564},{"code":"42211124005","name":"三井楽町浜ノ畔","lat":32.75205,"lng":128.677249},{"code":"42211124006","name":"三井楽町浜ノ畔","lat":32.742287,"lng":128.691216},{"code":"42211124007","name":"三井楽町浜ノ畔","lat":32.748827,"lng":128.674434},{"code":"42211124008","name":"三井楽町浜ノ畔","lat":32.735146,"lng":128.680408},{"code":"42211124023","name":"三井楽町浜ノ畔","lat":32.762136,"lng":128.691683},{"code":"42211124024","name":"三井楽町浜ノ畔","lat":32.755571,"lng":128.692707},{"code":"42211125009","name":"三井楽町貝津","lat":32.718462,"lng":128.657743},{"code":"42211125010","name":"三井楽町貝津","lat":32.722382,"lng":128.667382},{"code":"422111260","name":"三井楽町塩水","lat":32.759776,"lng":128.647507},{"code":"422111270","name":"三井楽町丑ノ浦","lat":32.754466,"lng":128.655465},{"code":"422111280","name":"三井楽町波砂間","lat":32.747696,"lng":128.657878},{"code":"422111290","name":"三井楽町浜窄","lat":32.735863,"lng":128.65639},{"code":"42211130015","name":"三井楽町柏","lat":32.783095,"lng":128.664914},{"code":"42211130016","name":"三井楽町柏","lat":32.777359,"lng":128.660448},{"code":"42211130017","name":"三井楽町柏","lat":32.777489,"lng":128.67148},{"code":"422111310","name":"三井楽町高崎","lat":32.774128,"lng":128.679001},{"code":"422111320","name":"三井楽町大川","lat":32.764863,"lng":128.682582},{"code":"42211133020","name":"三井楽町岳","lat":32.766459,"lng":128.666922},{"code":"42211133022","name":"三井楽町岳","lat":32.761224,"lng":128.66758},{"code":"422111340","name":"三井楽町淵ノ元","lat":32.767892,"lng":128.652686},{"code":"42211135025","name":"三井楽町嵯峨島","lat":32.734726,"lng":128.603405},{"code":"42211135026","name":"三井楽町嵯峨島","lat":32.720845,"lng":128.596388},{"code":"42211136001","name":"岐宿町岐宿","lat":32.762189,"lng":128.759},{"code":"42211136002","name":"岐宿町岐宿","lat":32.756665,"lng":128.761559},{"code":"42211136003","name":"岐宿町岐宿","lat":32.751844,"lng":128.764849},{"code":"42211136004","name":"岐宿町岐宿","lat":32.754505,"lng":128.760897},{"code":"42211136005","name":"岐宿町岐宿","lat":32.746612,"lng":128.758957},{"code":"42211136006","name":"岐宿町岐宿","lat":32.750453,"lng":128.755967},{"code":"42211136007","name":"岐宿町岐宿","lat":32.755323,"lng":128.754697},{"code":"42211136008","name":"岐宿町岐宿","lat":32.761544,"lng":128.755131},{"code":"42211136009","name":"岐宿町岐宿","lat":32.750021,"lng":128.74841},{"code":"42211137010","name":"岐宿町河務","lat":32.724217,"lng":128.770147},{"code":"42211137011","name":"岐宿町河務","lat":32.710932,"lng":128.775442},{"code":"42211138012","name":"岐宿町楠原","lat":32.737712,"lng":128.753362},{"code":"42211138013","name":"岐宿町楠原","lat":32.729684,"lng":128.746475},{"code":"42211138014","name":"岐宿町楠原","lat":32.723721,"lng":128.739127},{"code":"42211139015","name":"岐宿町川原","lat":32.745611,"lng":128.735037},{"code":"42211139016","name":"岐宿町川原","lat":32.737584,"lng":128.730812},{"code":"42211139017","name":"岐宿町川原","lat":32.719059,"lng":128.695699},{"code":"42211139018","name":"岐宿町川原","lat":32.714043,"lng":128.711588},{"code":"42211139019","name":"岐宿町川原","lat":32.73994,"lng":128.708073},{"code":"42211139020","name":"岐宿町川原","lat":32.749304,"lng":128.725473},{"code":"42211140021","name":"岐宿町松山","lat":32.712536,"lng":128.743235},{"code":"42211140022","name":"岐宿町松山","lat":32.703597,"lng":128.737802},{"code":"42211140023","name":"岐宿町松山","lat":32.700486,"lng":128.71269},{"code":"42211141024","name":"岐宿町中嶽","lat":32.687089,"lng":128.746395},{"code":"42211141025","name":"岐宿町中嶽","lat":32.683548,"lng":128.739336},{"code":"42211141026","name":"岐宿町中嶽","lat":32.680273,"lng":128.725048},{"code":"422111420","name":"岐宿町二本楠","lat":32.666463,"lng":128.725756},{"code":"422111430","name":"岐宿町唐船ノ浦","lat":32.767809,"lng":128.784848},{"code":"422111440","name":"岐宿町戸岐ノ首","lat":32.750665,"lng":128.79189},{"code":"422111450","name":"岐宿町姫島","lat":32.8064,"lng":128.678377},{"code":"42211146001","name":"奈留町浦","lat":32.828979,"lng":128.937543},{"code":"42211146002","name":"奈留町浦","lat":32.823856,"lng":128.932155},{"code":"42211146003","name":"奈留町浦","lat":32.834518,"lng":128.932195},{"code":"42211146004","name":"奈留町浦","lat":32.839974,"lng":128.936111},{"code":"42211146005","name":"奈留町浦","lat":32.847349,"lng":128.923034},{"code":"42211146006","name":"奈留町浦","lat":32.845588,"lng":128.915825},{"code":"42211146007","name":"奈留町浦","lat":32.822522,"lng":128.92482},{"code":"42211147008","name":"奈留町泊","lat":32.821518,"lng":128.941057},{"code":"42211147009","name":"奈留町泊","lat":32.810542,"lng":128.943442},{"code":"42211147010","name":"奈留町泊","lat":32.801855,"lng":128.932178},{"code":"42211147011","name":"奈留町泊","lat":32.817708,"lng":128.947274},{"code":"42211147012","name":"奈留町泊","lat":32.833946,"lng":128.944838},{"code":"42211147013","name":"奈留町泊","lat":32.835425,"lng":128.953606},{"code":"42211147014","name":"奈留町泊","lat":32.844335,"lng":128.950813},{"code":"42211147015","name":"奈留町泊","lat":32.855795,"lng":128.956669},{"code":"42211148016","name":"奈留町船廻","lat":32.851045,"lng":128.946154},{"code":"42211148017","name":"奈留町船廻","lat":32.844531,"lng":128.939855},{"code":"42211148018","name":"奈留町船廻","lat":32.869802,"lng":128.949709},{"code":"42211148019","name":"奈留町船廻","lat":32.862542,"lng":128.930378},{"code":"42211149020","name":"奈留町大串","lat":32.869783,"lng":128.913506},{"code":"42211149021","name":"奈留町大串","lat":32.858521,"lng":128.904706},{"code":"42211149022","name":"奈留町大串","lat":32.865051,"lng":128.890396}]}
