{"municipality":"42323","name":"東彼杵郡波佐見町","prefecture":"長崎県","source":{"dataset":"frogcat/japan-small-area","census":"平成27年国勢調査 小地域（e-Stat 統計LOD）","license":"MIT（リポジトリ）／政府統計の総合窓口(e-Stat)の利用規約（元データ・出典表記必要）","fetched":"2026-07-06"},"towns":[{"code":"423230010","name":"中尾郷","lat":33.119236,"lng":129.93062},{"code":"423230020","name":"三股郷","lat":33.120465,"lng":129.937689},{"code":"423230030","name":"永尾郷","lat":33.124144,"lng":129.946264},{"code":"423230040","name":"小樽郷","lat":33.140396,"lng":129.937887},{"code":"423230050","name":"野々川郷","lat":33.156221,"lng":129.932361},{"code":"423230060","name":"湯無田郷","lat":33.14756,"lng":129.918299},{"code":"423230070","name":"井石郷","lat":33.130166,"lng":129.918505},{"code":"423230080","name":"鬼木郷","lat":33.114167,"lng":129.921903},{"code":"423230090","name":"金屋郷","lat":33.125555,"lng":129.904678},{"code":"423230100","name":"折敷瀬郷","lat":33.148922,"lng":129.899974},{"code":"423230110","name":"宿郷","lat":33.138991,"lng":129.889414},{"code":"423230120","name":"村木郷","lat":33.150822,"lng":129.8749},{"code":"423230130","name":"皿山郷","lat":33.140594,"lng":129.857631},{"code":"423230140","name":"稗木場郷","lat":33.133609,"lng":129.873016},{"code":"423230150","name":"田ノ頭郷","lat":33.125996,"lng":129.890661},{"code":"423230160","name":"川内郷","lat":33.114355,"lng":129.891137},{"code":"423230170","name":"岳辺田郷","lat":33.109554,"lng":129.87651},{"code":"42323018018","name":"長野郷","lat":33.128893,"lng":129.859582},{"code":"42323018019","name":"長野郷","lat":33.121088,"lng":129.872683},{"code":"42323018020","name":"長野郷","lat":33.120707,"lng":129.857526},{"code":"423230190","name":"志折郷","lat":33.112573,"lng":129.854696},{"code":"423230200","name":"平野郷","lat":33.104969,"lng":129.868302}]}
