{"municipality":"43215","name":"天草市","prefecture":"熊本県","source":{"dataset":"frogcat/japan-small-area","census":"平成27年国勢調査 小地域（e-Stat 統計LOD）","license":"MIT（リポジトリ）／政府統計の総合窓口(e-Stat)の利用規約（元データ・出典表記必要）","fetched":"2026-07-06"},"towns":[{"code":"432150010","name":"浄南町","lat":32.450027,"lng":130.195409},{"code":"432150020","name":"南町","lat":32.451663,"lng":130.191857},{"code":"432150030","name":"太田町","lat":32.451804,"lng":130.197794},{"code":"432150040","name":"南新町","lat":32.453821,"lng":130.195045},{"code":"432150050","name":"東町","lat":32.451491,"lng":130.201011},{"code":"432150060","name":"港町","lat":32.456373,"lng":130.197667},{"code":"432150070","name":"栄町","lat":32.455385,"lng":130.191861},{"code":"432150080","name":"諏訪町","lat":32.453733,"lng":130.188199},{"code":"432150090","name":"中央新町","lat":32.456138,"lng":130.189639},{"code":"432150100","name":"古川町","lat":32.455018,"lng":130.186085},{"code":"432150110","name":"川原町","lat":32.455496,"lng":130.183483},{"code":"432150120","name":"東浜町","lat":32.458011,"lng":130.192382},{"code":"432150130","name":"船之尾町","lat":32.458526,"lng":130.18478},{"code":"432150140","name":"大浜町","lat":32.459726,"lng":130.189548},{"code":"432150150","name":"城下町","lat":32.460045,"lng":130.185826},{"code":"432150160","name":"小松原町","lat":32.461563,"lng":130.190441},{"code":"432150170","name":"浜崎町","lat":32.462956,"lng":130.186152},{"code":"432150180","name":"今釜町","lat":32.463227,"lng":130.192439},{"code":"432150190","name":"今釜新町","lat":32.460239,"lng":130.1963},{"code":"432150200","name":"北浜町","lat":32.468278,"lng":130.204952},{"code":"432150210","name":"川原新町","lat":32.452382,"lng":130.183379},{"code":"432150220","name":"本渡町本渡","lat":32.449395,"lng":130.153788},{"code":"432150231","name":"丸尾町","lat":32.469774,"lng":130.184813},{"code":"432150232","name":"中村町","lat":32.470083,"lng":130.187797},{"code":"432150233","name":"八幡町","lat":32.466802,"lng":130.189688},{"code":"432150234","name":"北原町","lat":32.465506,"lng":130.185742},{"code":"432150235","name":"本渡町本戸馬場","lat":32.469561,"lng":130.177263},{"code":"432150240","name":"本渡町広瀬","lat":32.472349,"lng":130.196335},{"code":"432150250","name":"本渡町本泉","lat":32.477116,"lng":130.172991},{"code":"432150261","name":"亀場町食場","lat":32.426936,"lng":130.174209},{"code":"432150262","name":"亀場町亀川","lat":32.440238,"lng":130.197396},{"code":"432150270","name":"枦宇土町","lat":32.426675,"lng":130.135123},{"code":"432150280","name":"志柿町","lat":32.450003,"lng":130.23435},{"code":"432150290","name":"瀬戸町","lat":32.450812,"lng":130.206334},{"code":"432150300","name":"下浦町","lat":32.419926,"lng":130.241095},{"code":"432150310","name":"楠浦町","lat":32.410453,"lng":130.177161},{"code":"432150321","name":"本町本","lat":32.457796,"lng":130.110376},{"code":"432150322","name":"本町新休","lat":32.468581,"lng":130.144489},{"code":"432150323","name":"本町下河内","lat":32.47272,"lng":130.156957},{"code":"432150330","name":"佐伊津町","lat":32.489804,"lng":130.182788},{"code":"432150340","name":"旭町","lat":32.491378,"lng":130.19485},{"code":"432150350","name":"宮地岳町","lat":32.387186,"lng":130.118344},{"code":"432150360","name":"山の手町","lat":32.45058,"lng":130.18475},{"code":"43215037001","name":"牛深町岡東","lat":32.200044,"lng":130.027489},{"code":"43215037002","name":"牛深町岡一","lat":32.19454,"lng":130.02638},{"code":"43215037003","name":"牛深町岡二","lat":32.195801,"lng":130.025051},{"code":"43215037004","name":"牛深町岡三","lat":32.198318,"lng":130.021283},{"code":"43215037005","name":"牛深町岡四","lat":32.196145,"lng":130.020993},{"code":"43215037006","name":"牛深町船津","lat":32.194182,"lng":130.023028},{"code":"43215037007","name":"牛深町真浦","lat":32.194313,"lng":130.02119},{"code":"43215037008","name":"牛深町加世浦","lat":32.190976,"lng":130.020059},{"code":"43215037009","name":"牛深町宮崎","lat":32.19283,"lng":130.015528},{"code":"43215037010","name":"牛深町鬼塚","lat":32.202326,"lng":130.017468},{"code":"43215037011","name":"牛深町須口","lat":32.1997,"lng":130.002318},{"code":"43215037012","name":"牛深町天附","lat":32.173663,"lng":130.024728},{"code":"43215037013","name":"牛深町元下須","lat":32.186991,"lng":130.029299},{"code":"43215037014","name":"牛深町茂串","lat":32.213881,"lng":130.009223},{"code":"43215038001","name":"魚貫町浦越","lat":32.248081,"lng":130.01822},{"code":"43215038002","name":"魚貫町二区","lat":32.239768,"lng":130.013752},{"code":"43215038003","name":"魚貫町一区","lat":32.238161,"lng":130.02498},{"code":"43215038004","name":"魚貫町池田","lat":32.251403,"lng":129.989846},{"code":"43215038005","name":"魚貫町福津","lat":32.258512,"lng":130.010478},{"code":"43215039001","name":"二浦町亀浦","lat":32.271547,"lng":130.021816},{"code":"43215039002","name":"二浦町早浦","lat":32.270065,"lng":130.049084},{"code":"43215040001","name":"深海町下平","lat":32.276104,"lng":130.102162},{"code":"43215040002","name":"深海町舟津","lat":32.257644,"lng":130.102818},{"code":"43215040003","name":"深海町東多々良","lat":32.259737,"lng":130.094738},{"code":"43215040004","name":"深海町中浦","lat":32.253335,"lng":130.088171},{"code":"43215040005","name":"深海町浅海","lat":32.246276,"lng":130.075705},{"code":"43215041001","name":"久玉町内の原","lat":32.241491,"lng":130.048494},{"code":"43215041002","name":"久玉町山の浦","lat":32.225444,"lng":130.070563},{"code":"43215041003","name":"久玉町大の浦","lat":32.212557,"lng":130.06206},{"code":"43215041004","name":"久玉町中の浦","lat":32.21307,"lng":130.047332},{"code":"43215041005","name":"久玉町かじや","lat":32.21478,"lng":130.039481},{"code":"43215041006","name":"久玉町明石","lat":32.211225,"lng":130.036504},{"code":"43215041007","name":"久玉町村田","lat":32.217983,"lng":130.033587},{"code":"43215041008","name":"久玉町上揚","lat":32.225602,"lng":130.033792},{"code":"43215041009","name":"久玉町大脇","lat":32.219782,"lng":130.030031},{"code":"43215041010","name":"久玉町吉田一","lat":32.214465,"lng":130.025476},{"code":"43215041011","name":"久玉町吉田二","lat":32.206173,"lng":130.02726},{"code":"432150420","name":"楠甫","lat":32.494004,"lng":130.370149},{"code":"432150430","name":"大浦","lat":32.50997,"lng":130.357968},{"code":"432150440","name":"須子","lat":32.508097,"lng":130.339803},{"code":"432150450","name":"赤崎","lat":32.501219,"lng":130.326797},{"code":"432150460","name":"上津浦","lat":32.486797,"lng":130.316081},{"code":"432150470","name":"下津浦","lat":32.469065,"lng":130.307863},{"code":"432150480","name":"大島子","lat":32.463999,"lng":130.267388},{"code":"432150490","name":"小島子","lat":32.467863,"lng":130.284553},{"code":"43215050001","name":"御所浦字村","lat":32.342734,"lng":130.342981},{"code":"43215050002","name":"御所浦向","lat":32.338148,"lng":130.341359},{"code":"43215050003","name":"御所浦古屋敷","lat":32.337639,"lng":130.3371},{"code":"43215050004","name":"御所浦御所浦","lat":32.326298,"lng":130.343859},{"code":"43215050005","name":"御所浦唐木崎","lat":32.330133,"lng":130.335394},{"code":"43215050006","name":"御所浦元浦","lat":32.31684,"lng":130.333806},{"code":"43215050007","name":"御所浦字大浦","lat":32.31353,"lng":130.326039},{"code":"43215050008","name":"御所浦字上脇","lat":32.348918,"lng":130.35399},{"code":"43215050009","name":"御所浦字下脇","lat":32.351046,"lng":130.353456},{"code":"43215050010","name":"御所浦上竹地","lat":32.347241,"lng":130.356041},{"code":"43215050011","name":"御所浦字下竹地","lat":32.347323,"lng":130.358577},{"code":"43215050012","name":"御所浦越地","lat":32.344994,"lng":130.363719},{"code":"43215050013","name":"御所浦嵐口","lat":32.344292,"lng":130.353675},{"code":"43215050014","name":"御所浦外平","lat":32.329732,"lng":130.359649},{"code":"432150510","name":"竹島","lat":32.33035,"lng":130.29735},{"code":"43215052001","name":"牧島字牧島","lat":32.357513,"lng":130.324245},{"code":"43215052002","name":"牧島字牧本","lat":32.347421,"lng":130.330925},{"code":"43215052003","name":"牧島字長浦","lat":32.351954,"lng":130.312311},{"code":"43215052004","name":"牧島椛の木","lat":32.356941,"lng":130.323572},{"code":"43215053001","name":"横浦字横浦","lat":32.365728,"lng":130.346641},{"code":"43215053002","name":"横浦字崎浦","lat":32.36625,"lng":130.352587},{"code":"43215053003","name":"横浦字杉浦","lat":32.369404,"lng":130.348179},{"code":"432150540","name":"棚底","lat":32.413358,"lng":130.347687},{"code":"432150550","name":"宮田","lat":32.408949,"lng":130.316082},{"code":"432150560","name":"浦","lat":32.432468,"lng":130.355131},{"code":"432150570","name":"馬場","lat":32.42538,"lng":130.264818},{"code":"432150580","name":"打田","lat":32.432821,"lng":130.278766},{"code":"432150590","name":"河内","lat":32.44384,"lng":130.310589},{"code":"432150600","name":"湯船原","lat":32.422407,"lng":130.291649},{"code":"432150610","name":"古江","lat":32.410287,"lng":130.293204},{"code":"43215062101","name":"小宮地","lat":32.368753,"lng":130.168887},{"code":"43215062102","name":"小宮地元浦","lat":32.37597,"lng":130.191068},{"code":"43215062103","name":"小宮地渡ノ浦","lat":32.370738,"lng":130.185067},{"code":"43215062104","name":"小宮地柱崎","lat":32.366058,"lng":130.185577},{"code":"43215062105","name":"小宮地北平","lat":32.367761,"lng":130.179386},{"code":"43215062106","name":"小宮地棒の鶴","lat":32.3677,"lng":130.170322},{"code":"43215062107","name":"小宮地南平","lat":32.36295,"lng":130.177969},{"code":"43215062108","name":"小宮地馬場上","lat":32.359944,"lng":130.177336},{"code":"43215062109","name":"小宮地上切","lat":32.357425,"lng":130.18675},{"code":"43215062110","name":"小宮地下切","lat":32.360836,"lng":130.190515},{"code":"43215062111","name":"小宮地","lat":32.353272,"lng":130.18962},{"code":"43215062112","name":"小宮地赤崎","lat":32.332164,"lng":130.176829},{"code":"43215062113","name":"小宮地浦，新田","lat":32.341392,"lng":130.177813},{"code":"43215062114","name":"小宮地諏訪","lat":32.370916,"lng":130.196807},{"code":"43215062115","name":"小宮地","lat":32.374092,"lng":130.204056},{"code":"43215062201","name":"小宮地竜洞山","lat":32.332826,"lng":130.179805},{"code":"43215062202","name":"小宮地立","lat":32.323196,"lng":130.192618},{"code":"43215062203","name":"小宮地二本木","lat":32.314053,"lng":130.177207},{"code":"43215062204","name":"小宮地高根","lat":32.322986,"lng":130.170759},{"code":"43215063001","name":"大宮地","lat":32.392522,"lng":130.160251},{"code":"43215063002","name":"大宮地中山","lat":32.382612,"lng":130.155557},{"code":"43215063003","name":"大宮地中浪","lat":32.385586,"lng":130.167597},{"code":"43215063004","name":"大宮地中央","lat":32.386189,"lng":130.176741},{"code":"43215063005","name":"大宮地大宮","lat":32.383958,"lng":130.181079},{"code":"43215063006","name":"大宮地釜","lat":32.38463,"lng":130.190314},{"code":"43215064001","name":"大多尾切越","lat":32.350502,"lng":130.200292},{"code":"43215064002","name":"大多尾松尾","lat":32.362368,"lng":130.212136},{"code":"43215064003","name":"大多尾浦方新開","lat":32.358527,"lng":130.213241},{"code":"43215064004","name":"大多尾浦方中","lat":32.35627,"lng":130.210315},{"code":"43215064005","name":"大多尾浦方先","lat":32.354535,"lng":130.211056},{"code":"43215064006","name":"大多尾無田，棚田","lat":32.354677,"lng":130.208665},{"code":"43215064007","name":"大多尾下大多尾","lat":32.344098,"lng":130.204774},{"code":"43215064008","name":"大多尾小峰","lat":32.334558,"lng":130.196967},{"code":"43215064009","name":"大多尾樫浦、天附","lat":32.382442,"lng":130.209483},{"code":"43215064010","name":"大多尾樫浦","lat":32.391403,"lng":130.21282},{"code":"43215064011","name":"大多尾天附","lat":32.385017,"lng":130.218741},{"code":"43215064012","name":"大多尾長野","lat":32.370311,"lng":130.21706},{"code":"43215064013","name":"大多尾横島","lat":32.372358,"lng":130.232704},{"code":"43215065001","name":"中田村中、西","lat":32.343359,"lng":130.146424},{"code":"43215065002","name":"中田赤石、田導寺","lat":32.34735,"lng":130.16044},{"code":"43215065003","name":"中田港","lat":32.333964,"lng":130.162902},{"code":"43215065004","name":"中田東","lat":32.342717,"lng":130.157604},{"code":"43215065005","name":"中田村中","lat":32.347129,"lng":130.150277},{"code":"43215065006","name":"中田西","lat":32.330537,"lng":130.154358},{"code":"43215065007","name":"中田宇土","lat":32.340733,"lng":130.162293},{"code":"43215066001","name":"碇石５番区","lat":32.376942,"lng":130.145387},{"code":"43215066002","name":"碇石４番区","lat":32.36916,"lng":130.148135},{"code":"43215066003","name":"碇石３番区","lat":32.36561,"lng":130.146844},{"code":"43215066004","name":"碇石１番区、３番区","lat":32.362036,"lng":130.142544},{"code":"43215066005","name":"碇石２番区","lat":32.36449,"lng":130.153012},{"code":"43215066006","name":"碇石１番区","lat":32.357512,"lng":130.15071},{"code":"43215066007","name":"碇石１番区、２番区","lat":32.356462,"lng":130.162017},{"code":"432150670","name":"御領","lat":32.518708,"lng":130.179072},{"code":"432150680","name":"城河原","lat":32.489888,"lng":130.138905},{"code":"432150690","name":"手野","lat":32.517154,"lng":130.139383},{"code":"432150700","name":"二江","lat":32.541566,"lng":130.131728},{"code":"432150710","name":"鬼池","lat":32.54137,"lng":130.166446},{"code":"432150720","name":"福連木","lat":32.420933,"lng":130.072088},{"code":"43215073001","name":"下田北","lat":32.412315,"lng":130.032263},{"code":"43215073002","name":"下田南","lat":32.402098,"lng":130.010592},{"code":"43215074001","name":"高浜北","lat":32.379812,"lng":129.998748},{"code":"43215074002","name":"高浜南","lat":32.373621,"lng":130.024567},{"code":"432150750","name":"大江","lat":32.322374,"lng":129.996259},{"code":"432150760","name":"立原","lat":32.343751,"lng":130.133223},{"code":"432150770","name":"新合","lat":32.336887,"lng":130.112657},{"code":"432150780","name":"今田","lat":32.369291,"lng":130.088727},{"code":"432150790","name":"河浦","lat":32.343237,"lng":130.064802},{"code":"432150800","name":"白木河内","lat":32.315815,"lng":130.092255},{"code":"432150810","name":"久留","lat":32.298216,"lng":130.090561},{"code":"432150820","name":"路木","lat":32.273206,"lng":130.072464},{"code":"432150830","name":"崎津","lat":32.30523,"lng":130.023443},{"code":"432150840","name":"今富","lat":32.327838,"lng":130.034323},{"code":"432150850","name":"宮野河内","lat":32.29932,"lng":130.135633}]}
