{"municipality":"43432","name":"阿蘇郡西原村","prefecture":"熊本県","source":{"dataset":"frogcat/japan-small-area","census":"平成27年国勢調査 小地域（e-Stat 統計LOD）","license":"MIT（リポジトリ）／政府統計の総合窓口(e-Stat)の利用規約（元データ・出典表記必要）","fetched":"2026-07-06"},"towns":[{"code":"43432001001","name":"大字鳥子馬場","lat":32.849588,"lng":130.908716},{"code":"43432001002","name":"大字鳥子上鳥子","lat":32.856079,"lng":130.911451},{"code":"43432001003","name":"大字鳥子古閑","lat":32.848355,"lng":130.918549},{"code":"43432001004","name":"大字鳥子原野","lat":32.860705,"lng":130.951545},{"code":"43432001005","name":"大字鳥子木留","lat":32.858524,"lng":130.92661},{"code":"43432001006","name":"大字鳥子西原","lat":32.843601,"lng":130.907054},{"code":"43432001007","name":"大字鳥子鳥子","lat":32.84643,"lng":130.903431},{"code":"43432001008","name":"大字鳥子桃木原","lat":32.844145,"lng":130.914907},{"code":"43432001009","name":"大字鳥子小園","lat":32.853755,"lng":130.900737},{"code":"43432001010","name":"大字鳥子葛目","lat":32.853782,"lng":130.922834},{"code":"43432001011","name":"大字鳥子万徳","lat":32.843761,"lng":130.912116},{"code":"43432002001","name":"大字小森万徳","lat":32.8409,"lng":130.910943},{"code":"43432002002","name":"大字小森西原台","lat":32.840354,"lng":130.885599},{"code":"43432002003","name":"大字小森新所","lat":32.841676,"lng":130.896688},{"code":"43432002004","name":"大字小森下小森","lat":32.834572,"lng":130.90554},{"code":"43432002005","name":"大字小森畑","lat":32.841528,"lng":130.917191},{"code":"43432002006","name":"大字小森風当","lat":32.838685,"lng":130.924158},{"code":"43432002007","name":"大字小森桑鶴","lat":32.853482,"lng":130.940892},{"code":"43432002008","name":"大字小森原野","lat":32.844234,"lng":130.957837},{"code":"43432002009","name":"大字小森袴野","lat":32.837445,"lng":130.933096},{"code":"43432002010","name":"大字小森高遊東","lat":32.838489,"lng":130.8839},{"code":"43432002011","name":"大字小森緑ヶ丘","lat":32.844639,"lng":130.890728},{"code":"43432002012","name":"大字小森星ヶ丘","lat":32.83996,"lng":130.888146},{"code":"43432002013","name":"大字小森名ヶ迫","lat":32.834451,"lng":130.919585},{"code":"43432002014","name":"大字小森大切畑","lat":32.845195,"lng":130.929754},{"code":"43432003001","name":"大字宮山原野","lat":32.813934,"lng":130.958287},{"code":"43432003002","name":"大字宮山出の口","lat":32.828383,"lng":130.926679},{"code":"43432003003","name":"大字宮山多々良","lat":32.821528,"lng":130.910229},{"code":"43432003004","name":"大字宮山宮山","lat":32.824183,"lng":130.914587},{"code":"43432003005","name":"大字宮山広瀬","lat":32.822826,"lng":130.921758},{"code":"43432003006","name":"大字宮山日向","lat":32.82296,"lng":130.902541},{"code":"43432004001","name":"大字布田高遊","lat":32.833896,"lng":130.883449},{"code":"43432004002","name":"大字布田布田","lat":32.826577,"lng":130.891523},{"code":"43432005001","name":"大字河原土林","lat":32.809418,"lng":130.884697},{"code":"43432005002","name":"大字河原秋田","lat":32.813925,"lng":130.880542},{"code":"43432005003","name":"大字河原田中","lat":32.817026,"lng":130.884498},{"code":"43432005004","name":"大字河原門出","lat":32.813994,"lng":130.891852},{"code":"43432005005","name":"大字河原星田","lat":32.819151,"lng":130.891683},{"code":"43432005006","name":"大字河原下古閑","lat":32.817336,"lng":130.901363},{"code":"43432005007","name":"大字河原滝","lat":32.809118,"lng":130.90341},{"code":"43432005008","name":"大字河原小野","lat":32.803051,"lng":130.895436},{"code":"43432005009","name":"大字河原爪生迫","lat":32.803193,"lng":130.880258},{"code":"43432005010","name":"大字河原灰床","lat":32.789468,"lng":130.897303},{"code":"43432005011","name":"大字河原猿帰","lat":32.797859,"lng":130.89759},{"code":"43432005012","name":"大字河原原野","lat":32.796301,"lng":130.931681},{"code":"43432005013","name":"大字河原医王寺","lat":32.815605,"lng":130.911818},{"code":"43432005014","name":"大字河原猿帰","lat":32.794854,"lng":130.894634}]}
