{"municipality":"43447","name":"上益城郡山都町","prefecture":"熊本県","source":{"dataset":"frogcat/japan-small-area","census":"平成27年国勢調査 小地域（e-Stat 統計LOD）","license":"MIT（リポジトリ）／政府統計の総合窓口(e-Stat)の利用規約（元データ・出典表記必要）","fetched":"2026-07-06"},"towns":[{"code":"434470010","name":"大字上川井野","lat":32.687812,"lng":131.04771},{"code":"434470020","name":"大字成君","lat":32.670689,"lng":131.041085},{"code":"434470030","name":"大字川野","lat":32.675547,"lng":131.031447},{"code":"434470040","name":"大字田所","lat":32.662879,"lng":131.017426},{"code":"434470050","name":"大字下川井野","lat":32.667091,"lng":131.011947},{"code":"434470060","name":"大字男成","lat":32.684467,"lng":131.024957},{"code":"434470070","name":"大字野尻","lat":32.679613,"lng":131.013618},{"code":"434470080","name":"大字小笹","lat":32.695455,"lng":131.018442},{"code":"434470090","name":"大字麻山","lat":32.702146,"lng":131.040419},{"code":"434470100","name":"大字入佐","lat":32.700814,"lng":131.003663},{"code":"434470110","name":"大字畑","lat":32.68505,"lng":131.004391},{"code":"434470120","name":"大字田吉","lat":32.672834,"lng":131.001856},{"code":"434470130","name":"大字長原","lat":32.674815,"lng":130.99124},{"code":"434470140","name":"大字犬飼","lat":32.66575,"lng":130.986511},{"code":"434470150","name":"大字新小","lat":32.661321,"lng":130.999119},{"code":"434470160","name":"大字白藤","lat":32.651566,"lng":130.990297},{"code":"434470170","name":"大字菅","lat":32.615447,"lng":131.027239},{"code":"434470180","name":"大字目丸","lat":32.598283,"lng":130.987328},{"code":"434470190","name":"大字津留","lat":32.642845,"lng":130.984894},{"code":"434470200","name":"大字牧野","lat":32.661942,"lng":130.976378},{"code":"434470210","name":"大字白小野","lat":32.65907,"lng":130.961895},{"code":"434470220","name":"大字荒谷","lat":32.650501,"lng":130.971537},{"code":"434470230","name":"大字万坂","lat":32.656304,"lng":130.947533},{"code":"434470240","name":"大字藤木","lat":32.668894,"lng":130.955836},{"code":"434470250","name":"大字勢井","lat":32.669357,"lng":130.950797},{"code":"434470260","name":"大字猿渡","lat":32.68411,"lng":130.933444},{"code":"434470270","name":"大字柚木","lat":32.663299,"lng":130.927426},{"code":"434470280","name":"大字三ケ","lat":32.675587,"lng":130.911505},{"code":"434470290","name":"大字葛原","lat":32.676289,"lng":130.897614},{"code":"434470300","name":"大字北中島","lat":32.750893,"lng":130.931253},{"code":"434470310","name":"大字金内","lat":32.753964,"lng":130.962223},{"code":"434470320","name":"大字田小野","lat":32.760146,"lng":130.983579},{"code":"434470330","name":"大字原","lat":32.712568,"lng":130.955614},{"code":"434470340","name":"大字島木","lat":32.711254,"lng":130.916628},{"code":"434470350","name":"大字下名連石","lat":32.75177,"lng":131.011981},{"code":"434470360","name":"大字御所","lat":32.749285,"lng":131.049795},{"code":"434470370","name":"大字黒川","lat":32.712498,"lng":131.023222},{"code":"434470380","name":"大字城原","lat":32.682083,"lng":130.996957},{"code":"434470390","name":"大字城平","lat":32.702922,"lng":130.991976},{"code":"434470400","name":"大字杉木","lat":32.714286,"lng":130.978127},{"code":"434470410","name":"大字上寺","lat":32.696855,"lng":130.980945},{"code":"434470420","name":"大字南田","lat":32.676194,"lng":130.972456},{"code":"434470430","name":"大字市原","lat":32.689994,"lng":130.954219},{"code":"434470440","name":"大字山田","lat":32.698892,"lng":130.957337},{"code":"434470450","name":"大字芦屋田","lat":32.694942,"lng":130.969904},{"code":"434470460","name":"大字長田","lat":32.6839,"lng":130.965094},{"code":"434470470","name":"大字千滝","lat":32.677413,"lng":130.983857},{"code":"434470480","name":"大字下馬尾","lat":32.685628,"lng":130.983642},{"code":"434470490","name":"大字浜町","lat":32.684049,"lng":130.98704},{"code":"434470500","name":"大字下市","lat":32.681429,"lng":130.989907},{"code":"434470510","name":"大字大平","lat":32.696095,"lng":131.078982},{"code":"434470520","name":"大字鶴ヶ田","lat":32.721035,"lng":131.073194},{"code":"434470530","name":"大字川口","lat":32.763739,"lng":131.082083},{"code":"434470540","name":"大字井無田","lat":32.726477,"lng":131.106417},{"code":"434470550","name":"大字郷野原","lat":32.762258,"lng":131.101292},{"code":"434470560","name":"大字安方","lat":32.711983,"lng":131.122084},{"code":"434470570","name":"大字佛原","lat":32.701418,"lng":131.109482},{"code":"434470580","name":"大字高月","lat":32.707148,"lng":131.101743},{"code":"434470590","name":"大字米生","lat":32.683439,"lng":131.090787},{"code":"434470600","name":"大字小峰","lat":32.67397,"lng":131.074339},{"code":"434470610","name":"大字貫原","lat":32.67833,"lng":131.05676},{"code":"434470620","name":"大字小中竹","lat":32.669766,"lng":131.057792},{"code":"434470630","name":"大字木原谷","lat":32.656136,"lng":131.051794},{"code":"434470640","name":"大字緑川","lat":32.618191,"lng":131.084711},{"code":"434470650","name":"大字尾野尻","lat":32.66163,"lng":131.085335},{"code":"434470660","name":"大字鎌野","lat":32.656302,"lng":131.109058},{"code":"434470670","name":"大字市の原","lat":32.671062,"lng":131.105637},{"code":"434470680","name":"大字仮屋","lat":32.677267,"lng":131.109403},{"code":"434470690","name":"大字須原","lat":32.683852,"lng":131.071777},{"code":"434470700","name":"大字塩出迫","lat":32.725186,"lng":131.134679},{"code":"434470710","name":"大字今","lat":32.729916,"lng":131.155797},{"code":"434470720","name":"大字八木","lat":32.734788,"lng":131.161397},{"code":"434470730","name":"大字花上","lat":32.731704,"lng":131.197428},{"code":"434470740","name":"大字米迫","lat":32.713543,"lng":131.159596},{"code":"434470750","name":"大字菅尾","lat":32.710344,"lng":131.143959},{"code":"434470760","name":"大字塩原","lat":32.707438,"lng":131.132141},{"code":"434470770","name":"大字上差尾","lat":32.748952,"lng":131.12848},{"code":"434470780","name":"大字二津留","lat":32.747154,"lng":131.145095},{"code":"434470790","name":"大字大見口","lat":32.775085,"lng":131.131917},{"code":"434470800","name":"大字伊勢","lat":32.781531,"lng":131.164222},{"code":"434470810","name":"大字柳","lat":32.805827,"lng":131.158599},{"code":"434470820","name":"大字東竹原","lat":32.794511,"lng":131.182252},{"code":"434470830","name":"大字高畑","lat":32.779575,"lng":131.194763},{"code":"434470840","name":"大字下山","lat":32.759814,"lng":131.201908},{"code":"434470850","name":"大字高辻","lat":32.77582,"lng":131.179838},{"code":"434470860","name":"大字長谷","lat":32.761668,"lng":131.177128},{"code":"434470870","name":"大字玉目","lat":32.751985,"lng":131.164139},{"code":"434470880","name":"大字柏","lat":32.738266,"lng":131.174313},{"code":"434470890","name":"大字二瀬本","lat":32.743717,"lng":131.189504},{"code":"434470900","name":"大字橘","lat":32.74855,"lng":131.216504},{"code":"434470910","name":"大字方ケ野","lat":32.689098,"lng":131.114635},{"code":"434470920","name":"大字柳井原","lat":32.696195,"lng":131.128269},{"code":"434470930","name":"大字滝上","lat":32.694516,"lng":131.146858},{"code":"434470940","name":"大字長崎","lat":32.701997,"lng":131.171969},{"code":"434470950","name":"大字神ノ前","lat":32.669086,"lng":131.124563},{"code":"434470960","name":"大字白石","lat":32.674136,"lng":131.135107},{"code":"434470970","name":"大字大野","lat":32.686763,"lng":131.134584},{"code":"434470980","name":"大字馬見原","lat":32.684539,"lng":131.161695}]}
