{"municipality":"43501","name":"球磨郡錦町","prefecture":"熊本県","source":{"dataset":"frogcat/japan-small-area","census":"平成27年国勢調査 小地域（e-Stat 統計LOD）","license":"MIT（リポジトリ）／政府統計の総合窓口(e-Stat)の利用規約（元データ・出典表記必要）","fetched":"2026-07-06"},"towns":[{"code":"43501001009","name":"大字一武９区","lat":32.210479,"lng":130.831196},{"code":"43501001010","name":"大字一武１０区","lat":32.205926,"lng":130.839196},{"code":"43501001011","name":"大字一武１１区","lat":32.198903,"lng":130.849485},{"code":"43501001012","name":"大字一武１２区","lat":32.198275,"lng":130.837361},{"code":"43501001013","name":"大字一武１３区","lat":32.189004,"lng":130.844343},{"code":"43501001014","name":"大字一武１４区","lat":32.195537,"lng":130.862858},{"code":"43501001015","name":"大字一武１５区","lat":32.16471,"lng":130.877014},{"code":"43501001016","name":"大字一武１６区","lat":32.207297,"lng":130.850566},{"code":"43501001017","name":"大字一武１７区","lat":32.21623,"lng":130.841784},{"code":"43501002001","name":"大字西１区","lat":32.198173,"lng":130.795531},{"code":"43501002002","name":"大字西２区","lat":32.186029,"lng":130.811783},{"code":"43501002003","name":"大字西３区","lat":32.152333,"lng":130.845971},{"code":"43501002004","name":"大字西４区","lat":32.18708,"lng":130.832276},{"code":"43501002005","name":"大字西５区","lat":32.194813,"lng":130.817608},{"code":"43501002006","name":"大字西６区","lat":32.198082,"lng":130.820351},{"code":"43501002007","name":"大字西７区","lat":32.202416,"lng":130.81075},{"code":"43501002008","name":"大字西８区","lat":32.203283,"lng":130.823994},{"code":"43501003018","name":"大字木上１８区","lat":32.217122,"lng":130.85262},{"code":"43501003019","name":"大字木上１９区","lat":32.223953,"lng":130.860297},{"code":"43501003020","name":"大字木上２０区","lat":32.236321,"lng":130.85364},{"code":"43501003021","name":"大字木上２１区","lat":32.244777,"lng":130.841308},{"code":"43501003022","name":"大字木上２２区","lat":32.229105,"lng":130.845336},{"code":"43501003023","name":"大字木上２３区","lat":32.230701,"lng":130.833674},{"code":"43501003024","name":"大字木上２４区","lat":32.220628,"lng":130.822657},{"code":"43501003025","name":"大字木上２５区","lat":32.226503,"lng":130.813419},{"code":"43501003026","name":"大字木上２６区","lat":32.23639,"lng":130.818967},{"code":"43501003027","name":"大字木上東","lat":32.23906,"lng":130.846368}]}
