{"municipality":"44208","name":"竹田市","prefecture":"大分県","source":{"dataset":"frogcat/japan-small-area","census":"平成27年国勢調査 小地域（e-Stat 統計LOD）","license":"MIT（リポジトリ）／政府統計の総合窓口(e-Stat)の利用規約（元データ・出典表記必要）","fetched":"2026-07-06"},"towns":[{"code":"442080010","name":"大字竹田町","lat":32.967677,"lng":131.393188},{"code":"442080020","name":"大字竹田","lat":32.965359,"lng":131.398336},{"code":"442080030","name":"大字片ケ瀬","lat":32.960743,"lng":131.411658},{"code":"442080040","name":"大字挟田","lat":32.981992,"lng":131.411816},{"code":"442080050","name":"大字三宅","lat":32.994752,"lng":131.407287},{"code":"442080060","name":"大字中","lat":33.005947,"lng":131.400052},{"code":"442080070","name":"大字枝","lat":32.995256,"lng":131.392632},{"code":"442080080","name":"大字平田","lat":32.983177,"lng":131.362275},{"code":"442080090","name":"大字植木","lat":33.00355,"lng":131.37477},{"code":"442080100","name":"大字会々","lat":32.976204,"lng":131.384209},{"code":"442080110","name":"大字飛田川","lat":32.965493,"lng":131.368003},{"code":"442080120","name":"大字拝田原","lat":32.958212,"lng":131.374419},{"code":"442080130","name":"大字玉来","lat":32.953341,"lng":131.377786},{"code":"442080140","name":"大字吉田","lat":32.941912,"lng":131.375966},{"code":"442080150","name":"大字岩本","lat":32.927621,"lng":131.354967},{"code":"442080160","name":"大字穴井迫","lat":32.951757,"lng":131.351065},{"code":"442080170","name":"大字渡瀬","lat":32.943879,"lng":131.33702},{"code":"442080180","name":"大字向山田","lat":32.954198,"lng":131.330011},{"code":"442080190","name":"大字岩瀬","lat":32.958668,"lng":131.348},{"code":"442080200","name":"大字君ケ園","lat":32.945442,"lng":131.359339},{"code":"442080210","name":"大字入田","lat":32.943195,"lng":131.396232},{"code":"442080220","name":"大字門田","lat":32.92272,"lng":131.370774},{"code":"442080230","name":"大字太田","lat":32.920895,"lng":131.390761},{"code":"442080240","name":"大字田井","lat":32.907674,"lng":131.375855},{"code":"442080250","name":"大字倉木","lat":32.890864,"lng":131.386724},{"code":"442080260","name":"大字神原","lat":32.860234,"lng":131.358725},{"code":"442080270","name":"大字中角","lat":32.882865,"lng":131.344824},{"code":"442080280","name":"大字次倉","lat":32.901679,"lng":131.337632},{"code":"442080290","name":"大字九重野","lat":32.872447,"lng":131.306379},{"code":"442080300","name":"大字戸上","lat":32.953795,"lng":131.310524},{"code":"442080310","name":"大字菅生","lat":32.953804,"lng":131.288854},{"code":"442080320","name":"大字小塚","lat":32.96041,"lng":131.263818},{"code":"442080330","name":"大字今","lat":32.963946,"lng":131.288459},{"code":"442080340","name":"大字市用","lat":32.967994,"lng":131.342102},{"code":"442080350","name":"大字下志土知","lat":32.974373,"lng":131.332729},{"code":"442080360","name":"大字川床","lat":32.963763,"lng":131.317866},{"code":"442080370","name":"大字志土知","lat":32.973964,"lng":131.317564},{"code":"442080380","name":"大字炭竃","lat":32.984355,"lng":131.310865},{"code":"442080390","name":"大字上坂田","lat":32.989946,"lng":131.314715},{"code":"442080400","name":"大字古園","lat":32.999257,"lng":131.306157},{"code":"442080410","name":"大字刈小野","lat":32.989582,"lng":131.290061},{"code":"442080420","name":"大字上畑","lat":32.98082,"lng":131.293466},{"code":"442080430","name":"大字久保","lat":32.977254,"lng":131.280555},{"code":"442080440","name":"大字米納","lat":32.985516,"lng":131.343956},{"code":"442080450","name":"大字高伏","lat":33.011097,"lng":131.35354},{"code":"442080460","name":"大字城原","lat":33.005034,"lng":131.33626},{"code":"442080470","name":"大字下坂田","lat":32.989372,"lng":131.327347},{"code":"442080480","name":"大字福原","lat":33.006058,"lng":131.319424},{"code":"442080490","name":"大字小川","lat":33.011418,"lng":131.308755},{"code":"442080500","name":"荻町馬場","lat":32.928528,"lng":131.296101},{"code":"442080510","name":"荻町桑木","lat":32.917867,"lng":131.267972},{"code":"442080520","name":"荻町木下","lat":32.937078,"lng":131.25807},{"code":"442080530","name":"荻町政所","lat":32.943973,"lng":131.277701},{"code":"442080540","name":"荻町藤渡","lat":32.928984,"lng":131.271218},{"code":"442080550","name":"荻町新藤","lat":32.940426,"lng":131.295284},{"code":"442080560","name":"荻町南河内","lat":32.942095,"lng":131.315113},{"code":"442080570","name":"荻町高城","lat":32.927401,"lng":131.317814},{"code":"442080580","name":"荻町馬背野","lat":32.929637,"lng":131.338456},{"code":"442080590","name":"荻町高練木","lat":32.903519,"lng":131.290913},{"code":"442080600","name":"久住町大字白丹","lat":33.016866,"lng":131.251232},{"code":"442080610","name":"久住町大字久住","lat":33.05678,"lng":131.257563},{"code":"442080620","name":"久住町大字有氏","lat":33.086467,"lng":131.292337},{"code":"442080630","name":"久住町大字仏原","lat":33.071039,"lng":131.337389},{"code":"442080640","name":"久住町大字栢木","lat":33.038073,"lng":131.335266},{"code":"442080650","name":"直入町大字長湯","lat":33.078328,"lng":131.364072},{"code":"442080660","name":"直入町大字神堤","lat":33.053996,"lng":131.394211},{"code":"442080670","name":"直入町大字上田北","lat":33.111163,"lng":131.39464},{"code":"442080680","name":"直入町大字下田北","lat":33.133007,"lng":131.41575}]}
