{"municipality":"44462","name":"玖珠郡玖珠町","prefecture":"大分県","source":{"dataset":"frogcat/japan-small-area","census":"平成27年国勢調査 小地域（e-Stat 統計LOD）","license":"MIT（リポジトリ）／政府統計の総合窓口(e-Stat)の利用規約（元データ・出典表記必要）","fetched":"2026-07-06"},"towns":[{"code":"444620010","name":"大字森","lat":33.332812,"lng":131.177388},{"code":"444620020","name":"大字帆足","lat":33.297024,"lng":131.167587},{"code":"444620030","name":"大字岩室","lat":33.299459,"lng":131.193553},{"code":"444620040","name":"大字日出生","lat":33.312355,"lng":131.265496},{"code":"444620050","name":"大字大隈","lat":33.265605,"lng":131.164777},{"code":"444620060","name":"大字塚脇","lat":33.274885,"lng":131.15483},{"code":"444620070","name":"大字山田","lat":33.271179,"lng":131.145126},{"code":"444620080","name":"大字小田","lat":33.255583,"lng":131.124097},{"code":"444620090","name":"大字山浦","lat":33.22563,"lng":131.099555},{"code":"444620120","name":"大字四日市","lat":33.304236,"lng":131.10792},{"code":"444620140","name":"大字戸畑","lat":33.287573,"lng":131.076741},{"code":"444620150","name":"大字綾垣","lat":33.296862,"lng":131.135932},{"code":"444620160","name":"大字太田","lat":33.341101,"lng":131.142228},{"code":"444620170","name":"大字山下","lat":33.327384,"lng":131.11749},{"code":"444620180","name":"大字古後","lat":33.355931,"lng":131.089114}]}
