{"municipality":"45202","name":"都城市","prefecture":"宮崎県","source":{"dataset":"frogcat/japan-small-area","census":"平成27年国勢調査 小地域（e-Stat 統計LOD）","license":"MIT（リポジトリ）／政府統計の総合窓口(e-Stat)の利用規約（元データ・出典表記必要）","fetched":"2026-07-06"},"towns":[{"code":"452020011","name":"早鈴町","lat":31.715293,"lng":131.073722},{"code":"452020020","name":"姫城町","lat":31.716653,"lng":131.064481},{"code":"452020030","name":"甲斐元町","lat":31.714448,"lng":131.06032},{"code":"452020040","name":"八幡町","lat":31.720083,"lng":131.058295},{"code":"45202005001","name":"松元町東","lat":31.723366,"lng":131.058897},{"code":"45202005002","name":"松元町西","lat":31.72276,"lng":131.05535},{"code":"452020060","name":"牟田町","lat":31.726776,"lng":131.061582},{"code":"452020070","name":"上東町","lat":31.7235,"lng":131.077838},{"code":"452020080","name":"東町","lat":31.722508,"lng":131.071123},{"code":"452020090","name":"蔵原町","lat":31.72255,"lng":131.066585},{"code":"452020100","name":"天神町","lat":31.725699,"lng":131.068617},{"code":"452020110","name":"中原町","lat":31.727561,"lng":131.072221},{"code":"452020120","name":"上町","lat":31.7231,"lng":131.062827},{"code":"452020130","name":"中町","lat":31.726655,"lng":131.065208},{"code":"452020140","name":"前田町","lat":31.72972,"lng":131.068924},{"code":"452020150","name":"平江町","lat":31.736232,"lng":131.065914},{"code":"452020160","name":"小松原町","lat":31.733446,"lng":131.070853},{"code":"452020170","name":"北原町","lat":31.73258,"lng":131.076385},{"code":"452020180","name":"西町","lat":31.719006,"lng":131.054267},{"code":"45202019000","name":"上長飯町","lat":31.71678,"lng":131.090131},{"code":"45202019001","name":"上長飯町南","lat":31.70908,"lng":131.086092},{"code":"45202019002","name":"上長飯町一万城南","lat":31.716643,"lng":131.095984},{"code":"45202020000","name":"一万城町","lat":31.722627,"lng":131.093925},{"code":"45202020001","name":"一万城町南東","lat":31.71918,"lng":131.095623},{"code":"45202021001","name":"菖蒲原町西","lat":31.729731,"lng":131.082799},{"code":"45202021002","name":"菖蒲原町東","lat":31.728911,"lng":131.086772},{"code":"452020220","name":"下長飯町","lat":31.70387,"lng":131.063177},{"code":"452020230","name":"大王町","lat":31.732763,"lng":131.062029},{"code":"452020240","name":"宮丸町","lat":31.729514,"lng":131.057084},{"code":"452020250","name":"志比田町","lat":31.746929,"lng":131.054223},{"code":"452020260","name":"栄町","lat":31.735575,"lng":131.076435},{"code":"452020270","name":"千町","lat":31.73755,"lng":131.082992},{"code":"452020280","name":"立野町","lat":31.730234,"lng":131.098063},{"code":"452020290","name":"早水町","lat":31.735756,"lng":131.095267},{"code":"452020300","name":"郡元町","lat":31.745219,"lng":131.094166},{"code":"452020310","name":"今町","lat":31.690616,"lng":131.034481},{"code":"452020320","name":"大岩田町","lat":31.698429,"lng":131.051807},{"code":"452020330","name":"都島町","lat":31.715177,"lng":131.049162},{"code":"452020340","name":"南鷹尾町","lat":31.718428,"lng":131.04198},{"code":"452020350","name":"五十町","lat":31.708513,"lng":131.035685},{"code":"452020360","name":"平塚町","lat":31.712704,"lng":131.02337},{"code":"452020370","name":"横市町","lat":31.752236,"lng":131.028466},{"code":"452020380","name":"南横市町","lat":31.742945,"lng":131.03537},{"code":"452020390","name":"蓑原町","lat":31.731568,"lng":131.025145},{"code":"452020400","name":"年見町","lat":31.733638,"lng":131.086206},{"code":"452020410","name":"妻ケ丘町","lat":31.727935,"lng":131.077334},{"code":"452020420","name":"花繰町","lat":31.725353,"lng":131.084629},{"code":"452020430","name":"広原町","lat":31.726962,"lng":131.092701},{"code":"452020440","name":"久保原町","lat":31.722609,"lng":131.03253},{"code":"45202045001","name":"鷹尾１丁目","lat":31.726606,"lng":131.050753},{"code":"45202045002","name":"鷹尾２丁目","lat":31.721572,"lng":131.045151},{"code":"45202045003","name":"鷹尾３丁目","lat":31.725945,"lng":131.044365},{"code":"45202045004","name":"鷹尾４丁目","lat":31.726032,"lng":131.040619},{"code":"45202045005","name":"鷹尾５丁目","lat":31.726723,"lng":131.037225},{"code":"452020500","name":"都原町","lat":31.735022,"lng":131.042069},{"code":"452020510","name":"神之山町","lat":31.753493,"lng":131.09905},{"code":"45202053001","name":"上川東１丁目","lat":31.738317,"lng":131.074172},{"code":"45202053002","name":"上川東２丁目","lat":31.740819,"lng":131.076395},{"code":"45202053003","name":"上川東３丁目","lat":31.743569,"lng":131.077218},{"code":"45202053004","name":"上川東４丁目","lat":31.747847,"lng":131.080239},{"code":"45202057001","name":"下川東１丁目","lat":31.739568,"lng":131.068439},{"code":"45202057002","name":"下川東２丁目","lat":31.741942,"lng":131.068041},{"code":"45202057003","name":"下川東３丁目","lat":31.744038,"lng":131.070597},{"code":"45202057004","name":"下川東４丁目","lat":31.747791,"lng":131.070339},{"code":"452020610","name":"若葉町","lat":31.720767,"lng":131.080665},{"code":"452020620","name":"吉尾町","lat":31.756792,"lng":131.074694},{"code":"452020630","name":"金田町","lat":31.77249,"lng":131.078794},{"code":"452020640","name":"太郎坊町","lat":31.783575,"lng":131.091493},{"code":"452020650","name":"高木町","lat":31.784472,"lng":131.106233},{"code":"452020660","name":"都北町","lat":31.764576,"lng":131.095564},{"code":"452020670","name":"上水流町","lat":31.80905,"lng":131.098485},{"code":"452020680","name":"下水流町","lat":31.820805,"lng":131.111064},{"code":"452020690","name":"岩満町","lat":31.836652,"lng":131.098042},{"code":"452020700","name":"丸谷町","lat":31.814696,"lng":131.075257},{"code":"452020710","name":"野々美谷町","lat":31.790751,"lng":131.072142},{"code":"452020720","name":"乙房町","lat":31.765803,"lng":131.047895},{"code":"452020730","name":"関之尾町","lat":31.760493,"lng":131.000119},{"code":"452020740","name":"庄内町","lat":31.779666,"lng":131.010828},{"code":"452020750","name":"菓子野町","lat":31.780595,"lng":131.043143},{"code":"452020760","name":"美川町","lat":31.804028,"lng":130.974149},{"code":"452020770","name":"高野町","lat":31.811395,"lng":130.942586},{"code":"452020780","name":"吉之元町","lat":31.827041,"lng":130.90256},{"code":"452020790","name":"御池町","lat":31.864578,"lng":130.927531},{"code":"452020800","name":"夏尾町","lat":31.855254,"lng":130.971783},{"code":"452020810","name":"梅北町","lat":31.668441,"lng":131.055032},{"code":"452020820","name":"安久町","lat":31.658263,"lng":131.128781},{"code":"452020830","name":"豊満町","lat":31.690419,"lng":131.111036},{"code":"45202084101","name":"祝吉１丁目","lat":31.742017,"lng":131.081325},{"code":"45202084102","name":"祝吉２丁目","lat":31.745712,"lng":131.082831},{"code":"45202084103","name":"祝吉３丁目","lat":31.742027,"lng":131.084412},{"code":"452020842","name":"祝吉町","lat":31.739322,"lng":131.08613},{"code":"45202085001","name":"郡元１丁目","lat":31.743573,"lng":131.089557},{"code":"45202085002","name":"郡元２丁目","lat":31.743039,"lng":131.086813},{"code":"45202085003","name":"郡元３丁目","lat":31.746396,"lng":131.086139},{"code":"45202085004","name":"郡元４丁目","lat":31.746425,"lng":131.09106},{"code":"452020860","name":"山之口町山之口","lat":31.823391,"lng":131.201313},{"code":"452020890","name":"山之口町花木","lat":31.777568,"lng":131.170093},{"code":"452020920","name":"山之口町富吉","lat":31.757509,"lng":131.155568},{"code":"45202094001","name":"高城町大井手立喰","lat":31.801579,"lng":131.143575},{"code":"45202094002","name":"高城町大井手春日","lat":31.79929,"lng":131.141201},{"code":"45202094003","name":"高城町大井手大久保","lat":31.801484,"lng":131.149875},{"code":"45202094004","name":"高城町大井手春日前","lat":31.794707,"lng":131.141756},{"code":"45202094005","name":"高城町大井手横枕","lat":31.796405,"lng":131.136324},{"code":"45202094006","name":"高城町大井手向原","lat":31.786559,"lng":131.143883},{"code":"45202094007","name":"高城町大井手花立","lat":31.784314,"lng":131.145938},{"code":"45202094008","name":"高城町大井手牧ノ原","lat":31.81536,"lng":131.147756},{"code":"45202094009","name":"高城町大井手木崎","lat":31.805036,"lng":131.13986},{"code":"45202094010","name":"高城町大井手七日市","lat":31.794752,"lng":131.131711},{"code":"45202094011","name":"高城町大井手宝光","lat":31.787527,"lng":131.133743},{"code":"45202094012","name":"高城町大井手高城原","lat":31.789583,"lng":131.14492},{"code":"45202095001","name":"高城町桜木弓細工","lat":31.791277,"lng":131.118479},{"code":"45202095002","name":"高城町桜木横弓場","lat":31.781949,"lng":131.126908},{"code":"45202095003","name":"高城町桜木市ヶ迫","lat":31.781631,"lng":131.11602},{"code":"45202095004","name":"高城町桜木竹原田","lat":31.777246,"lng":131.117702},{"code":"45202095005","name":"高城町桜木萩ヶ迫","lat":31.773804,"lng":131.118523},{"code":"45202096001","name":"高城町高城上町","lat":31.801987,"lng":131.13208},{"code":"45202096002","name":"高城町高城同栗","lat":31.800042,"lng":131.133546},{"code":"45202096003","name":"高城町高城中町","lat":31.803651,"lng":131.129862},{"code":"45202097001","name":"高城町穂満坊横馬場","lat":31.8033,"lng":131.134012},{"code":"45202097002","name":"高城町穂満坊和田","lat":31.808513,"lng":131.134799},{"code":"45202097003","name":"高城町穂満坊馬場","lat":31.806516,"lng":131.120198},{"code":"45202097004","name":"高城町穂満坊軍神原","lat":31.81087,"lng":131.129921},{"code":"45202097006","name":"高城町穂満坊小丸","lat":31.813623,"lng":131.122925},{"code":"45202097007","name":"高城町穂満坊桑木丸","lat":31.797238,"lng":131.126993},{"code":"45202097008","name":"高城町穂満坊鳥井前","lat":31.800123,"lng":131.121456},{"code":"45202097010","name":"高城町穂満坊茶園原","lat":31.810778,"lng":131.132835},{"code":"45202097011","name":"高城町穂満坊後迫","lat":31.814417,"lng":131.130934},{"code":"45202097012","name":"高城町穂満坊同栗","lat":31.795884,"lng":131.128962},{"code":"45202098001","name":"高城町石山片前","lat":31.826022,"lng":131.136701},{"code":"45202098003","name":"高城町石山中方","lat":31.833383,"lng":131.123923},{"code":"45202098004","name":"高城町石山新地萩原","lat":31.841538,"lng":131.119506},{"code":"45202098005","name":"高城町石山かくら山","lat":31.843222,"lng":131.144687},{"code":"45202098006","name":"高城町石山香禅寺","lat":31.848048,"lng":131.126917},{"code":"45202099001","name":"高城町有水豊広","lat":31.85517,"lng":131.126368},{"code":"45202099002","name":"高城町有水後西久保","lat":31.865624,"lng":131.120308},{"code":"45202099003","name":"高城町有水前西久保","lat":31.860965,"lng":131.122687},{"code":"45202099004","name":"高城町有水後向","lat":31.865341,"lng":131.139439},{"code":"45202099005","name":"高城町有水太郎","lat":31.906558,"lng":131.157477},{"code":"45202099006","name":"高城町有水田辺","lat":31.885692,"lng":131.145117},{"code":"45202099007","name":"高城町有水雁寺","lat":31.870414,"lng":131.132195},{"code":"45202099008","name":"高城町有水八久保","lat":31.879888,"lng":131.128704},{"code":"45202099009","name":"高城町有水田尾","lat":31.856958,"lng":131.140401},{"code":"45202099010","name":"高城町有水宮平","lat":31.855988,"lng":131.145609},{"code":"45202099012","name":"高城町有水後向、木ノ下","lat":31.855867,"lng":131.132972},{"code":"45202099013","name":"高城町有水下星原","lat":31.853799,"lng":131.151242},{"code":"45202099014","name":"高城町有水上星原","lat":31.848635,"lng":131.157367},{"code":"45202099015","name":"高城町有水市野々","lat":31.862409,"lng":131.155685},{"code":"45202099016","name":"高城町有水七瀬谷","lat":31.877276,"lng":131.167847},{"code":"45202099017","name":"高城町有水岩屋ヶ野","lat":31.864137,"lng":131.182265},{"code":"45202100001","name":"高城町四家様ケ野","lat":31.919763,"lng":131.189364},{"code":"45202100002","name":"高城町四家みのの","lat":31.910952,"lng":131.186739},{"code":"45202100003","name":"高城町四家岳野","lat":31.89439,"lng":131.181032},{"code":"45202100004","name":"高城町四家川間","lat":31.925615,"lng":131.153473},{"code":"45202100005","name":"高城町四家中原","lat":31.933947,"lng":131.175802},{"code":"45202100006","name":"高城町四家大開","lat":31.925138,"lng":131.180789},{"code":"45202100007","name":"高城町四家蕨ケ野","lat":31.915844,"lng":131.17711},{"code":"45202100008","name":"高城町四家雀ケ野","lat":31.934517,"lng":131.1927},{"code":"45202100009","name":"高城町四家本八重","lat":31.924158,"lng":131.206861},{"code":"45202101001","name":"山田町山田牛谷","lat":31.833281,"lng":131.075977},{"code":"45202101002","name":"山田町山田瀬茅","lat":31.829916,"lng":131.068305},{"code":"45202101003","name":"山田町山田毘砂丸","lat":31.825397,"lng":131.058393},{"code":"45202101004","name":"山田町山田万ケ塚","lat":31.819363,"lng":131.05922},{"code":"45202101005","name":"山田町山田田中","lat":31.836652,"lng":131.054777},{"code":"45202101006","name":"山田町山田和田上","lat":31.844479,"lng":131.044737},{"code":"45202101007","name":"山田町山田倉平","lat":31.86626,"lng":131.015024},{"code":"45202101008","name":"山田町山田修行","lat":31.831176,"lng":131.043225},{"code":"45202101010","name":"山田町山田瀬之口","lat":31.82277,"lng":131.026558},{"code":"45202101011","name":"山田町山田西栫","lat":31.816212,"lng":131.038894},{"code":"45202101012","name":"山田町山田石風呂","lat":31.85389,"lng":131.002746},{"code":"45202101013","name":"山田町山田中村","lat":31.824109,"lng":131.037104},{"code":"45202101014","name":"山田町山田長谷","lat":31.815988,"lng":131.050035},{"code":"45202101015","name":"山田町山田百原","lat":31.838232,"lng":131.029678},{"code":"45202101016","name":"山田町山田平山","lat":31.838878,"lng":131.018108},{"code":"45202101017","name":"山田町山田脇之馬場","lat":31.810471,"lng":131.042027},{"code":"45202101018","name":"山田町山田下是位川内","lat":31.818838,"lng":131.014044},{"code":"45202101019","name":"山田町山田上是位川内","lat":31.828967,"lng":130.995587},{"code":"45202101020","name":"山田町山田大古川","lat":31.804275,"lng":131.035185},{"code":"45202101021","name":"山田町山田竹脇","lat":31.803557,"lng":131.045656},{"code":"45202101022","name":"山田町山田浜之段","lat":31.813186,"lng":131.025053},{"code":"45202101023","name":"山田町山田上椎屋","lat":31.841958,"lng":130.996869},{"code":"45202103001","name":"山田町中霧島池之原","lat":31.8147,"lng":131.004328},{"code":"45202103002","name":"山田町中霧島北田","lat":31.805652,"lng":131.022581},{"code":"45202103003","name":"山田町中霧島古江","lat":31.802141,"lng":131.000949},{"code":"45202103004","name":"山田町中霧島山内一","lat":31.795584,"lng":131.021176},{"code":"45202103005","name":"山田町中霧島山内二","lat":31.791829,"lng":131.026697},{"code":"45202103006","name":"山田町中霧島谷頭一","lat":31.790166,"lng":131.055134},{"code":"45202103007","name":"山田町中霧島谷頭二","lat":31.799425,"lng":131.05297},{"code":"45202103008","name":"山田町中霧島谷頭三","lat":31.792874,"lng":131.051994},{"code":"45202103009","name":"山田町中霧島谷頭五","lat":31.793486,"lng":131.043732},{"code":"45202103010","name":"山田町中霧島谷頭六","lat":31.790145,"lng":131.052486},{"code":"45202103011","name":"山田町中霧島谷頭七","lat":31.78853,"lng":131.052181},{"code":"45202103012","name":"山田町中霧島谷頭八","lat":31.787837,"lng":131.053013},{"code":"45202103013","name":"山田町中霧島谷頭九","lat":31.786592,"lng":131.053183},{"code":"45202105001","name":"高崎町前田谷川","lat":31.921463,"lng":131.033191},{"code":"45202105002","name":"高崎町前田町倉","lat":31.912149,"lng":131.035539},{"code":"45202105003","name":"高崎町前田割付","lat":31.911061,"lng":131.042974},{"code":"45202105004","name":"高崎町前田杉倉","lat":31.908502,"lng":131.06441},{"code":"45202105005","name":"高崎町前田栗巣","lat":31.895678,"lng":131.041651},{"code":"45202105006","name":"高崎町前田迫間","lat":31.898656,"lng":131.028099},{"code":"45202105007","name":"高崎町前田山神原","lat":31.902802,"lng":131.018295},{"code":"45202105008","name":"高崎町前田野平","lat":31.889524,"lng":131.022227},{"code":"45202105009","name":"高崎町前田長尾","lat":31.882641,"lng":131.011566},{"code":"45202105010","name":"高崎町前田中山","lat":31.909841,"lng":131.062202},{"code":"45202105011","name":"高崎町前田作ケ倉","lat":31.913221,"lng":131.050742},{"code":"45202106001","name":"高崎町大牟田柏木","lat":31.898078,"lng":131.050535},{"code":"45202106002","name":"高崎町大牟田田平","lat":31.890115,"lng":131.057607},{"code":"45202106003","name":"高崎町大牟田上新田","lat":31.881163,"lng":131.063668},{"code":"45202106004","name":"高崎町大牟田下新田","lat":31.872307,"lng":131.068721},{"code":"45202106005","name":"高崎町大牟田中央団地","lat":31.876902,"lng":131.068603},{"code":"45202106006","name":"高崎町大牟田旭","lat":31.869492,"lng":131.077864},{"code":"45202106007","name":"高崎町大牟田荒場","lat":31.880309,"lng":131.044144},{"code":"45202106008","name":"高崎町大牟田上勢西","lat":31.865907,"lng":131.054593},{"code":"45202106009","name":"高崎町大牟田牟礼水流","lat":31.8499,"lng":131.082501},{"code":"45202106010","name":"高崎町大牟田高坂","lat":31.864244,"lng":131.073679},{"code":"45202106011","name":"高崎町大牟田原村","lat":31.863667,"lng":131.083237},{"code":"45202106012","name":"高崎町大牟田鍋","lat":31.875864,"lng":131.081886},{"code":"45202106013","name":"高崎町大牟田長尾","lat":31.868432,"lng":131.034552},{"code":"45202106014","name":"高崎町大牟田中山","lat":31.89104,"lng":131.065143},{"code":"45202107001","name":"高崎町東霧島田中","lat":31.856477,"lng":131.063252},{"code":"45202107002","name":"高崎町東霧島松ケ水流","lat":31.851355,"lng":131.06956},{"code":"45202107003","name":"高崎町東霧島東","lat":31.843077,"lng":131.06732},{"code":"45202107004","name":"高崎町東霧島権堀","lat":31.844105,"lng":131.077274},{"code":"45202107005","name":"高崎町東霧島長尾","lat":31.848886,"lng":131.053872},{"code":"45202108001","name":"高崎町縄瀬横谷","lat":31.851559,"lng":131.08892},{"code":"45202108002","name":"高崎町縄瀬共和","lat":31.845791,"lng":131.1005},{"code":"45202108003","name":"高崎町縄瀬三和","lat":31.855772,"lng":131.10407},{"code":"45202108004","name":"高崎町縄瀬藏元","lat":31.864237,"lng":131.107795},{"code":"45202109001","name":"高崎町江平塚原","lat":31.868167,"lng":131.095694},{"code":"45202109002","name":"高崎町江平小牧","lat":31.873826,"lng":131.113457},{"code":"45202109003","name":"高崎町江平轟","lat":31.897457,"lng":131.125502},{"code":"45202109004","name":"高崎町江平鵜戸","lat":31.893762,"lng":131.114383},{"code":"45202109005","name":"高崎町江平木下","lat":31.899953,"lng":131.078297},{"code":"45202109006","name":"高崎町江平温水","lat":31.893059,"lng":131.083838},{"code":"45202109007","name":"高崎町江平吉村","lat":31.882954,"lng":131.100486},{"code":"45202109008","name":"高崎町江平炭床","lat":31.904638,"lng":131.10322},{"code":"45202109009","name":"高崎町江平中山","lat":31.908937,"lng":131.083037},{"code":"45202109010","name":"高崎町江平崎山","lat":31.90862,"lng":131.114557},{"code":"45202110001","name":"高崎町笛水椎屋","lat":31.93085,"lng":131.098231},{"code":"45202110002","name":"高崎町笛水後平","lat":31.929444,"lng":131.117149},{"code":"45202110003","name":"高崎町笛水竹元","lat":31.9379,"lng":131.138125},{"code":"45202110005","name":"高崎町笛水崎山","lat":31.922096,"lng":131.126759}]}
