{"municipality":"45401","name":"児湯郡高鍋町","prefecture":"宮崎県","source":{"dataset":"frogcat/japan-small-area","census":"平成27年国勢調査 小地域（e-Stat 統計LOD）","license":"MIT（リポジトリ）／政府統計の総合窓口(e-Stat)の利用規約（元データ・出典表記必要）","fetched":"2026-07-06"},"towns":[{"code":"45401001001","name":"大字高鍋町六日町","lat":32.124677,"lng":131.50751},{"code":"45401001002","name":"大字高鍋町十日町","lat":32.124078,"lng":131.508798},{"code":"45401001003","name":"大字高鍋町石原","lat":32.125285,"lng":131.508649},{"code":"45401001004","name":"大字高鍋町中央通","lat":32.126456,"lng":131.509706},{"code":"45401001005","name":"大字高鍋町筏","lat":32.126208,"lng":131.507415},{"code":"45401001006","name":"大字高鍋町中町","lat":32.126338,"lng":131.508444},{"code":"45401001007","name":"大字高鍋町東町","lat":32.126635,"lng":131.511318},{"code":"45401001008","name":"大字高鍋町上町","lat":32.127643,"lng":131.50822},{"code":"45401001009","name":"大字高鍋町松原町","lat":32.128795,"lng":131.507384},{"code":"45401002001","name":"大字北高鍋筏","lat":32.125369,"lng":131.505967},{"code":"45401002002","name":"大字北高鍋中央通","lat":32.127818,"lng":131.509135},{"code":"45401002003","name":"大字北高鍋東町","lat":32.127902,"lng":131.510806},{"code":"45401002004","name":"大字北高鍋旭通","lat":32.127688,"lng":131.506336},{"code":"45401002005","name":"大字北高鍋道具小路西","lat":32.129852,"lng":131.509319},{"code":"45401002006","name":"大字北高鍋小丸下","lat":32.131552,"lng":131.505849},{"code":"45401002007","name":"大字北高鍋小丸上","lat":32.133931,"lng":131.509173},{"code":"45401002008","name":"大字北高鍋畑田","lat":32.135671,"lng":131.508395},{"code":"45401002009","name":"大字北高鍋後小路","lat":32.132467,"lng":131.510042},{"code":"45401002010","name":"大字北高鍋宮越","lat":32.133866,"lng":131.512367},{"code":"45401002011","name":"大字北高鍋宮越上","lat":32.135589,"lng":131.515838},{"code":"45401002012","name":"大字北高鍋南宮越","lat":32.134705,"lng":131.51451},{"code":"45401002013","name":"大字北高鍋道具小路西","lat":32.129619,"lng":131.512341},{"code":"45401002014","name":"大字北高鍋道具小路東","lat":32.12944,"lng":131.515421},{"code":"45401002015","name":"大字北高鍋道具小路南","lat":32.125912,"lng":131.514663},{"code":"45401002016","name":"大字北高鍋中鶴","lat":32.12169,"lng":131.516308},{"code":"45401002017","name":"大字北高鍋樋渡","lat":32.119071,"lng":131.522559},{"code":"45401002018","name":"大字北高鍋下屋敷","lat":32.123514,"lng":131.523664},{"code":"45401002019","name":"大字北高鍋菖蒲池西","lat":32.127623,"lng":131.518441},{"code":"45401002020","name":"大字北高鍋菖蒲池東","lat":32.127155,"lng":131.520885},{"code":"45401002021","name":"大字北高鍋大池久保","lat":32.133079,"lng":131.518115},{"code":"45401002022","name":"大字北高鍋御屋敷","lat":32.130753,"lng":131.521411},{"code":"45401002023","name":"大字北高鍋萩原","lat":32.128496,"lng":131.524919},{"code":"45401002024","name":"大字北高鍋小丸","lat":32.130424,"lng":131.507905},{"code":"45401003001","name":"大字南高鍋堀の内","lat":32.105548,"lng":131.525694},{"code":"45401003002","name":"大字南高鍋堀の内団地","lat":32.114907,"lng":131.52933},{"code":"45401003003","name":"大字南高鍋下永谷","lat":32.093883,"lng":131.518877},{"code":"45401003004","name":"大字南高鍋上永谷","lat":32.098548,"lng":131.511933},{"code":"45401003005","name":"大字南高鍋雲雀山","lat":32.109912,"lng":131.519286},{"code":"45401003006","name":"大字南高鍋水谷原","lat":32.116731,"lng":131.512184},{"code":"45401003007","name":"大字南高鍋越ヶ溝","lat":32.109254,"lng":131.506894},{"code":"45401003008","name":"大字南高鍋毛作","lat":32.112843,"lng":131.494397},{"code":"45401003009","name":"大字南高鍋新山","lat":32.112072,"lng":131.479644},{"code":"45401003010","name":"大字南高鍋大平寺","lat":32.118312,"lng":131.489727},{"code":"45401003011","name":"大字南高鍋脇","lat":32.123183,"lng":131.497325},{"code":"45401003012","name":"大字南高鍋舞鶴団地","lat":32.119531,"lng":131.497427},{"code":"45401003013","name":"大字南高鍋大工小路","lat":32.120557,"lng":131.504003},{"code":"45401003014","name":"大字南高鍋宮田","lat":32.116632,"lng":131.503426},{"code":"45401003015","name":"大字南高鍋蓑江","lat":32.123663,"lng":131.511346},{"code":"45401003016","name":"大字南高鍋筏","lat":32.123435,"lng":131.506924},{"code":"45401003017","name":"大字南高鍋南町","lat":32.122065,"lng":131.508957},{"code":"45401003018","name":"大字南高鍋石原","lat":32.125388,"lng":131.509434},{"code":"45401003019","name":"大字南高鍋牛牧","lat":32.126706,"lng":131.487267},{"code":"45401004001","name":"大字上江小丸下","lat":32.133454,"lng":131.506251},{"code":"45401004002","name":"大字上江黒谷","lat":32.126837,"lng":131.500522},{"code":"45401004003","name":"大字上江松本","lat":32.130246,"lng":131.501921},{"code":"45401004004","name":"大字上江山下","lat":32.133705,"lng":131.497711},{"code":"45401004005","name":"大字上江東平原","lat":32.135377,"lng":131.504823},{"code":"45401004006","name":"大字上江西平原","lat":32.135754,"lng":131.501828},{"code":"45401004007","name":"大字上江北平原","lat":32.138143,"lng":131.500404},{"code":"45401004008","name":"大字上江水除","lat":32.138245,"lng":131.505348},{"code":"45401004009","name":"大字上江馬場原","lat":32.142787,"lng":131.502396},{"code":"45401004010","name":"大字上江川田","lat":32.14468,"lng":131.497879},{"code":"45401004011","name":"大字上江羽根田","lat":32.139576,"lng":131.493638},{"code":"45401004012","name":"大字上江青木","lat":32.146752,"lng":131.48878},{"code":"45401004013","name":"大字上江老瀬","lat":32.149939,"lng":131.479174},{"code":"45401004014","name":"大字上江牛牧","lat":32.136374,"lng":131.48628},{"code":"45401004015","name":"大字上江南牛牧","lat":32.131459,"lng":131.48387},{"code":"45401004016","name":"大字上江中尾","lat":32.137546,"lng":131.475257},{"code":"45401004017","name":"大字上江小並","lat":32.131533,"lng":131.459561},{"code":"45401004018","name":"大字上江市の山","lat":32.121146,"lng":131.471615},{"code":"45401004019","name":"大字上江中川原","lat":32.147807,"lng":131.503617},{"code":"45401004020","name":"大字上江竹鳩","lat":32.156054,"lng":131.495533},{"code":"45401004021","name":"大字上江上江団地","lat":32.140026,"lng":131.506109},{"code":"45401005001","name":"大字持田宮越上","lat":32.136434,"lng":131.514022},{"code":"45401005003","name":"大字持田小丸出口","lat":32.141842,"lng":131.510572},{"code":"45401005004","name":"大字持田小丸団地","lat":32.14033,"lng":131.510931},{"code":"45401005005","name":"大字持田切原","lat":32.152132,"lng":131.507423},{"code":"45401005006","name":"大字持田兀の下","lat":32.14726,"lng":131.513805},{"code":"45401005007","name":"大字持田坂本","lat":32.142561,"lng":131.518541},{"code":"45401005008","name":"大字持田鬼ヶ久保","lat":32.15771,"lng":131.51525},{"code":"45401005009","name":"大字持田俵橋","lat":32.164551,"lng":131.520716},{"code":"45401005010","name":"大字持田染ヶ岡","lat":32.156103,"lng":131.524997},{"code":"45401005011","name":"大字持田家床","lat":32.146813,"lng":131.523772},{"code":"45401005012","name":"大字持田持田","lat":32.137899,"lng":131.527122},{"code":"45401005013","name":"大字持田正祐寺","lat":32.148782,"lng":131.535771},{"code":"45401005014","name":"大字持田鴫野","lat":32.134421,"lng":131.535482},{"code":"45401005015","name":"大字持田持田団地","lat":32.137464,"lng":131.528772},{"code":"45401005016","name":"大字持田正ヶ井手","lat":32.138656,"lng":131.509411},{"code":"45401006001","name":"大字蚊口浦蚊口西の二","lat":32.126218,"lng":131.52926},{"code":"45401006002","name":"大字蚊口浦蚊口西の一","lat":32.122148,"lng":131.530723},{"code":"45401006003","name":"大字蚊口浦蚊口上","lat":32.126652,"lng":131.533597},{"code":"45401006004","name":"大字蚊口浦蚊口中","lat":32.123526,"lng":131.532827},{"code":"45401006005","name":"大字蚊口浦蚊口下","lat":32.120915,"lng":131.532291}]}
