{"municipality":"45430","name":"東臼杵郡椎葉村","prefecture":"宮崎県","source":{"dataset":"frogcat/japan-small-area","census":"平成27年国勢調査 小地域（e-Stat 統計LOD）","license":"MIT（リポジトリ）／政府統計の総合窓口(e-Stat)の利用規約（元データ・出典表記必要）","fetched":"2026-07-06"},"towns":[{"code":"45430001001","name":"大字下福良字若宮","lat":32.449657,"lng":131.14616},{"code":"45430001002","name":"下福良桑弓野","lat":32.458329,"lng":131.130197},{"code":"45430001003","name":"下福良桑ノ木原","lat":32.404716,"lng":131.187173},{"code":"45430001004","name":"下福良下福良","lat":32.460813,"lng":131.16869},{"code":"45430001005","name":"下福良針金橋","lat":32.4583,"lng":131.153018},{"code":"45430001006","name":"下福良間柏原","lat":32.463114,"lng":131.193139},{"code":"45430001007","name":"下福良佐礼","lat":32.479521,"lng":131.1627},{"code":"45430001008","name":"下福良上椎葉","lat":32.464469,"lng":131.155149},{"code":"45430001009","name":"下福良尾平","lat":32.481814,"lng":131.212167},{"code":"45430001010","name":"下福良下椎葉","lat":32.47545,"lng":131.189674},{"code":"45430001011","name":"下福良野老ヶ八重","lat":32.491024,"lng":131.193894},{"code":"45430001012","name":"下福良十根川","lat":32.512279,"lng":131.206556},{"code":"45430001013","name":"下福良内ノ八重","lat":32.509075,"lng":131.178168},{"code":"45430001014","name":"下福良奥村","lat":32.546476,"lng":131.198167},{"code":"45430001015","name":"下福良中塔","lat":32.522439,"lng":131.149339},{"code":"45430001016","name":"下福良財木","lat":32.585054,"lng":131.190817},{"code":"45430001017","name":"下福良胡摩山","lat":32.550864,"lng":131.149786},{"code":"45430001018","name":"下福良松木","lat":32.485246,"lng":131.131942},{"code":"45430001019","name":"下福良春山、滝","lat":32.497869,"lng":131.103572},{"code":"45430001020","name":"下福良上福良","lat":32.464138,"lng":131.101442},{"code":"45430002001","name":"不土野尾前","lat":32.540023,"lng":131.069109},{"code":"45430002002","name":"不土野向山","lat":32.485917,"lng":131.042675},{"code":"45430002003","name":"不土野尾手納","lat":32.499643,"lng":131.020567},{"code":"45430002004","name":"不土野古枝尾","lat":32.466963,"lng":131.073434},{"code":"45430002005","name":"不土野不土野下","lat":32.443621,"lng":131.070736},{"code":"45430002006","name":"不土野坂本","lat":32.438048,"lng":131.046349},{"code":"45430003001","name":"大河内中山","lat":32.412709,"lng":131.249093},{"code":"45430003002","name":"大河内栂尾","lat":32.393972,"lng":131.232515},{"code":"45430003003","name":"大河内吐野々","lat":32.398447,"lng":131.21001},{"code":"45430003004","name":"大河内大藪","lat":32.34027,"lng":131.132216},{"code":"45430003005","name":"大河内野々首","lat":32.364335,"lng":131.146737},{"code":"45430003006","name":"大河内本郷","lat":32.375198,"lng":131.16201},{"code":"45430003007","name":"大河内合戦原","lat":32.381605,"lng":131.113564},{"code":"45430003008","name":"大河内矢立","lat":32.365332,"lng":131.092575},{"code":"45430003009","name":"大河内川ノ口","lat":32.402701,"lng":131.091197},{"code":"45430003010","name":"大河内小崎","lat":32.432103,"lng":131.099362},{"code":"45430003011","name":"大河内臼杵俣","lat":32.418095,"lng":131.128128},{"code":"45430003012","name":"大河内竹ノ枝尾","lat":32.439041,"lng":131.131002},{"code":"45430004001","name":"松尾中ノ八重","lat":32.468342,"lng":131.263726},{"code":"45430004002","name":"松尾下松尾","lat":32.484649,"lng":131.24741},{"code":"45430004003","name":"松尾上松尾","lat":32.475355,"lng":131.255641},{"code":"45430004004","name":"松尾畑","lat":32.48307,"lng":131.265841},{"code":"45430004005","name":"松尾栗ノ尾","lat":32.495794,"lng":131.272658},{"code":"45430004006","name":"松尾中尾","lat":32.511105,"lng":131.260401},{"code":"45430004007","name":"松尾岩屋戸","lat":32.493472,"lng":131.245807},{"code":"45430004008","name":"松尾小河内","lat":32.509998,"lng":131.231571},{"code":"45430004009","name":"松尾石原","lat":32.485639,"lng":131.22815}]}
