{"municipality":"46218","name":"霧島市","prefecture":"鹿児島県","source":{"dataset":"frogcat/japan-small-area","census":"平成27年国勢調査 小地域（e-Stat 統計LOD）","license":"MIT（リポジトリ）／政府統計の総合窓口(e-Stat)の利用規約（元データ・出典表記必要）","fetched":"2026-07-06"},"towns":[{"code":"462180010","name":"国分重久","lat":31.779902,"lng":130.791101},{"code":"462180020","name":"国分清水","lat":31.74698,"lng":130.780384},{"code":"462180031","name":"国分姫城南","lat":31.755976,"lng":130.765033},{"code":"462180032","name":"国分姫城","lat":31.761186,"lng":130.768146},{"code":"462180040","name":"国分郡田","lat":31.767438,"lng":130.837652},{"code":"462180050","name":"国分台明寺","lat":31.777767,"lng":130.815239},{"code":"462180060","name":"国分川原","lat":31.74303,"lng":130.829969},{"code":"462180070","name":"国分上小川","lat":31.733936,"lng":130.781801},{"code":"462180080","name":"国分名波町","lat":31.734325,"lng":130.78048},{"code":"462180090","name":"国分山下町","lat":31.729221,"lng":130.778765},{"code":"462180100","name":"国分城山町","lat":31.74412,"lng":130.776363},{"code":"46218011001","name":"国分中央１丁目","lat":31.744267,"lng":130.769752},{"code":"46218011002","name":"国分中央２丁目","lat":31.739109,"lng":130.774758},{"code":"46218011003","name":"国分中央３丁目","lat":31.739551,"lng":130.764765},{"code":"46218011004","name":"国分中央４丁目","lat":31.734724,"lng":130.773166},{"code":"46218011005","name":"国分中央５丁目","lat":31.735793,"lng":130.763173},{"code":"46218011006","name":"国分中央６丁目","lat":31.732553,"lng":130.770153},{"code":"46218012000","name":"国分野口","lat":31.741712,"lng":130.754319},{"code":"46218012003","name":"国分野口","lat":31.741913,"lng":130.753333},{"code":"46218013000","name":"国分府中","lat":31.75336,"lng":130.759148},{"code":"46218013001","name":"国分府中","lat":31.749173,"lng":130.765708},{"code":"46218015101","name":"国分新町１丁目","lat":31.75193,"lng":130.76083},{"code":"46218015102","name":"国分新町２丁目","lat":31.753299,"lng":130.765277},{"code":"462180152","name":"国分新町","lat":31.758243,"lng":130.774502},{"code":"462180160","name":"国分松木","lat":31.733634,"lng":130.757102},{"code":"46218017000","name":"国分福島","lat":31.729071,"lng":130.76117},{"code":"46218017001","name":"国分福島１丁目","lat":31.727487,"lng":130.75377},{"code":"46218017002","name":"国分福島２丁目","lat":31.723852,"lng":130.753678},{"code":"46218017003","name":"国分福島３丁目","lat":31.729241,"lng":130.763721},{"code":"46218018000","name":"国分広瀬","lat":31.714218,"lng":130.758108},{"code":"46218018001","name":"国分広瀬１丁目","lat":31.719923,"lng":130.749384},{"code":"46218018002","name":"国分広瀬２丁目","lat":31.720157,"lng":130.75801},{"code":"46218018003","name":"国分広瀬３丁目","lat":31.716275,"lng":130.75678},{"code":"46218018004","name":"国分広瀬４丁目","lat":31.712851,"lng":130.765423},{"code":"462180190","name":"国分湊","lat":31.714336,"lng":130.773868},{"code":"462180200","name":"国分上井","lat":31.729275,"lng":130.796224},{"code":"462180210","name":"国分川内","lat":31.727788,"lng":130.847986},{"code":"462180220","name":"国分敷根","lat":31.700627,"lng":130.797258},{"code":"462180230","name":"国分下井","lat":31.707387,"lng":130.806917},{"code":"462180241","name":"国分上野原テクノパーク","lat":31.713758,"lng":130.796975},{"code":"462180242","name":"国分上野原縄文の森","lat":31.711458,"lng":130.801522},{"code":"462180243","name":"国分上之段","lat":31.696419,"lng":130.834006},{"code":"462180250","name":"国分野口町","lat":31.735576,"lng":130.749215},{"code":"462180260","name":"国分野口東","lat":31.737941,"lng":130.756436},{"code":"462180270","name":"国分野口北","lat":31.740144,"lng":130.750635},{"code":"462180280","name":"国分府中町","lat":31.745136,"lng":130.758979},{"code":"462180290","name":"国分向花町","lat":31.747877,"lng":130.763992},{"code":"462180300","name":"国分松木町","lat":31.731409,"lng":130.752973},{"code":"462180310","name":"国分松木東","lat":31.735943,"lng":130.758623},{"code":"462180320","name":"国分剣之宇都町","lat":31.770104,"lng":130.767393},{"code":"46218033001","name":"国分清水１丁目","lat":31.75035,"lng":130.775302},{"code":"46218033002","name":"国分清水２丁目","lat":31.756188,"lng":130.779134},{"code":"46218033003","name":"国分清水３丁目","lat":31.752966,"lng":130.783145},{"code":"46218033004","name":"国分清水４丁目","lat":31.760985,"lng":130.785808},{"code":"46218033005","name":"国分清水５丁目","lat":31.758525,"lng":130.791351},{"code":"462180340","name":"国分野口西","lat":31.7367,"lng":130.74449},{"code":"46218035001","name":"溝辺町有川瀬竹","lat":31.814796,"lng":130.662144},{"code":"46218035002","name":"溝辺町有川下有川切門","lat":31.817846,"lng":130.67756},{"code":"46218035003","name":"溝辺町有川石原","lat":31.831086,"lng":130.677386},{"code":"46218035004","name":"溝辺町有川上石原","lat":31.834901,"lng":130.679887},{"code":"46218035005","name":"溝辺町有川永尾","lat":31.842957,"lng":130.650136},{"code":"46218035006","name":"溝辺町有川曽我","lat":31.843029,"lng":130.680411},{"code":"46218035012","name":"溝辺町有川陵北","lat":31.836612,"lng":130.684053},{"code":"46218035013","name":"溝辺町有川金割","lat":31.830624,"lng":130.685863},{"code":"46218036005","name":"溝辺町竹子永尾","lat":31.847878,"lng":130.656674},{"code":"46218036006","name":"溝辺町竹子曽我","lat":31.844554,"lng":130.676629},{"code":"46218036007","name":"溝辺町竹子据石ケ岡","lat":31.850345,"lng":130.667902},{"code":"46218036008","name":"溝辺町竹子稲荷","lat":31.860918,"lng":130.65825},{"code":"46218036009","name":"溝辺町竹子宮川内","lat":31.867059,"lng":130.642804},{"code":"46218036010","name":"溝辺町竹子宮久","lat":31.861288,"lng":130.670222},{"code":"46218036024","name":"溝辺町竹子野坂","lat":31.873941,"lng":130.631119},{"code":"46218037010","name":"溝辺町三縄宮久","lat":31.857526,"lng":130.680932},{"code":"46218037011","name":"溝辺町三縄三縄","lat":31.849359,"lng":130.696376},{"code":"46218038012","name":"溝辺町麓陵北","lat":31.833443,"lng":130.695549},{"code":"46218038014","name":"溝辺町麓水尻横頭","lat":31.815042,"lng":130.686572},{"code":"46218038015","name":"溝辺町麓大川内岡","lat":31.810318,"lng":130.696451},{"code":"46218038016","name":"溝辺町麓石峯","lat":31.813103,"lng":130.703104},{"code":"46218038017","name":"溝辺町麓鍋麓原","lat":31.803837,"lng":130.710916},{"code":"46218038018","name":"溝辺町麓玉利","lat":31.795463,"lng":130.703893},{"code":"46218038019","name":"溝辺町麓論地","lat":31.791584,"lng":130.71461},{"code":"46218038020","name":"溝辺町麓陵南","lat":31.799062,"lng":130.710659},{"code":"46218039018","name":"溝辺町崎森玉利","lat":31.787695,"lng":130.702284},{"code":"46218039021","name":"溝辺町崎森西原","lat":31.779619,"lng":130.700728},{"code":"46218039022","name":"溝辺町崎森十三塚","lat":31.772696,"lng":130.708319},{"code":"46218039023","name":"溝辺町崎森桑坂","lat":31.764519,"lng":130.707856},{"code":"462180400","name":"横川町上ノ","lat":31.896225,"lng":130.647814},{"code":"462180410","name":"横川町中ノ","lat":31.898237,"lng":130.703335},{"code":"462180420","name":"横川町下ノ","lat":31.86484,"lng":130.712551},{"code":"462180430","name":"牧園町宿窪田","lat":31.848356,"lng":130.751624},{"code":"462180440","name":"牧園町下中津川","lat":31.822017,"lng":130.774046},{"code":"462180450","name":"牧園町上中津川","lat":31.849912,"lng":130.790743},{"code":"462180460","name":"牧園町三体堂","lat":31.891778,"lng":130.787773},{"code":"462180470","name":"牧園町万膳","lat":31.908166,"lng":130.773879},{"code":"462180480","name":"牧園町持松","lat":31.841357,"lng":130.814344},{"code":"462180490","name":"牧園町高千穂","lat":31.895224,"lng":130.826649},{"code":"462180500","name":"霧島田口","lat":31.871966,"lng":130.864853},{"code":"462180510","name":"霧島大窪","lat":31.817049,"lng":130.850881},{"code":"462180520","name":"霧島川北","lat":31.822512,"lng":130.820697},{"code":"462180530","name":"霧島永水","lat":31.798139,"lng":130.84147},{"code":"462180540","name":"隼人町小浜","lat":31.73968,"lng":130.692062},{"code":"462180550","name":"隼人町野久美田","lat":31.727587,"lng":130.710492},{"code":"462180560","name":"隼人町小田","lat":31.743452,"lng":130.716111},{"code":"462180570","name":"隼人町真孝","lat":31.72806,"lng":130.725612},{"code":"462180580","name":"隼人町朝日","lat":31.754845,"lng":130.724334},{"code":"462180590","name":"隼人町住吉","lat":31.720431,"lng":130.738712},{"code":"462180600","name":"隼人町見次","lat":31.740959,"lng":130.742038},{"code":"462180610","name":"隼人町内山田","lat":31.75026,"lng":130.731591},{"code":"462180620","name":"隼人町内","lat":31.76133,"lng":130.73835},{"code":"462180630","name":"隼人町姫城","lat":31.761845,"lng":130.759962},{"code":"462180640","name":"隼人町東郷","lat":31.76946,"lng":130.746205},{"code":"462180650","name":"隼人町西光寺","lat":31.78033,"lng":130.732788},{"code":"462180660","name":"隼人町松永","lat":31.790143,"lng":130.77256},{"code":"462180670","name":"隼人町嘉例川","lat":31.815946,"lng":130.732966},{"code":"46218068001","name":"隼人町神宮一丁目","lat":31.749344,"lng":130.741168},{"code":"46218068002","name":"隼人町神宮二丁目","lat":31.751257,"lng":130.739162},{"code":"46218068003","name":"隼人町神宮三丁目","lat":31.75273,"lng":130.741926},{"code":"46218068004","name":"隼人町神宮四丁目","lat":31.75492,"lng":130.743493},{"code":"46218068005","name":"隼人町神宮五丁目","lat":31.752267,"lng":130.745814},{"code":"46218068006","name":"隼人町神宮六丁目","lat":31.749015,"lng":130.744917},{"code":"46218069001","name":"隼人町姫城一丁目","lat":31.764158,"lng":130.75598},{"code":"46218069002","name":"隼人町姫城二丁目","lat":31.765238,"lng":130.758367},{"code":"46218069003","name":"隼人町姫城三丁目","lat":31.770476,"lng":130.758816},{"code":"462180700","name":"隼人町東郷","lat":31.770998,"lng":130.756137},{"code":"46218071001","name":"隼人町松永一丁目","lat":31.775175,"lng":130.75968},{"code":"46218071002","name":"隼人町松永二丁目","lat":31.773898,"lng":130.761847},{"code":"46218072001","name":"隼人町内山田一丁目","lat":31.743706,"lng":130.737171},{"code":"46218072002","name":"隼人町内山田二丁目","lat":31.74654,"lng":130.74091},{"code":"46218072003","name":"隼人町内山田三丁目","lat":31.747677,"lng":130.736449},{"code":"46218072004","name":"隼人町内山田四丁目","lat":31.740716,"lng":130.733047},{"code":"462180730","name":"福山町福山","lat":31.658024,"lng":130.83392},{"code":"462180740","name":"福山町福地","lat":31.620488,"lng":130.835197},{"code":"462180750","name":"福山町福沢","lat":31.638473,"lng":130.857324},{"code":"462180760","name":"福山町佳例川","lat":31.697735,"lng":130.884605}]}
