{"municipality":"46217","name":"曽於市","prefecture":"鹿児島県","source":{"dataset":"frogcat/japan-small-area","census":"平成27年国勢調査 小地域（e-Stat 統計LOD）","license":"MIT（リポジトリ）／政府統計の総合窓口(e-Stat)の利用規約（元データ・出典表記必要）","fetched":"2026-07-06"},"towns":[{"code":"46217001101","name":"末吉町上町１丁目","lat":31.653371,"lng":131.024312},{"code":"46217001102","name":"末吉町上町２丁目","lat":31.651844,"lng":131.025681},{"code":"46217001103","name":"末吉町上町３丁目","lat":31.650018,"lng":131.027266},{"code":"46217001104","name":"末吉町上町４丁目","lat":31.652119,"lng":131.021596},{"code":"46217001105","name":"末吉町上町５丁目","lat":31.650067,"lng":131.023275},{"code":"46217001106","name":"末吉町上町６丁目","lat":31.64827,"lng":131.024646},{"code":"46217001107","name":"末吉町上町７丁目","lat":31.649037,"lng":131.02065},{"code":"462170012","name":"末吉町二之方","lat":31.640236,"lng":131.026312},{"code":"462170020","name":"末吉町南之郷","lat":31.622683,"lng":131.091209},{"code":"462170030","name":"末吉町岩崎","lat":31.613875,"lng":131.009338},{"code":"462170040","name":"末吉町諏訪方","lat":31.662171,"lng":130.97345},{"code":"462170050","name":"末吉町深川","lat":31.688141,"lng":130.991532},{"code":"46217006001","name":"末吉町新町１丁目","lat":31.65751,"lng":131.020385},{"code":"46217006002","name":"末吉町新町２丁目","lat":31.658923,"lng":131.020859},{"code":"46217007001","name":"末吉町本町１丁目","lat":31.655339,"lng":131.019932},{"code":"46217007002","name":"末吉町本町２丁目","lat":31.657111,"lng":131.019196},{"code":"46217008001","name":"末吉町栄町１丁目","lat":31.65497,"lng":131.018279},{"code":"46217008002","name":"末吉町栄町２丁目","lat":31.656867,"lng":131.017801},{"code":"462170090","name":"大隅町岩川","lat":31.600433,"lng":130.967466},{"code":"462170100","name":"大隅町坂元","lat":31.637769,"lng":130.953515},{"code":"462170110","name":"大隅町須田木","lat":31.636046,"lng":130.896246},{"code":"462170120","name":"大隅町須田木","lat":31.61445,"lng":130.880654},{"code":"462170130","name":"大隅町恒吉","lat":31.586813,"lng":130.913713},{"code":"462170140","name":"大隅町中之内","lat":31.592594,"lng":130.937542},{"code":"462170150","name":"大隅町月野","lat":31.558994,"lng":130.995209},{"code":"462170160","name":"大隅町荒谷","lat":31.545658,"lng":130.945085},{"code":"462170170","name":"財部町南俣","lat":31.704751,"lng":130.939749},{"code":"462170180","name":"財部町北俣","lat":31.7406,"lng":130.938071},{"code":"462170190","name":"財部町下財部","lat":31.769192,"lng":130.941922}]}
