{"municipality":"46225","name":"姶良市","prefecture":"鹿児島県","source":{"dataset":"frogcat/japan-small-area","census":"平成27年国勢調査 小地域（e-Stat 統計LOD）","license":"MIT（リポジトリ）／政府統計の総合窓口(e-Stat)の利用規約（元データ・出典表記必要）","fetched":"2026-07-06"},"towns":[{"code":"462250010","name":"反土","lat":31.744524,"lng":130.667834},{"code":"462250020","name":"仮屋町","lat":31.74128,"lng":130.664957},{"code":"462250030","name":"新富町","lat":31.74162,"lng":130.669128},{"code":"462250040","name":"諏訪町","lat":31.737944,"lng":130.669777},{"code":"462250050","name":"朝日町","lat":31.735147,"lng":130.668918},{"code":"462250060","name":"本町","lat":31.737536,"lng":130.664746},{"code":"462250070","name":"港町","lat":31.731827,"lng":130.664168},{"code":"462250080","name":"木田","lat":31.740632,"lng":130.651267},{"code":"462250090","name":"錦江町","lat":31.735705,"lng":130.661005},{"code":"462250100","name":"新生町","lat":31.739186,"lng":130.654884},{"code":"462250110","name":"西別府","lat":31.781797,"lng":130.645074},{"code":"462250120","name":"西別府、辺川","lat":31.790972,"lng":130.657012},{"code":"462250130","name":"小山田","lat":31.778249,"lng":130.678238},{"code":"462250140","name":"日木山","lat":31.752511,"lng":130.692274},{"code":"462250150","name":"宮島町","lat":31.727152,"lng":130.627134},{"code":"46225016101","name":"松原町１丁目","lat":31.719205,"lng":130.630602},{"code":"46225016102","name":"松原町２丁目","lat":31.721748,"lng":130.632524},{"code":"46225016103","name":"松原町３丁目","lat":31.723791,"lng":130.633827},{"code":"462250162","name":"東餅田","lat":31.726188,"lng":130.633997},{"code":"462250170","name":"西宮島町","lat":31.724906,"lng":130.621745},{"code":"46225018000","name":"西餅田","lat":31.72827,"lng":130.620448},{"code":"46225018001","name":"西餅田","lat":31.735812,"lng":130.614429},{"code":"462250190","name":"平松","lat":31.713153,"lng":130.591404},{"code":"462250200","name":"池島町","lat":31.717393,"lng":130.614884},{"code":"462250210","name":"永池町","lat":31.715632,"lng":130.612048},{"code":"462250220","name":"脇元","lat":31.69218,"lng":130.609616},{"code":"462250230","name":"船津","lat":31.740803,"lng":130.60222},{"code":"462250240","name":"三拾町","lat":31.751661,"lng":130.622097},{"code":"462250250","name":"鍋倉","lat":31.748328,"lng":130.632159},{"code":"462250260","name":"永瀬","lat":31.755306,"lng":130.596922},{"code":"462250270","name":"増田","lat":31.755298,"lng":130.605168},{"code":"462250280","name":"中津野","lat":31.750226,"lng":130.609048},{"code":"462250290","name":"豊留","lat":31.749998,"lng":130.614594},{"code":"462250300","name":"深水","lat":31.759256,"lng":130.619353},{"code":"462250310","name":"住吉","lat":31.763893,"lng":130.593594},{"code":"462250320","name":"寺師","lat":31.775799,"lng":130.596888},{"code":"462250330","name":"下名","lat":31.774318,"lng":130.610206},{"code":"462250340","name":"上名","lat":31.801922,"lng":130.620619},{"code":"462250350","name":"大山","lat":31.765863,"lng":130.626129},{"code":"462250360","name":"北山","lat":31.842609,"lng":130.603069},{"code":"462250370","name":"木津志","lat":31.818515,"lng":130.580536},{"code":"46225038001","name":"西姶良１丁目","lat":31.729405,"lng":130.603669},{"code":"46225038002","name":"西姶良２丁目","lat":31.731956,"lng":130.603199},{"code":"46225038003","name":"西姶良３丁目","lat":31.731683,"lng":130.598635},{"code":"46225038004","name":"西姶良４丁目","lat":31.734175,"lng":130.601541},{"code":"462250390","name":"上久徳","lat":31.762627,"lng":130.572851},{"code":"462250400","name":"米丸","lat":31.786803,"lng":130.572758},{"code":"462250410","name":"漆","lat":31.834098,"lng":130.556454},{"code":"462250420","name":"西浦","lat":31.808121,"lng":130.534813},{"code":"462250430","name":"北","lat":31.778091,"lng":130.553606},{"code":"462250440","name":"白男","lat":31.769778,"lng":130.536001},{"code":"462250450","name":"久末","lat":31.756978,"lng":130.541892},{"code":"462250460","name":"下久徳","lat":31.751003,"lng":130.585447},{"code":"462250470","name":"上久徳","lat":31.769223,"lng":130.582101},{"code":"462250480","name":"下久徳","lat":31.755689,"lng":130.568328},{"code":"462250490","name":"白男","lat":31.746782,"lng":130.499411},{"code":"462250500","name":"白男","lat":31.785694,"lng":130.520808},{"code":"462250510","name":"米丸","lat":31.802429,"lng":130.555977}]}
