{"municipality":"46222","name":"奄美市","prefecture":"鹿児島県","source":{"dataset":"frogcat/japan-small-area","census":"平成27年国勢調査 小地域（e-Stat 統計LOD）","license":"MIT（リポジトリ）／政府統計の総合窓口(e-Stat)の利用規約（元データ・出典表記必要）","fetched":"2026-07-06"},"towns":[{"code":"462220010","name":"塩浜町","lat":28.391092,"lng":129.490297},{"code":"462220020","name":"矢之脇町","lat":28.383932,"lng":129.491668},{"code":"462220030","name":"入舟町","lat":28.381922,"lng":129.493866},{"code":"462220040","name":"金久町","lat":28.380603,"lng":129.491465},{"code":"462220050","name":"柳町","lat":28.379791,"lng":129.489072},{"code":"462220060","name":"幸町","lat":28.37851,"lng":129.493294},{"code":"462220070","name":"井根町","lat":28.376002,"lng":129.490507},{"code":"462220080","name":"永田町","lat":28.37037,"lng":129.487343},{"code":"462220090","name":"末広町","lat":28.37828,"lng":129.495416},{"code":"462220100","name":"港町","lat":28.380589,"lng":129.496186},{"code":"462220110","name":"伊津部町","lat":28.377974,"lng":129.497974},{"code":"462220120","name":"石橋町","lat":28.374332,"lng":129.498564},{"code":"462220130","name":"久里町","lat":28.373551,"lng":129.496859},{"code":"462220140","name":"古田町","lat":28.370156,"lng":129.498636},{"code":"462220150","name":"真名津町","lat":28.365161,"lng":129.499061},{"code":"462220160","name":"平田町","lat":28.358455,"lng":129.493541},{"code":"462220170","name":"春日町","lat":28.359608,"lng":129.507594},{"code":"462220180","name":"小俣町","lat":28.369915,"lng":129.502072},{"code":"462220190","name":"安勝町","lat":28.374932,"lng":129.501405},{"code":"462220200","name":"小浜町","lat":28.3845,"lng":129.502923},{"code":"462220210","name":"佐大熊町","lat":28.385785,"lng":129.507048},{"code":"462220220","name":"長浜町","lat":28.396505,"lng":129.494443},{"code":"462220230","name":"鳩浜町","lat":28.399176,"lng":129.520223},{"code":"462220330","name":"大字芦花部","lat":28.430038,"lng":129.541351},{"code":"462220340","name":"大字有良","lat":28.434781,"lng":129.528631},{"code":"462220351","name":"朝日町","lat":28.397358,"lng":129.527109},{"code":"462220352","name":"大字大熊","lat":28.410306,"lng":129.530233},{"code":"462220361","name":"浦上町","lat":28.393858,"lng":129.533142},{"code":"462220362","name":"大字浦上","lat":28.389063,"lng":129.544354},{"code":"462220371","name":"有屋町","lat":28.392171,"lng":129.528484},{"code":"462220372","name":"大字有屋","lat":28.379721,"lng":129.517169},{"code":"462220373","name":"和光町","lat":28.386711,"lng":129.520566},{"code":"462220381","name":"仲勝町","lat":28.387718,"lng":129.527243},{"code":"462220382","name":"大字仲勝","lat":28.375775,"lng":129.530885},{"code":"462220390","name":"大字根瀬部","lat":28.379739,"lng":129.420574},{"code":"462220400","name":"大字知名瀬","lat":28.357591,"lng":129.440853},{"code":"462220420","name":"大字小宿","lat":28.384833,"lng":129.465987},{"code":"462220430","name":"大字朝仁","lat":28.394833,"lng":129.484308},{"code":"462220440","name":"大字崎原","lat":28.341381,"lng":129.557971},{"code":"462220450","name":"大字小湊","lat":28.313758,"lng":129.533677},{"code":"462220460","name":"大字名瀬勝","lat":28.337482,"lng":129.533178},{"code":"462220470","name":"大字西仲勝","lat":28.322301,"lng":129.517871},{"code":"462220480","name":"大字西仲勝","lat":28.309081,"lng":129.509556},{"code":"462220490","name":"大字伊津部勝","lat":28.340271,"lng":129.515205},{"code":"462220500","name":"大字朝戸","lat":28.33888,"lng":129.475303},{"code":"462220520","name":"大字西仲勝","lat":28.318023,"lng":129.495998},{"code":"462220530","name":"浜里町","lat":28.398799,"lng":129.471576},{"code":"462220540","name":"平松町","lat":28.399644,"lng":129.468418},{"code":"462220550","name":"朝仁町","lat":28.398366,"lng":129.480237},{"code":"462220560","name":"朝仁新町","lat":28.396112,"lng":129.484915},{"code":"462220570","name":"大字川内","lat":28.310331,"lng":129.423279},{"code":"462220580","name":"大字城","lat":28.314173,"lng":129.457107},{"code":"462220590","name":"大字和瀬","lat":28.298522,"lng":129.47808},{"code":"462220600","name":"大字見里","lat":28.275113,"lng":129.445994},{"code":"462220610","name":"大字東仲間","lat":28.284731,"lng":129.430227},{"code":"462220620","name":"大字西仲間","lat":28.282623,"lng":129.395436},{"code":"462220630","name":"大字摺勝","lat":28.299245,"lng":129.444243},{"code":"462220640","name":"大字石原","lat":28.256775,"lng":129.427903},{"code":"46222065001","name":"大字役勝字上役勝","lat":28.23281,"lng":129.376787},{"code":"46222065002","name":"大字役勝字中役勝","lat":28.256595,"lng":129.369407},{"code":"46222065003","name":"大字役勝字下役勝","lat":28.259114,"lng":129.394645},{"code":"462220660","name":"大字山間","lat":28.230086,"lng":129.414301},{"code":"462220670","name":"大字市","lat":28.21516,"lng":129.445531},{"code":"462220680","name":"大字屋仁","lat":28.487159,"lng":129.666891},{"code":"462220690","name":"大字佐仁","lat":28.509014,"lng":129.675701},{"code":"462220700","name":"大字用","lat":28.513327,"lng":129.688443},{"code":"462220710","name":"大字笠利","lat":28.488075,"lng":129.688074},{"code":"462220720","name":"大字辺留","lat":28.48255,"lng":129.698124},{"code":"462220730","name":"大字須野","lat":28.470812,"lng":129.702037},{"code":"462220740","name":"大字宇宿","lat":28.451463,"lng":129.706019},{"code":"462220750","name":"大字万屋","lat":28.443957,"lng":129.710875},{"code":"462220760","name":"大字和野","lat":28.42977,"lng":129.71031},{"code":"462220770","name":"大字節田","lat":28.415475,"lng":129.688362},{"code":"462220780","name":"大字平","lat":28.423872,"lng":129.686749},{"code":"462220790","name":"大字用安","lat":28.406287,"lng":129.654344},{"code":"462220800","name":"大字喜瀬","lat":28.423488,"lng":129.657658},{"code":"462220810","name":"大字手花部","lat":28.442187,"lng":129.665105},{"code":"462220820","name":"大字外金久","lat":28.45502,"lng":129.682441},{"code":"462220830","name":"大字中金久","lat":28.452978,"lng":129.674651},{"code":"462220840","name":"大字里","lat":28.450928,"lng":129.680068},{"code":"462220850","name":"大字川上","lat":28.486725,"lng":129.667858}]}
