{"municipality":"46491","name":"肝属郡南大隅町","prefecture":"鹿児島県","source":{"dataset":"frogcat/japan-small-area","census":"平成27年国勢調査 小地域（e-Stat 統計LOD）","license":"MIT（リポジトリ）／政府統計の総合窓口(e-Stat)の利用規約（元データ・出典表記必要）","fetched":"2026-07-06"},"towns":[{"code":"464910010","name":"根占川北","lat":31.222399,"lng":130.812708},{"code":"464910020","name":"根占川南","lat":31.20899,"lng":130.781478},{"code":"464910030","name":"根占山本","lat":31.197547,"lng":130.773222},{"code":"464910040","name":"根占辺田","lat":31.148549,"lng":130.770526},{"code":"464910050","name":"根占横別府","lat":31.1605,"lng":130.810821},{"code":"464910060","name":"佐多伊座敷","lat":31.08765,"lng":130.712755},{"code":"464910070","name":"佐多馬籠","lat":31.05867,"lng":130.706663},{"code":"464910080","name":"佐多郡","lat":31.073927,"lng":130.752327},{"code":"464910090","name":"佐多辺塚","lat":31.109354,"lng":130.83452}]}
