{"municipality":"46525","name":"大島郡瀬戸内町","prefecture":"鹿児島県","source":{"dataset":"frogcat/japan-small-area","census":"平成27年国勢調査 小地域（e-Stat 統計LOD）","license":"MIT（リポジトリ）／政府統計の総合窓口(e-Stat)の利用規約（元データ・出典表記必要）","fetched":"2026-07-06"},"towns":[{"code":"465250010","name":"大字西古見","lat":28.227635,"lng":129.259434},{"code":"465250020","name":"大字小名瀬","lat":28.176893,"lng":129.300645},{"code":"465250030","name":"大字古仁屋","lat":28.181033,"lng":129.361143},{"code":"465250040","name":"大字実久","lat":28.149317,"lng":129.220248},{"code":"465250050","name":"大字花富","lat":28.097525,"lng":129.292141},{"code":"465250060","name":"大字請阿室","lat":28.029256,"lng":129.2387},{"code":"465250070","name":"大字与路","lat":28.039608,"lng":129.159487}]}
