{"municipality":"47214","name":"宮古島市","prefecture":"沖縄県","source":{"dataset":"frogcat/japan-small-area","census":"平成27年国勢調査 小地域（e-Stat 統計LOD）","license":"MIT（リポジトリ）／政府統計の総合窓口(e-Stat)の利用規約（元データ・出典表記必要）","fetched":"2026-07-06"},"towns":[{"code":"472140010","name":"字下里","lat":24.781548,"lng":125.297046},{"code":"472140020","name":"字西里","lat":24.789299,"lng":125.305881},{"code":"472140030","name":"字東仲宗根","lat":24.803752,"lng":125.293645},{"code":"472140040","name":"字西仲宗根","lat":24.809622,"lng":125.306299},{"code":"472140050","name":"字荷川取","lat":24.827867,"lng":125.285389},{"code":"472140060","name":"字久貝","lat":24.792918,"lng":125.266103},{"code":"472140070","name":"字松原","lat":24.782549,"lng":125.275641},{"code":"472140080","name":"字東仲宗根添","lat":24.788416,"lng":125.333307},{"code":"472140090","name":"字西原","lat":24.824921,"lng":125.314141},{"code":"472140100","name":"字大浦","lat":24.845461,"lng":125.302036},{"code":"472140110","name":"字島尻","lat":24.868247,"lng":125.298007},{"code":"472140120","name":"字狩俣","lat":24.878012,"lng":125.282473},{"code":"472140140","name":"字池間","lat":24.924586,"lng":125.246578},{"code":"472140150","name":"字前里","lat":24.931298,"lng":125.242726},{"code":"472140170","name":"字大神","lat":24.916254,"lng":125.307929},{"code":"472140180","name":"字福里","lat":24.750247,"lng":125.394468},{"code":"472140190","name":"字西里添","lat":24.749524,"lng":125.3701},{"code":"472140200","name":"字保良","lat":24.73792,"lng":125.433553},{"code":"472140210","name":"字友利","lat":24.732106,"lng":125.371812},{"code":"472140220","name":"字砂川","lat":24.738875,"lng":125.353849},{"code":"472140230","name":"字下里添","lat":24.758013,"lng":125.342333},{"code":"472140240","name":"字長間","lat":24.776797,"lng":125.361181},{"code":"472140250","name":"字比嘉","lat":24.769314,"lng":125.380552},{"code":"472140260","name":"字新城","lat":24.751506,"lng":125.414016},{"code":"472140270","name":"字与那覇","lat":24.743099,"lng":125.267835},{"code":"472140280","name":"字上地","lat":24.748671,"lng":125.290313},{"code":"472140290","name":"字洲鎌","lat":24.734508,"lng":125.287786},{"code":"472140300","name":"字嘉手苅","lat":24.732412,"lng":125.302903},{"code":"472140310","name":"字川満","lat":24.761917,"lng":125.296464},{"code":"472140320","name":"字来間","lat":24.721618,"lng":125.247682},{"code":"472140330","name":"字上野","lat":24.741079,"lng":125.311267},{"code":"472140340","name":"字野原","lat":24.755185,"lng":125.323949},{"code":"472140350","name":"字新里","lat":24.731639,"lng":125.339779},{"code":"472140360","name":"字宮国","lat":24.72534,"lng":125.319843},{"code":"472140370","name":"字伊良部","lat":24.815364,"lng":125.187365},{"code":"472140380","name":"字仲地","lat":24.823442,"lng":125.178526},{"code":"472140390","name":"字国仲","lat":24.820013,"lng":125.156517},{"code":"472140400","name":"字長浜","lat":24.836907,"lng":125.17433},{"code":"472140410","name":"字佐和田","lat":24.851651,"lng":125.169619},{"code":"472140420","name":"字池間添","lat":24.820981,"lng":125.207694},{"code":"472140430","name":"字前里添","lat":24.843226,"lng":125.194952}]}
