{"municipality":"47325","name":"中頭郡嘉手納町","prefecture":"沖縄県","source":{"dataset":"frogcat/japan-small-area","census":"平成27年国勢調査 小地域（e-Stat 統計LOD）","license":"MIT（リポジトリ）／政府統計の総合窓口(e-Stat)の利用規約（元データ・出典表記必要）","fetched":"2026-07-06"},"towns":[{"code":"473250010","name":"字屋良","lat":26.367576,"lng":127.768714},{"code":"473250020","name":"字嘉手納","lat":26.36454,"lng":127.755422},{"code":"473250031","name":"水釜","lat":26.357146,"lng":127.741272},{"code":"473250032","name":"字水釜","lat":26.35978,"lng":127.74607},{"code":"473250033","name":"字兼久","lat":26.352939,"lng":127.743435},{"code":"473250050","name":"字野里","lat":26.352975,"lng":127.764603},{"code":"473250060","name":"字久得","lat":26.386129,"lng":127.778855},{"code":"473250070","name":"屋良","lat":26.365098,"lng":127.763239}]}
