{"municipality":"47359","name":"島尻郡伊平屋村","prefecture":"沖縄県","source":{"dataset":"frogcat/japan-small-area","census":"平成27年国勢調査 小地域（e-Stat 統計LOD）","license":"MIT（リポジトリ）／政府統計の総合窓口(e-Stat)の利用規約（元データ・出典表記必要）","fetched":"2026-07-06"},"towns":[{"code":"473590010","name":"字田名","lat":27.076451,"lng":127.996559},{"code":"473590020","name":"字前泊","lat":27.052057,"lng":127.978999},{"code":"473590030","name":"字我喜屋","lat":27.035638,"lng":127.957881},{"code":"473590040","name":"字島尻","lat":27.019337,"lng":127.94212},{"code":"473590050","name":"字野甫","lat":26.995178,"lng":127.920416}]}
