{"municipality":"47354","name":"島尻郡座間味村","prefecture":"沖縄県","source":{"dataset":"frogcat/japan-small-area","census":"平成27年国勢調査 小地域（e-Stat 統計LOD）","license":"MIT（リポジトリ）／政府統計の総合窓口(e-Stat)の利用規約（元データ・出典表記必要）","fetched":"2026-07-06"},"towns":[{"code":"473540010","name":"字座間味","lat":26.219196,"lng":127.307979},{"code":"473540020","name":"字阿嘉","lat":26.191368,"lng":127.267332},{"code":"473540030","name":"字慶留間","lat":26.175085,"lng":127.290216},{"code":"473540040","name":"字阿佐","lat":26.236921,"lng":127.308372},{"code":"473540050","name":"字阿真","lat":26.217963,"lng":127.254834}]}
