{"municipality":"47362","name":"島尻郡八重瀬町","prefecture":"沖縄県","source":{"dataset":"frogcat/japan-small-area","census":"平成27年国勢調査 小地域（e-Stat 統計LOD）","license":"MIT（リポジトリ）／政府統計の総合窓口(e-Stat)の利用規約（元データ・出典表記必要）","fetched":"2026-07-06"},"towns":[{"code":"473620010","name":"字東風平","lat":26.152568,"lng":127.721436},{"code":"473620020","name":"字伊覇","lat":26.160136,"lng":127.721382},{"code":"473620030","name":"字上田原","lat":26.160491,"lng":127.71433},{"code":"473620040","name":"字屋宜原","lat":26.163506,"lng":127.727131},{"code":"473620050","name":"字富盛","lat":26.131047,"lng":127.724948},{"code":"473620060","name":"字世名城","lat":26.137715,"lng":127.717723},{"code":"473620070","name":"字高良","lat":26.13082,"lng":127.71055},{"code":"473620080","name":"字志多伯","lat":26.152945,"lng":127.709692},{"code":"473620090","name":"字当銘","lat":26.14966,"lng":127.701336},{"code":"473620100","name":"字小城","lat":26.158008,"lng":127.704967},{"code":"473620110","name":"字宜次","lat":26.171336,"lng":127.711086},{"code":"473620120","name":"字外間","lat":26.177389,"lng":127.713799},{"code":"473620130","name":"字友寄","lat":26.168462,"lng":127.71889},{"code":"473620140","name":"字具志頭","lat":26.125726,"lng":127.746854},{"code":"473620150","name":"字新城","lat":26.137165,"lng":127.742924},{"code":"473620160","name":"字後原","lat":26.146408,"lng":127.734953},{"code":"473620170","name":"字大頓","lat":26.128958,"lng":127.735345},{"code":"473620180","name":"字玻名城","lat":26.114735,"lng":127.737904},{"code":"473620190","name":"字安里","lat":26.114012,"lng":127.728963},{"code":"473620200","name":"字与座","lat":26.115758,"lng":127.731929},{"code":"473620210","name":"字仲座","lat":26.112958,"lng":127.723356},{"code":"473620220","name":"字港川","lat":26.126189,"lng":127.758648},{"code":"473620230","name":"字長毛","lat":26.130557,"lng":127.755945}]}
