{"municipality":"47381","name":"八重山郡竹富町","prefecture":"沖縄県","source":{"dataset":"frogcat/japan-small-area","census":"平成27年国勢調査 小地域（e-Stat 統計LOD）","license":"MIT（リポジトリ）／政府統計の総合窓口(e-Stat)の利用規約（元データ・出典表記必要）","fetched":"2026-07-06"},"towns":[{"code":"473810010","name":"字上原","lat":24.386653,"lng":123.813964},{"code":"473810020","name":"字高那","lat":24.369956,"lng":123.890233},{"code":"473810030","name":"字古見","lat":24.334351,"lng":123.881983},{"code":"473810040","name":"字南風見仲","lat":24.299321,"lng":123.871247},{"code":"473810050","name":"字南風見","lat":24.297523,"lng":123.815344},{"code":"473810060","name":"字西表","lat":24.34612,"lng":123.757183},{"code":"473810070","name":"字崎山","lat":24.299913,"lng":123.692383},{"code":"473810080","name":"字鳩間","lat":24.472549,"lng":123.82005},{"code":"473810090","name":"字小浜","lat":24.340525,"lng":123.981601},{"code":"473810100","name":"字竹富","lat":24.32507,"lng":124.088053},{"code":"473810110","name":"字黒島","lat":24.237792,"lng":124.010259},{"code":"473810120","name":"字新城","lat":24.225537,"lng":123.937977},{"code":"473810130","name":"字波照間","lat":24.058544,"lng":123.782357}]}
