{"municipality":"01103","name":"札幌市東区","prefecture":"北海道","source":{"dataset":"frogcat/japan-small-area","census":"平成27年国勢調査 小地域（e-Stat 統計LOD）","license":"MIT（リポジトリ）／政府統計の総合窓口(e-Stat)の利用規約（元データ・出典表記必要）","fetched":"2026-07-06"},"towns":[{"code":"01103010001","name":"苗穂町１丁目","lat":43.069939,"lng":141.383551},{"code":"01103010002","name":"苗穂町２丁目","lat":43.07134,"lng":141.382835},{"code":"01103010003","name":"苗穂町３丁目","lat":43.073681,"lng":141.384392},{"code":"01103010004","name":"苗穂町４丁目","lat":43.075734,"lng":141.385851},{"code":"01103010005","name":"苗穂町５丁目","lat":43.075002,"lng":141.388107},{"code":"01103010006","name":"苗穂町６丁目","lat":43.07287,"lng":141.386534},{"code":"01103010007","name":"苗穂町７丁目","lat":43.070858,"lng":141.386773},{"code":"01103010008","name":"苗穂町８丁目","lat":43.072339,"lng":141.389639},{"code":"01103010009","name":"苗穂町９丁目","lat":43.074419,"lng":141.390681},{"code":"01103010010","name":"苗穂町１０丁目","lat":43.073018,"lng":141.392625},{"code":"01103010011","name":"苗穂町１１丁目","lat":43.069987,"lng":141.390719},{"code":"01103010012","name":"苗穂町１２丁目","lat":43.071151,"lng":141.392437},{"code":"01103010013","name":"苗穂町１３丁目","lat":43.071401,"lng":141.394644},{"code":"01103010014","name":"苗穂町１４丁目","lat":43.072914,"lng":141.394702},{"code":"01103010015","name":"苗穂町１５丁目","lat":43.07197,"lng":141.396471},{"code":"01103010016","name":"苗穂町１６丁目","lat":43.07031,"lng":141.396537},{"code":"011030400","name":"栄町","lat":43.121059,"lng":141.37443},{"code":"011030500","name":"丘珠町","lat":43.117286,"lng":141.398787},{"code":"01103060101","name":"本町一条１丁目","lat":43.080253,"lng":141.379906},{"code":"01103060102","name":"本町一条２丁目","lat":43.079512,"lng":141.382545},{"code":"01103060103","name":"本町一条３丁目","lat":43.078534,"lng":141.384904},{"code":"01103060104","name":"本町一条４丁目","lat":43.077719,"lng":141.387136},{"code":"01103060105","name":"本町一条５丁目","lat":43.077043,"lng":141.388969},{"code":"01103060106","name":"本町一条６丁目","lat":43.076474,"lng":141.390482},{"code":"01103060107","name":"本町一条７丁目","lat":43.075596,"lng":141.392218},{"code":"01103060108","name":"本町一条８丁目","lat":43.075018,"lng":141.39414},{"code":"01103060109","name":"本町一条９丁目","lat":43.07435,"lng":141.395953},{"code":"01103060110","name":"本町一条１０丁目","lat":43.07345,"lng":141.398038},{"code":"01103060111","name":"本町一条１１丁目","lat":43.072061,"lng":141.399909},{"code":"01103060201","name":"本町二条１丁目","lat":43.081906,"lng":141.380955},{"code":"01103060202","name":"本町二条２丁目","lat":43.081449,"lng":141.383974},{"code":"01103060203","name":"本町二条３丁目","lat":43.080544,"lng":141.386412},{"code":"01103060204","name":"本町二条４丁目","lat":43.079674,"lng":141.388655},{"code":"01103060205","name":"本町二条５丁目","lat":43.078955,"lng":141.390452},{"code":"01103060206","name":"本町二条６丁目","lat":43.078375,"lng":141.392236},{"code":"01103060207","name":"本町二条７丁目","lat":43.077407,"lng":141.393714},{"code":"01103060208","name":"本町二条８丁目","lat":43.076909,"lng":141.395558},{"code":"01103060209","name":"本町二条９丁目","lat":43.076221,"lng":141.397331},{"code":"01103060210","name":"本町二条１０丁目","lat":43.075287,"lng":141.399857},{"code":"01103060211","name":"本町二条１１丁目","lat":43.074038,"lng":141.40202},{"code":"011030700","name":"東苗穂町","lat":43.110572,"lng":141.416773},{"code":"011030800","name":"東雁来町","lat":43.103333,"lng":141.440213},{"code":"011030900","name":"中沼町","lat":43.136478,"lng":141.437615},{"code":"01103100102","name":"伏古一条２丁目","lat":43.083855,"lng":141.386605},{"code":"01103100103","name":"伏古一条３丁目","lat":43.082075,"lng":141.38846},{"code":"01103100104","name":"伏古一条４丁目","lat":43.081409,"lng":141.390034},{"code":"01103100105","name":"伏古一条５丁目","lat":43.080665,"lng":141.391789},{"code":"01103100203","name":"伏古二条３丁目","lat":43.083636,"lng":141.389666},{"code":"01103100204","name":"伏古二条４丁目","lat":43.083011,"lng":141.391293},{"code":"01103100205","name":"伏古二条５丁目","lat":43.082277,"lng":141.393058},{"code":"01103100302","name":"伏古三条２丁目","lat":43.086215,"lng":141.388105},{"code":"01103100303","name":"伏古三条３丁目","lat":43.085269,"lng":141.390443},{"code":"01103100304","name":"伏古三条４丁目","lat":43.084547,"lng":141.392257},{"code":"01103100305","name":"伏古三条５丁目","lat":43.08385,"lng":141.394015},{"code":"01103100402","name":"伏古四条２丁目","lat":43.087384,"lng":141.389136},{"code":"01103100403","name":"伏古四条３丁目","lat":43.086479,"lng":141.391403},{"code":"01103100404","name":"伏古四条４丁目","lat":43.085742,"lng":141.393185},{"code":"01103100405","name":"伏古四条５丁目","lat":43.085045,"lng":141.394938},{"code":"01103100502","name":"伏古五条２丁目","lat":43.088512,"lng":141.39012},{"code":"01103100503","name":"伏古五条３丁目","lat":43.087629,"lng":141.392315},{"code":"01103100504","name":"伏古五条４丁目","lat":43.086899,"lng":141.394098},{"code":"01103100505","name":"伏古五条５丁目","lat":43.086201,"lng":141.395815},{"code":"01103100602","name":"伏古六条２丁目","lat":43.089608,"lng":141.390947},{"code":"01103100603","name":"伏古六条３丁目","lat":43.088755,"lng":141.393093},{"code":"01103100604","name":"伏古六条４丁目","lat":43.088004,"lng":141.394935},{"code":"01103100605","name":"伏古六条５丁目","lat":43.087304,"lng":141.39666},{"code":"01103100702","name":"伏古七条２丁目","lat":43.091264,"lng":141.391149},{"code":"01103100703","name":"伏古七条３丁目","lat":43.090109,"lng":141.393971},{"code":"01103100704","name":"伏古七条４丁目","lat":43.089276,"lng":141.395916},{"code":"01103100705","name":"伏古七条５丁目","lat":43.088571,"lng":141.397633},{"code":"01103100801","name":"伏古八条１丁目","lat":43.094193,"lng":141.389507},{"code":"01103100802","name":"伏古八条２丁目","lat":43.092985,"lng":141.392467},{"code":"01103100803","name":"伏古八条３丁目","lat":43.091786,"lng":141.395241},{"code":"01103100804","name":"伏古八条４丁目","lat":43.090996,"lng":141.397275},{"code":"01103100805","name":"伏古八条５丁目","lat":43.090266,"lng":141.398973},{"code":"01103100901","name":"伏古九条１丁目","lat":43.095893,"lng":141.389714},{"code":"01103100902","name":"伏古九条２丁目","lat":43.094545,"lng":141.393159},{"code":"01103100903","name":"伏古九条３丁目","lat":43.093163,"lng":141.396311},{"code":"01103100904","name":"伏古九条４丁目","lat":43.092384,"lng":141.398694},{"code":"01103100905","name":"伏古九条５丁目","lat":43.091816,"lng":141.400409},{"code":"01103101001","name":"伏古十条１丁目","lat":43.097606,"lng":141.390097},{"code":"01103101002","name":"伏古十条２丁目","lat":43.095957,"lng":141.394263},{"code":"01103101003","name":"伏古十条３丁目","lat":43.094536,"lng":141.397429},{"code":"01103101004","name":"伏古十条４丁目","lat":43.093799,"lng":141.399608},{"code":"01103101005","name":"伏古十条５丁目","lat":43.093202,"lng":141.401474},{"code":"01103101101","name":"伏古十一条１丁目","lat":43.098523,"lng":141.394076},{"code":"01103101102","name":"伏古十一条２丁目","lat":43.097478,"lng":141.396307},{"code":"01103101103","name":"伏古十一条３丁目","lat":43.09667,"lng":141.398993},{"code":"01103101104","name":"伏古十一条４丁目","lat":43.095856,"lng":141.401102},{"code":"01103101105","name":"伏古十一条５丁目","lat":43.095073,"lng":141.402767},{"code":"01103101202","name":"伏古十二条２丁目","lat":43.09954,"lng":141.397903},{"code":"01103101203","name":"伏古十二条３丁目","lat":43.098758,"lng":141.400567},{"code":"01103101204","name":"伏古十二条４丁目","lat":43.098086,"lng":141.402584},{"code":"01103101205","name":"伏古十二条５丁目","lat":43.09721,"lng":141.40415},{"code":"01103101303","name":"伏古十三条３丁目","lat":43.101264,"lng":141.401636},{"code":"01103101304","name":"伏古十三条４丁目","lat":43.100213,"lng":141.404421},{"code":"01103101305","name":"伏古十三条５丁目","lat":43.099494,"lng":141.406184},{"code":"01103101403","name":"伏古十四条３丁目","lat":43.103793,"lng":141.403544},{"code":"01103101404","name":"伏古十四条４丁目","lat":43.102645,"lng":141.406314},{"code":"01103101405","name":"伏古十四条５丁目","lat":43.101954,"lng":141.408065},{"code":"01103110101","name":"東苗穂一条１丁目","lat":43.079468,"lng":141.394141},{"code":"01103110102","name":"東苗穂一条２丁目","lat":43.078967,"lng":141.398642},{"code":"01103110103","name":"東苗穂一条３丁目","lat":43.077512,"lng":141.401867},{"code":"01103110201","name":"東苗穂二条１丁目","lat":43.082683,"lng":141.397832},{"code":"01103110202","name":"東苗穂二条２丁目","lat":43.082162,"lng":141.402428},{"code":"01103110203","name":"東苗穂二条３丁目","lat":43.080683,"lng":141.404757},{"code":"01103110301","name":"東苗穂三条１丁目","lat":43.086684,"lng":141.400445},{"code":"01103110302","name":"東苗穂三条２丁目","lat":43.085177,"lng":141.403985},{"code":"01103110303","name":"東苗穂三条３丁目","lat":43.083826,"lng":141.407188},{"code":"01103110401","name":"東苗穂四条１丁目","lat":43.088885,"lng":141.402138},{"code":"01103110402","name":"東苗穂四条２丁目","lat":43.0873,"lng":141.405615},{"code":"01103110403","name":"東苗穂四条３丁目","lat":43.085918,"lng":141.408868},{"code":"01103110501","name":"東苗穂五条１丁目","lat":43.09149,"lng":141.403448},{"code":"01103110502","name":"東苗穂五条２丁目","lat":43.089974,"lng":141.406951},{"code":"01103110503","name":"東苗穂五条３丁目","lat":43.088316,"lng":141.410629},{"code":"01103110601","name":"東苗穂六条１丁目","lat":43.094404,"lng":141.405686},{"code":"01103110602","name":"東苗穂六条２丁目","lat":43.092492,"lng":141.408856},{"code":"01103110603","name":"東苗穂六条３丁目","lat":43.090937,"lng":141.412739},{"code":"01103110701","name":"東苗穂七条１丁目","lat":43.096499,"lng":141.407246},{"code":"01103110702","name":"東苗穂七条２丁目","lat":43.094591,"lng":141.410485},{"code":"01103110703","name":"東苗穂七条３丁目","lat":43.093215,"lng":141.414447},{"code":"01103110801","name":"東苗穂八条１丁目","lat":43.098463,"lng":141.408526},{"code":"01103110802","name":"東苗穂八条２丁目","lat":43.097151,"lng":141.41214},{"code":"01103110803","name":"東苗穂八条３丁目","lat":43.095495,"lng":141.416217},{"code":"01103110901","name":"東苗穂九条１丁目","lat":43.101098,"lng":141.410208},{"code":"01103110902","name":"東苗穂九条２丁目","lat":43.099392,"lng":141.41358},{"code":"01103110903","name":"東苗穂九条３丁目","lat":43.097696,"lng":141.418084},{"code":"01103111001","name":"東苗穂十条１丁目","lat":43.103234,"lng":141.411873},{"code":"01103111002","name":"東苗穂十条２丁目","lat":43.101497,"lng":141.415295},{"code":"01103111003","name":"東苗穂十条３丁目","lat":43.099854,"lng":141.419627},{"code":"01103111101","name":"東苗穂十一条１丁目","lat":43.105473,"lng":141.41362},{"code":"01103111102","name":"東苗穂十一条２丁目","lat":43.104005,"lng":141.417269},{"code":"01103111103","name":"東苗穂十一条３丁目","lat":43.101891,"lng":141.421207},{"code":"01103111201","name":"東苗穂十二条１丁目","lat":43.107649,"lng":141.415326},{"code":"01103111202","name":"東苗穂十二条２丁目","lat":43.106198,"lng":141.418939},{"code":"01103111203","name":"東苗穂十二条３丁目","lat":43.104051,"lng":141.422896},{"code":"01103111204","name":"東苗穂十二条４丁目","lat":43.102507,"lng":141.426362},{"code":"01103111301","name":"東苗穂十三条１丁目","lat":43.109566,"lng":141.416871},{"code":"01103111302","name":"東苗穂十三条２丁目","lat":43.108218,"lng":141.42072},{"code":"01103111303","name":"東苗穂十三条３丁目","lat":43.106547,"lng":141.424884},{"code":"01103111304","name":"東苗穂十三条４丁目","lat":43.105031,"lng":141.428323},{"code":"01103111401","name":"東苗穂十四条１丁目","lat":43.111866,"lng":141.418626},{"code":"01103111402","name":"東苗穂十四条２丁目","lat":43.110604,"lng":141.422151},{"code":"01103111403","name":"東苗穂十四条３丁目","lat":43.108845,"lng":141.426738},{"code":"01103111404","name":"東苗穂十四条４丁目","lat":43.107314,"lng":141.430071},{"code":"01103111501","name":"東苗穂十五条１丁目","lat":43.113015,"lng":141.420807},{"code":"01103111502","name":"東苗穂十五条２丁目","lat":43.111987,"lng":141.424548},{"code":"01103111503","name":"東苗穂十五条３丁目","lat":43.110565,"lng":141.427554},{"code":"01103111504","name":"東苗穂十五条４丁目","lat":43.108931,"lng":141.430418},{"code":"01103120102","name":"北丘珠一条２丁目","lat":43.121413,"lng":141.408628},{"code":"01103120103","name":"北丘珠一条３丁目","lat":43.123753,"lng":141.410598},{"code":"01103120104","name":"北丘珠一条４丁目","lat":43.124176,"lng":141.412742},{"code":"01103120201","name":"北丘珠二条１丁目","lat":43.123082,"lng":141.405445},{"code":"01103120202","name":"北丘珠二条２丁目","lat":43.123848,"lng":141.40676},{"code":"01103120203","name":"北丘珠二条３丁目","lat":43.125053,"lng":141.408829},{"code":"01103120204","name":"北丘珠二条４丁目","lat":43.126455,"lng":141.411185},{"code":"01103120301","name":"北丘珠三条１丁目","lat":43.124406,"lng":141.401399},{"code":"01103120302","name":"北丘珠三条２丁目","lat":43.125885,"lng":141.404891},{"code":"01103120303","name":"北丘珠三条３丁目","lat":43.127239,"lng":141.407047},{"code":"01103120304","name":"北丘珠三条４丁目","lat":43.128687,"lng":141.41043},{"code":"01103120401","name":"北丘珠四条１丁目","lat":43.126385,"lng":141.400525},{"code":"01103120402","name":"北丘珠四条２丁目","lat":43.127626,"lng":141.403266},{"code":"01103120403","name":"北丘珠四条３丁目","lat":43.129204,"lng":141.406238},{"code":"01103120404","name":"北丘珠四条４丁目","lat":43.130477,"lng":141.409172},{"code":"01103120501","name":"北丘珠五条１丁目","lat":43.128321,"lng":141.400089},{"code":"01103120502","name":"北丘珠五条２丁目","lat":43.129194,"lng":141.401864},{"code":"01103120503","name":"北丘珠五条３丁目","lat":43.130629,"lng":141.404817},{"code":"01103120504","name":"北丘珠五条４丁目","lat":43.132943,"lng":141.406971},{"code":"011031206","name":"北丘珠六条","lat":43.135052,"lng":141.40653},{"code":"011031301","name":"東雁来一条","lat":43.076917,"lng":141.404708},{"code":"011031302","name":"東雁来二条","lat":43.079678,"lng":141.408999},{"code":"011031303","name":"東雁来三条","lat":43.081939,"lng":141.410768},{"code":"011031304","name":"東雁来四条","lat":43.082516,"lng":141.413915},{"code":"011031305","name":"東雁来五条","lat":43.08547,"lng":141.415109},{"code":"01103130601","name":"東雁来六条１丁目","lat":43.090521,"lng":141.415787},{"code":"01103130602","name":"東雁来六条２丁目","lat":43.088462,"lng":141.417156},{"code":"01103130603","name":"東雁来六条３丁目","lat":43.086141,"lng":141.419001},{"code":"01103130701","name":"東雁来七条１丁目","lat":43.092402,"lng":141.418516},{"code":"01103130702","name":"東雁来七条２丁目","lat":43.090435,"lng":141.420584},{"code":"01103130703","name":"東雁来七条３丁目","lat":43.089302,"lng":141.423223},{"code":"01103130801","name":"東雁来八条１丁目","lat":43.094147,"lng":141.421234},{"code":"01103130802","name":"東雁来八条２丁目","lat":43.092424,"lng":141.423697},{"code":"01103130803","name":"東雁来八条３丁目","lat":43.091071,"lng":141.426139},{"code":"01103130804","name":"東雁来八条４丁目","lat":43.091502,"lng":141.430095},{"code":"01103130901","name":"東雁来九条１丁目","lat":43.09628,"lng":141.42176},{"code":"01103130902","name":"東雁来九条２丁目","lat":43.095398,"lng":141.42503},{"code":"01103130903","name":"東雁来九条３丁目","lat":43.092851,"lng":141.427443},{"code":"01103130904","name":"東雁来九条４丁目","lat":43.093391,"lng":141.431983},{"code":"01103131001","name":"東雁来十条１丁目","lat":43.098388,"lng":141.423241},{"code":"01103131002","name":"東雁来十条２丁目","lat":43.097359,"lng":141.426665},{"code":"01103131003","name":"東雁来十条３丁目","lat":43.095527,"lng":141.428455},{"code":"01103131004","name":"東雁来十条４丁目","lat":43.095243,"lng":141.432038},{"code":"01103131101","name":"東雁来十一条１丁目","lat":43.100362,"lng":141.424677},{"code":"01103131102","name":"東雁来十一条２丁目","lat":43.099034,"lng":141.428122},{"code":"01103131103","name":"東雁来十一条３丁目","lat":43.098446,"lng":141.431355},{"code":"01103131104","name":"東雁来十一条４丁目","lat":43.09638,"lng":141.433879},{"code":"01103131202","name":"東雁来十二条２丁目","lat":43.101198,"lng":141.429712},{"code":"01103131203","name":"東雁来十二条３丁目","lat":43.100349,"lng":141.433486},{"code":"01103131204","name":"東雁来十二条４丁目","lat":43.098267,"lng":141.436026},{"code":"01103131302","name":"東雁来十三条２丁目","lat":43.103687,"lng":141.431685},{"code":"01103131303","name":"東雁来十三条３丁目","lat":43.102204,"lng":141.43521},{"code":"01103131304","name":"東雁来十三条４丁目","lat":43.100597,"lng":141.438279},{"code":"01103131402","name":"東雁来十四条２丁目","lat":43.105767,"lng":141.43317},{"code":"01103131403","name":"東雁来十四条３丁目","lat":43.103708,"lng":141.436603},{"code":"01103131404","name":"東雁来十四条４丁目","lat":43.101907,"lng":141.439396},{"code":"01103140101","name":"中沼西一条１丁目","lat":43.125063,"lng":141.414881},{"code":"01103140102","name":"中沼西一条２丁目","lat":43.127001,"lng":141.41672},{"code":"01103140201","name":"中沼西二条１丁目","lat":43.127626,"lng":141.413827},{"code":"01103140202","name":"中沼西二条２丁目","lat":43.128371,"lng":141.415648},{"code":"01103140301","name":"中沼西三条１丁目","lat":43.129632,"lng":141.412886},{"code":"01103140302","name":"中沼西三条２丁目","lat":43.13018,"lng":141.414442},{"code":"01103140401","name":"中沼西四条１丁目","lat":43.131721,"lng":141.411556},{"code":"01103140402","name":"中沼西四条２丁目","lat":43.13223,"lng":141.413033},{"code":"01103140501","name":"中沼西五条１丁目","lat":43.133952,"lng":141.409999},{"code":"01103140502","name":"中沼西五条２丁目","lat":43.13452,"lng":141.41147},{"code":"01103150101","name":"中沼一条１丁目","lat":43.1257,"lng":141.442085},{"code":"01103150102","name":"中沼一条２丁目","lat":43.125099,"lng":141.444563},{"code":"01103150103","name":"中沼一条３丁目","lat":43.124576,"lng":141.446936},{"code":"01103150201","name":"中沼二条１丁目","lat":43.126626,"lng":141.442118},{"code":"01103150202","name":"中沼二条２丁目","lat":43.126537,"lng":141.443858},{"code":"01103150301","name":"中沼三条１丁目","lat":43.127549,"lng":141.441838},{"code":"01103150302","name":"中沼三条２丁目","lat":43.127672,"lng":141.443717},{"code":"01103150401","name":"中沼四条１丁目","lat":43.128469,"lng":141.441704},{"code":"01103150402","name":"中沼四条２丁目","lat":43.128638,"lng":141.443925},{"code":"01103150501","name":"中沼五条１丁目","lat":43.129306,"lng":141.44157},{"code":"01103150502","name":"中沼五条２丁目","lat":43.129487,"lng":141.44412},{"code":"01103150601","name":"中沼六条１丁目","lat":43.130065,"lng":141.44168},{"code":"01103150602","name":"中沼六条２丁目","lat":43.130429,"lng":141.44382},{"code":"01103150603","name":"中沼六条３丁目","lat":43.130854,"lng":141.445414},{"code":"011031600","name":"モエレ沼公園","lat":43.124001,"lng":141.42803},{"code":"01103230410","name":"北四条東１０丁目","lat":43.068916,"lng":141.370537},{"code":"01103230411","name":"北四条東１１丁目","lat":43.069053,"lng":141.372226},{"code":"01103230412","name":"北四条東１２丁目","lat":43.069163,"lng":141.373792},{"code":"01103230504","name":"北五条東４丁目","lat":43.069032,"lng":141.360781},{"code":"01103230505","name":"北五条東５丁目","lat":43.069113,"lng":141.362401},{"code":"01103230506","name":"北五条東６丁目","lat":43.06919,"lng":141.363917},{"code":"01103230507","name":"北五条東７丁目","lat":43.06927,"lng":141.365259},{"code":"01103230508","name":"北五条東８丁目","lat":43.069333,"lng":141.367289},{"code":"01103230509","name":"北五条東９丁目","lat":43.069804,"lng":141.369912},{"code":"01103230510","name":"北五条東１０丁目","lat":43.069594,"lng":141.37063},{"code":"01103230511","name":"北五条東１１丁目","lat":43.070145,"lng":141.372052},{"code":"01103230512","name":"北五条東１２丁目","lat":43.070172,"lng":141.373373},{"code":"01103230601","name":"北六条東１丁目","lat":43.069278,"lng":141.35594},{"code":"01103230602","name":"北六条東２丁目","lat":43.069384,"lng":141.357626},{"code":"01103230603","name":"北六条東３丁目","lat":43.069432,"lng":141.359198},{"code":"01103230604","name":"北六条東４丁目","lat":43.069875,"lng":141.360725},{"code":"01103230605","name":"北六条東５丁目","lat":43.070118,"lng":141.362185},{"code":"01103230606","name":"北六条東６丁目","lat":43.070327,"lng":141.363635},{"code":"01103230607","name":"北六条東７丁目","lat":43.070462,"lng":141.365036},{"code":"01103230608","name":"北六条東８丁目","lat":43.070956,"lng":141.366776},{"code":"01103230612","name":"北六条東１２丁目","lat":43.071583,"lng":141.377912},{"code":"01103230619","name":"北六条東１９丁目","lat":43.075943,"lng":141.384069},{"code":"01103230620","name":"北六条東２０丁目","lat":43.076944,"lng":141.384899},{"code":"01103230701","name":"北七条東１丁目","lat":43.070426,"lng":141.355645},{"code":"01103230702","name":"北七条東２丁目","lat":43.070643,"lng":141.357313},{"code":"01103230703","name":"北七条東３丁目","lat":43.070851,"lng":141.358851},{"code":"01103230704","name":"北七条東４丁目","lat":43.071034,"lng":141.360424},{"code":"01103230705","name":"北七条東５丁目","lat":43.071248,"lng":141.36204},{"code":"01103230706","name":"北七条東６丁目","lat":43.071522,"lng":141.363568},{"code":"01103230707","name":"北七条東７丁目","lat":43.071629,"lng":141.364861},{"code":"01103230708","name":"北七条東８丁目","lat":43.071938,"lng":141.36634},{"code":"01103230709","name":"北七条東９丁目","lat":43.071359,"lng":141.369698},{"code":"01103230711","name":"北七条東１１丁目","lat":43.072732,"lng":141.371811},{"code":"01103230712","name":"北七条東１２丁目","lat":43.072527,"lng":141.373126},{"code":"01103230713","name":"北七条東１３丁目","lat":43.073088,"lng":141.374585},{"code":"01103230714","name":"北七条東１４丁目","lat":43.07354,"lng":141.375917},{"code":"01103230718","name":"北七条東１８丁目","lat":43.074799,"lng":141.381765},{"code":"01103230719","name":"北七条東１９丁目","lat":43.076204,"lng":141.382799},{"code":"01103230720","name":"北七条東２０丁目","lat":43.077109,"lng":141.3837},{"code":"01103230801","name":"北八条東１丁目","lat":43.071558,"lng":141.355329},{"code":"01103230802","name":"北八条東２丁目","lat":43.071787,"lng":141.357028},{"code":"01103230803","name":"北八条東３丁目","lat":43.072,"lng":141.358587},{"code":"01103230804","name":"北八条東４丁目","lat":43.072217,"lng":141.360141},{"code":"01103230805","name":"北八条東５丁目","lat":43.072435,"lng":141.361675},{"code":"01103230806","name":"北八条東６丁目","lat":43.07264,"lng":141.363231},{"code":"01103230807","name":"北八条東７丁目","lat":43.072815,"lng":141.36455},{"code":"01103230808","name":"北八条東８丁目","lat":43.073043,"lng":141.366175},{"code":"01103230809","name":"北八条東９丁目","lat":43.073299,"lng":141.368075},{"code":"01103230810","name":"北八条東１０丁目","lat":43.073504,"lng":141.369541},{"code":"01103230811","name":"北八条東１１丁目","lat":43.073701,"lng":141.371071},{"code":"01103230812","name":"北八条東１２丁目","lat":43.073919,"lng":141.372711},{"code":"01103230813","name":"北八条東１３丁目","lat":43.074143,"lng":141.374248},{"code":"01103230814","name":"北八条東１４丁目","lat":43.074298,"lng":141.375722},{"code":"01103230815","name":"北八条東１５丁目","lat":43.074545,"lng":141.376946},{"code":"01103230816","name":"北八条東１６丁目","lat":43.075074,"lng":141.378091},{"code":"01103230817","name":"北八条東１７丁目","lat":43.07596,"lng":141.379833},{"code":"01103230818","name":"北八条東１８丁目","lat":43.077069,"lng":141.381171},{"code":"01103230819","name":"北八条東１９丁目","lat":43.078028,"lng":141.381627},{"code":"01103230901","name":"北九条東１丁目","lat":43.072711,"lng":141.355036},{"code":"01103230902","name":"北九条東２丁目","lat":43.072934,"lng":141.356738},{"code":"01103230903","name":"北九条東３丁目","lat":43.073146,"lng":141.358304},{"code":"01103230904","name":"北九条東４丁目","lat":43.073353,"lng":141.359851},{"code":"01103230905","name":"北九条東５丁目","lat":43.073546,"lng":141.361485},{"code":"01103230906","name":"北九条東６丁目","lat":43.073918,"lng":141.363077},{"code":"01103230907","name":"北九条東７丁目","lat":43.073782,"lng":141.364148},{"code":"01103230908","name":"北九条東８丁目","lat":43.074288,"lng":141.365904},{"code":"01103230909","name":"北九条東９丁目","lat":43.07456,"lng":141.367704},{"code":"01103230910","name":"北九条東１０丁目","lat":43.075041,"lng":141.36889},{"code":"01103230911","name":"北九条東１１丁目","lat":43.074818,"lng":141.370961},{"code":"01103230912","name":"北九条東１２丁目","lat":43.075017,"lng":141.372113},{"code":"01103230913","name":"北九条東１３丁目","lat":43.075225,"lng":141.373682},{"code":"01103230914","name":"北九条東１４丁目","lat":43.07542,"lng":141.375135},{"code":"01103230915","name":"北九条東１５丁目","lat":43.07565,"lng":141.376659},{"code":"01103230916","name":"北九条東１６丁目","lat":43.076061,"lng":141.378191},{"code":"01103231001","name":"北十条東１丁目","lat":43.073845,"lng":141.354717},{"code":"01103231002","name":"北十条東２丁目","lat":43.074073,"lng":141.356442},{"code":"01103231003","name":"北十条東３丁目","lat":43.07429,"lng":141.358016},{"code":"01103231004","name":"北十条東４丁目","lat":43.074509,"lng":141.359588},{"code":"01103231005","name":"北十条東５丁目","lat":43.074704,"lng":141.361126},{"code":"01103231006","name":"北十条東６丁目","lat":43.074928,"lng":141.362705},{"code":"01103231007","name":"北十条東７丁目","lat":43.075106,"lng":141.36399},{"code":"01103231008","name":"北十条東８丁目","lat":43.075413,"lng":141.365104},{"code":"01103231009","name":"北十条東９丁目","lat":43.075826,"lng":141.367002},{"code":"01103231010","name":"北十条東１０丁目","lat":43.075661,"lng":141.369534},{"code":"01103231011","name":"北十条東１１丁目","lat":43.076193,"lng":141.37052},{"code":"01103231012","name":"北十条東１２丁目","lat":43.076177,"lng":141.372563},{"code":"01103231013","name":"北十条東１３丁目","lat":43.076409,"lng":141.374077},{"code":"01103231014","name":"北十条東１４丁目","lat":43.076547,"lng":141.37528},{"code":"01103231015","name":"北十条東１５丁目","lat":43.076759,"lng":141.376841},{"code":"01103231016","name":"北十条東１６丁目","lat":43.076913,"lng":141.37805},{"code":"01103231017","name":"北十条東１７丁目","lat":43.077046,"lng":141.379354},{"code":"01103231101","name":"北十一条東１丁目","lat":43.074985,"lng":141.354424},{"code":"01103231102","name":"北十一条東２丁目","lat":43.075215,"lng":141.35617},{"code":"01103231103","name":"北十一条東３丁目","lat":43.075429,"lng":141.357721},{"code":"01103231104","name":"北十一条東４丁目","lat":43.075643,"lng":141.359279},{"code":"01103231105","name":"北十一条東５丁目","lat":43.075855,"lng":141.36085},{"code":"01103231106","name":"北十一条東６丁目","lat":43.076064,"lng":141.362404},{"code":"01103231107","name":"北十一条東７丁目","lat":43.076244,"lng":141.363687},{"code":"01103231108","name":"北十一条東８丁目","lat":43.076452,"lng":141.365008},{"code":"01103231109","name":"北十一条東９丁目","lat":43.076635,"lng":141.366587},{"code":"01103231110","name":"北十一条東１０丁目","lat":43.076897,"lng":141.368367},{"code":"01103231111","name":"北十一条東１１丁目","lat":43.07735,"lng":141.370254},{"code":"01103231112","name":"北十一条東１２丁目","lat":43.077191,"lng":141.372208},{"code":"01103231113","name":"北十一条東１３丁目","lat":43.077619,"lng":141.373405},{"code":"01103231114","name":"北十一条東１４丁目","lat":43.077442,"lng":141.374947},{"code":"01103231115","name":"北十一条東１５丁目","lat":43.077813,"lng":141.376504},{"code":"01103231116","name":"北十一条東１６丁目","lat":43.078009,"lng":141.377879},{"code":"01103231117","name":"北十一条東１７丁目","lat":43.078125,"lng":141.379035},{"code":"01103231201","name":"北十二条東１丁目","lat":43.076126,"lng":141.354097},{"code":"01103231202","name":"北十二条東２丁目","lat":43.076362,"lng":141.355891},{"code":"01103231203","name":"北十二条東３丁目","lat":43.076568,"lng":141.357429},{"code":"01103231204","name":"北十二条東４丁目","lat":43.076784,"lng":141.358996},{"code":"01103231205","name":"北十二条東５丁目","lat":43.076993,"lng":141.360552},{"code":"01103231206","name":"北十二条東６丁目","lat":43.077202,"lng":141.3621},{"code":"01103231207","name":"北十二条東７丁目","lat":43.077458,"lng":141.363592},{"code":"01103231208","name":"北十二条東８丁目","lat":43.077541,"lng":141.364921},{"code":"01103231209","name":"北十二条東９丁目","lat":43.077844,"lng":141.366827},{"code":"01103231210","name":"北十二条東１０丁目","lat":43.078046,"lng":141.36858},{"code":"01103231211","name":"北十二条東１１丁目","lat":43.078279,"lng":141.369868},{"code":"01103231212","name":"北十二条東１２丁目","lat":43.078417,"lng":141.371491},{"code":"01103231213","name":"北十二条東１３丁目","lat":43.078802,"lng":141.372699},{"code":"01103231214","name":"北十二条東１４丁目","lat":43.078573,"lng":141.374217},{"code":"01103231215","name":"北十二条東１５丁目","lat":43.078936,"lng":141.375981},{"code":"01103231216","name":"北十二条東１６丁目","lat":43.079042,"lng":141.377622},{"code":"01103231217","name":"北十二条東１７丁目","lat":43.078956,"lng":141.379198},{"code":"01103231301","name":"北十三条東１丁目","lat":43.077269,"lng":141.353741},{"code":"01103231302","name":"北十三条東２丁目","lat":43.077523,"lng":141.355556},{"code":"01103231303","name":"北十三条東３丁目","lat":43.077737,"lng":141.357142},{"code":"01103231304","name":"北十三条東４丁目","lat":43.077927,"lng":141.358711},{"code":"01103231305","name":"北十三条東５丁目","lat":43.078137,"lng":141.360274},{"code":"01103231306","name":"北十三条東６丁目","lat":43.078348,"lng":141.361851},{"code":"01103231307","name":"北十三条東７丁目","lat":43.078554,"lng":141.363428},{"code":"01103231308","name":"北十三条東８丁目","lat":43.078765,"lng":141.364789},{"code":"01103231309","name":"北十三条東９丁目","lat":43.079231,"lng":141.366545},{"code":"01103231310","name":"北十三条東１０丁目","lat":43.079232,"lng":141.369015},{"code":"01103231312","name":"北十三条東１２丁目","lat":43.079549,"lng":141.370491},{"code":"01103231313","name":"北十三条東１３丁目","lat":43.079769,"lng":141.371885},{"code":"01103231314","name":"北十三条東１４丁目","lat":43.079956,"lng":141.373511},{"code":"01103231315","name":"北十三条東１５丁目","lat":43.080168,"lng":141.375266},{"code":"01103231316","name":"北十三条東１６丁目","lat":43.080395,"lng":141.377349},{"code":"01103231401","name":"北十四条東１丁目","lat":43.078395,"lng":141.353367},{"code":"01103231402","name":"北十四条東２丁目","lat":43.078648,"lng":141.355294},{"code":"01103231403","name":"北十四条東３丁目","lat":43.078856,"lng":141.356863},{"code":"01103231404","name":"北十四条東４丁目","lat":43.079091,"lng":141.358428},{"code":"01103231405","name":"北十四条東５丁目","lat":43.079269,"lng":141.359974},{"code":"01103231406","name":"北十四条東６丁目","lat":43.079467,"lng":141.361522},{"code":"01103231407","name":"北十四条東７丁目","lat":43.079686,"lng":141.363147},{"code":"01103231408","name":"北十四条東８丁目","lat":43.07993,"lng":141.364722},{"code":"01103231409","name":"北十四条東９丁目","lat":43.08043,"lng":141.366073},{"code":"01103231410","name":"北十四条東１０丁目","lat":43.080287,"lng":141.368152},{"code":"01103231412","name":"北十四条東１２丁目","lat":43.080564,"lng":141.369543},{"code":"01103231413","name":"北十四条東１３丁目","lat":43.080815,"lng":141.37096},{"code":"01103231414","name":"北十四条東１４丁目","lat":43.081006,"lng":141.372633},{"code":"01103231415","name":"北十四条東１５丁目","lat":43.081314,"lng":141.375146},{"code":"01103231416","name":"北十四条東１６丁目","lat":43.081758,"lng":141.377893},{"code":"01103231501","name":"北十五条東１丁目","lat":43.079556,"lng":141.353012},{"code":"01103231502","name":"北十五条東２丁目","lat":43.079802,"lng":141.355015},{"code":"01103231503","name":"北十五条東３丁目","lat":43.079997,"lng":141.356538},{"code":"01103231504","name":"北十五条東４丁目","lat":43.08021,"lng":141.35813},{"code":"01103231505","name":"北十五条東５丁目","lat":43.080418,"lng":141.359706},{"code":"01103231506","name":"北十五条東６丁目","lat":43.080621,"lng":141.361246},{"code":"01103231507","name":"北十五条東７丁目","lat":43.080842,"lng":141.362886},{"code":"01103231508","name":"北十五条東８丁目","lat":43.081022,"lng":141.36432},{"code":"01103231509","name":"北十五条東９丁目","lat":43.081051,"lng":141.366132},{"code":"01103231510","name":"北十五条東１０丁目","lat":43.081484,"lng":141.367636},{"code":"01103231512","name":"北十五条東１２丁目","lat":43.081635,"lng":141.369018},{"code":"01103231513","name":"北十五条東１３丁目","lat":43.081841,"lng":141.370478},{"code":"01103231514","name":"北十五条東１４丁目","lat":43.082044,"lng":141.372025},{"code":"01103231515","name":"北十五条東１５丁目","lat":43.082272,"lng":141.373673},{"code":"01103231516","name":"北十五条東１６丁目","lat":43.082435,"lng":141.375128},{"code":"01103231517","name":"北十五条東１７丁目","lat":43.082397,"lng":141.376252},{"code":"01103231518","name":"北十五条東１８丁目","lat":43.083001,"lng":141.378086},{"code":"01103231601","name":"北十六条東１丁目","lat":43.080659,"lng":141.352599},{"code":"01103231602","name":"北十六条東２丁目","lat":43.080936,"lng":141.354716},{"code":"01103231603","name":"北十六条東３丁目","lat":43.081148,"lng":141.356298},{"code":"01103231604","name":"北十六条東４丁目","lat":43.081348,"lng":141.357848},{"code":"01103231605","name":"北十六条東５丁目","lat":43.081565,"lng":141.359414},{"code":"01103231606","name":"北十六条東６丁目","lat":43.081762,"lng":141.360933},{"code":"01103231607","name":"北十六条東７丁目","lat":43.08198,"lng":141.362588},{"code":"01103231608","name":"北十六条東８丁目","lat":43.082156,"lng":141.363941},{"code":"01103231609","name":"北十六条東９丁目","lat":43.082157,"lng":141.36554},{"code":"01103231610","name":"北十六条東１０丁目","lat":43.082643,"lng":141.367286},{"code":"01103231612","name":"北十六条東１２丁目","lat":43.082815,"lng":141.368812},{"code":"01103231613","name":"北十六条東１３丁目","lat":43.082998,"lng":141.370268},{"code":"01103231614","name":"北十六条東１４丁目","lat":43.083209,"lng":141.371798},{"code":"01103231615","name":"北十六条東１５丁目","lat":43.083424,"lng":141.373403},{"code":"01103231616","name":"北十六条東１６丁目","lat":43.083626,"lng":141.375155},{"code":"01103231617","name":"北十六条東１７丁目","lat":43.083605,"lng":141.376673},{"code":"01103231618","name":"北十六条東１８丁目","lat":43.084071,"lng":141.378729},{"code":"01103231619","name":"北十六条東１９丁目","lat":43.08334,"lng":141.380343},{"code":"01103231701","name":"北十七条東１丁目","lat":43.081778,"lng":141.352183},{"code":"01103231702","name":"北十七条東２丁目","lat":43.082077,"lng":141.354453},{"code":"01103231703","name":"北十七条東３丁目","lat":43.082278,"lng":141.355993},{"code":"01103231704","name":"北十七条東４丁目","lat":43.082491,"lng":141.357562},{"code":"01103231705","name":"北十七条東５丁目","lat":43.082695,"lng":141.359094},{"code":"01103231706","name":"北十七条東６丁目","lat":43.082911,"lng":141.360681},{"code":"01103231707","name":"北十七条東７丁目","lat":43.083127,"lng":141.362313},{"code":"01103231708","name":"北十七条東８丁目","lat":43.08333,"lng":141.363792},{"code":"01103231709","name":"北十七条東９丁目","lat":43.083543,"lng":141.365347},{"code":"01103231710","name":"北十七条東１０丁目","lat":43.083784,"lng":141.367017},{"code":"01103231712","name":"北十七条東１２丁目","lat":43.083993,"lng":141.36854},{"code":"01103231713","name":"北十七条東１３丁目","lat":43.08423,"lng":141.370193},{"code":"01103231714","name":"北十七条東１４丁目","lat":43.084419,"lng":141.37163},{"code":"01103231715","name":"北十七条東１５丁目","lat":43.084612,"lng":141.373076},{"code":"01103231716","name":"北十七条東１６丁目","lat":43.08486,"lng":141.374985},{"code":"01103231717","name":"北十七条東１７丁目","lat":43.085083,"lng":141.376985},{"code":"01103231718","name":"北十七条東１８丁目","lat":43.085023,"lng":141.378854},{"code":"01103231719","name":"北十七条東１９丁目","lat":43.084509,"lng":141.380928},{"code":"01103231720","name":"北十七条東２０丁目","lat":43.083502,"lng":141.382641},{"code":"01103231801","name":"北十八条東１丁目","lat":43.082961,"lng":141.351663},{"code":"01103231802","name":"北十八条東２丁目","lat":43.083211,"lng":141.354145},{"code":"01103231803","name":"北十八条東３丁目","lat":43.083427,"lng":141.355726},{"code":"01103231804","name":"北十八条東４丁目","lat":43.083635,"lng":141.357275},{"code":"01103231805","name":"北十八条東５丁目","lat":43.083851,"lng":141.358841},{"code":"01103231806","name":"北十八条東６丁目","lat":43.084408,"lng":141.360295},{"code":"01103231807","name":"北十八条東７丁目","lat":43.084272,"lng":141.362},{"code":"01103231808","name":"北十八条東８丁目","lat":43.084496,"lng":141.363642},{"code":"01103231809","name":"北十八条東９丁目","lat":43.084713,"lng":141.365182},{"code":"01103231810","name":"北十八条東１０丁目","lat":43.084937,"lng":141.366734},{"code":"01103231812","name":"北十八条東１２丁目","lat":43.085131,"lng":141.36826},{"code":"01103231813","name":"北十八条東１３丁目","lat":43.08536,"lng":141.369896},{"code":"01103231814","name":"北十八条東１４丁目","lat":43.085557,"lng":141.371351},{"code":"01103231815","name":"北十八条東１５丁目","lat":43.085754,"lng":141.372799},{"code":"01103231816","name":"北十八条東１６丁目","lat":43.086167,"lng":141.374688},{"code":"01103231817","name":"北十八条東１７丁目","lat":43.08641,"lng":141.376492},{"code":"01103231818","name":"北十八条東１８丁目","lat":43.086528,"lng":141.377821},{"code":"01103231819","name":"北十八条東１９丁目","lat":43.086155,"lng":141.379339},{"code":"01103231820","name":"北十八条東２０丁目","lat":43.085619,"lng":141.381447},{"code":"01103231821","name":"北十八条東２１丁目","lat":43.084677,"lng":141.383526},{"code":"01103231901","name":"北十九条東１丁目","lat":43.084353,"lng":141.351346},{"code":"01103231902","name":"北十九条東２丁目","lat":43.084629,"lng":141.353802},{"code":"01103231903","name":"北十九条東３丁目","lat":43.084841,"lng":141.355355},{"code":"01103231904","name":"北十九条東４丁目","lat":43.085053,"lng":141.356929},{"code":"01103231905","name":"北十九条東５丁目","lat":43.085258,"lng":141.358472},{"code":"01103231906","name":"北十九条東６丁目","lat":43.085814,"lng":141.359931},{"code":"01103231907","name":"北十九条東７丁目","lat":43.085686,"lng":141.361645},{"code":"01103231908","name":"北十九条東８丁目","lat":43.085914,"lng":141.363283},{"code":"01103231909","name":"北十九条東９丁目","lat":43.086121,"lng":141.364824},{"code":"01103231910","name":"北十九条東１０丁目","lat":43.086342,"lng":141.366373},{"code":"01103231912","name":"北十九条東１２丁目","lat":43.086548,"lng":141.367909},{"code":"01103231913","name":"北十九条東１３丁目","lat":43.086768,"lng":141.369541},{"code":"01103231914","name":"北十九条東１４丁目","lat":43.087009,"lng":141.371294},{"code":"01103231915","name":"北十九条東１５丁目","lat":43.087202,"lng":141.372739},{"code":"01103231916","name":"北十九条東１６丁目","lat":43.087581,"lng":141.374349},{"code":"01103231917","name":"北十九条東１７丁目","lat":43.087827,"lng":141.376153},{"code":"01103231918","name":"北十九条東１８丁目","lat":43.087795,"lng":141.377843},{"code":"01103231919","name":"北十九条東１９丁目","lat":43.087387,"lng":141.379808},{"code":"01103231920","name":"北十九条東２０丁目","lat":43.087522,"lng":141.381508},{"code":"01103231921","name":"北十九条東２１丁目","lat":43.086784,"lng":141.382671},{"code":"01103231922","name":"北十九条東２２丁目","lat":43.085937,"lng":141.38448},{"code":"01103232001","name":"北二十条東１丁目","lat":43.085872,"lng":141.350856},{"code":"01103232002","name":"北二十条東２丁目","lat":43.086211,"lng":141.35342},{"code":"01103232003","name":"北二十条東３丁目","lat":43.08642,"lng":141.354974},{"code":"01103232004","name":"北二十条東４丁目","lat":43.086634,"lng":141.356535},{"code":"01103232005","name":"北二十条東５丁目","lat":43.086838,"lng":141.358094},{"code":"01103232006","name":"北二十条東６丁目","lat":43.087042,"lng":141.359632},{"code":"01103232007","name":"北二十条東７丁目","lat":43.08726,"lng":141.361251},{"code":"01103232008","name":"北二十条東８丁目","lat":43.087489,"lng":141.362885},{"code":"01103232009","name":"北二十条東９丁目","lat":43.087697,"lng":141.364435},{"code":"01103232010","name":"北二十条東１０丁目","lat":43.087904,"lng":141.365974},{"code":"01103232012","name":"北二十条東１２丁目","lat":43.088118,"lng":141.367525},{"code":"01103232013","name":"北二十条東１３丁目","lat":43.088299,"lng":141.36907},{"code":"01103232014","name":"北二十条東１４丁目","lat":43.088555,"lng":141.370665},{"code":"01103232015","name":"北二十条東１５丁目","lat":43.088767,"lng":141.372167},{"code":"01103232016","name":"北二十条東１６丁目","lat":43.089004,"lng":141.374006},{"code":"01103232017","name":"北二十条東１７丁目","lat":43.089252,"lng":141.375812},{"code":"01103232018","name":"北二十条東１８丁目","lat":43.089341,"lng":141.377985},{"code":"01103232019","name":"北二十条東１９丁目","lat":43.088914,"lng":141.380355},{"code":"01103232020","name":"北二十条東２０丁目","lat":43.088739,"lng":141.382603},{"code":"01103232021","name":"北二十条東２１丁目","lat":43.088074,"lng":141.384219},{"code":"01103232022","name":"北二十条東２２丁目","lat":43.087387,"lng":141.385854},{"code":"01103232101","name":"北二十一条東１丁目","lat":43.087312,"lng":141.350492},{"code":"01103232102","name":"北二十一条東２丁目","lat":43.08765,"lng":141.353066},{"code":"01103232103","name":"北二十一条東３丁目","lat":43.087856,"lng":141.354609},{"code":"01103232104","name":"北二十一条東４丁目","lat":43.088065,"lng":141.356163},{"code":"01103232105","name":"北二十一条東５丁目","lat":43.088282,"lng":141.357741},{"code":"01103232106","name":"北二十一条東６丁目","lat":43.088489,"lng":141.359295},{"code":"01103232107","name":"北二十一条東７丁目","lat":43.088701,"lng":141.3609},{"code":"01103232108","name":"北二十一条東８丁目","lat":43.088915,"lng":141.362489},{"code":"01103232109","name":"北二十一条東９丁目","lat":43.089138,"lng":141.364062},{"code":"01103232110","name":"北二十一条東１０丁目","lat":43.089341,"lng":141.365615},{"code":"01103232112","name":"北二十一条東１２丁目","lat":43.089552,"lng":141.367144},{"code":"01103232113","name":"北二十一条東１３丁目","lat":43.089763,"lng":141.368681},{"code":"01103232114","name":"北二十一条東１４丁目","lat":43.089967,"lng":141.370192},{"code":"01103232115","name":"北二十一条東１５丁目","lat":43.090181,"lng":141.371765},{"code":"01103232116","name":"北二十一条東１６丁目","lat":43.09045,"lng":141.373665},{"code":"01103232117","name":"北二十一条東１７丁目","lat":43.090711,"lng":141.375498},{"code":"01103232118","name":"北二十一条東１８丁目","lat":43.090948,"lng":141.377372},{"code":"01103232119","name":"北二十一条東１９丁目","lat":43.090797,"lng":141.379274},{"code":"01103232120","name":"北二十一条東２０丁目","lat":43.090623,"lng":141.38094},{"code":"01103232121","name":"北二十一条東２１丁目","lat":43.09025,"lng":141.383048},{"code":"01103232122","name":"北二十一条東２２丁目","lat":43.089618,"lng":141.385196},{"code":"01103232123","name":"北二十一条東２３丁目","lat":43.088736,"lng":141.38722},{"code":"01103232201","name":"北二十二条東１丁目","lat":43.088753,"lng":141.350156},{"code":"01103232202","name":"北二十二条東２丁目","lat":43.089066,"lng":141.352695},{"code":"01103232203","name":"北二十二条東３丁目","lat":43.089282,"lng":141.354284},{"code":"01103232204","name":"北二十二条東４丁目","lat":43.089491,"lng":141.355821},{"code":"01103232205","name":"北二十二条東５丁目","lat":43.089707,"lng":141.357385},{"code":"01103232206","name":"北二十二条東６丁目","lat":43.089918,"lng":141.358948},{"code":"01103232207","name":"北二十二条東７丁目","lat":43.090134,"lng":141.360535},{"code":"01103232208","name":"北二十二条東８丁目","lat":43.090344,"lng":141.362133},{"code":"01103232209","name":"北二十二条東９丁目","lat":43.090559,"lng":141.363693},{"code":"01103232210","name":"北二十二条東１０丁目","lat":43.090725,"lng":141.364902},{"code":"01103232212","name":"北二十二条東１２丁目","lat":43.090935,"lng":141.366454},{"code":"01103232213","name":"北二十二条東１３丁目","lat":43.091196,"lng":141.368327},{"code":"01103232214","name":"北二十二条東１４丁目","lat":43.091393,"lng":141.369842},{"code":"01103232215","name":"北二十二条東１５丁目","lat":43.091609,"lng":141.371427},{"code":"01103232216","name":"北二十二条東１６丁目","lat":43.091886,"lng":141.373319},{"code":"01103232217","name":"北二十二条東１７丁目","lat":43.092135,"lng":141.375135},{"code":"01103232218","name":"北二十二条東１８丁目","lat":43.092366,"lng":141.377246},{"code":"01103232219","name":"北二十二条東１９丁目","lat":43.09238,"lng":141.379433},{"code":"01103232220","name":"北二十二条東２０丁目","lat":43.09211,"lng":141.381355},{"code":"01103232221","name":"北二十二条東２１丁目","lat":43.091965,"lng":141.383905},{"code":"01103232222","name":"北二十二条東２２丁目","lat":43.091241,"lng":141.386239},{"code":"01103232223","name":"北二十二条東２３丁目","lat":43.090642,"lng":141.38843},{"code":"01103232301","name":"北二十三条東１丁目","lat":43.090261,"lng":141.34974},{"code":"01103232302","name":"北二十三条東２丁目","lat":43.090604,"lng":141.35234},{"code":"01103232303","name":"北二十三条東３丁目","lat":43.09081,"lng":141.353895},{"code":"01103232304","name":"北二十三条東４丁目","lat":43.091027,"lng":141.355467},{"code":"01103232305","name":"北二十三条東５丁目","lat":43.09123,"lng":141.356999},{"code":"01103232306","name":"北二十三条東６丁目","lat":43.091446,"lng":141.358566},{"code":"01103232307","name":"北二十三条東７丁目","lat":43.091664,"lng":141.360165},{"code":"01103232308","name":"北二十三条東８丁目","lat":43.091884,"lng":141.361759},{"code":"01103232309","name":"北二十三条東９丁目","lat":43.092087,"lng":141.363306},{"code":"01103232310","name":"北二十三条東１０丁目","lat":43.092297,"lng":141.364848},{"code":"01103232312","name":"北二十三条東１２丁目","lat":43.092508,"lng":141.366385},{"code":"01103232313","name":"北二十三条東１３丁目","lat":43.092718,"lng":141.367941},{"code":"01103232314","name":"北二十三条東１４丁目","lat":43.092928,"lng":141.369479},{"code":"01103232315","name":"北二十三条東１５丁目","lat":43.093133,"lng":141.371061},{"code":"01103232316","name":"北二十三条東１６丁目","lat":43.093393,"lng":141.37297},{"code":"01103232317","name":"北二十三条東１７丁目","lat":43.093618,"lng":141.374777},{"code":"01103232318","name":"北二十三条東１８丁目","lat":43.09385,"lng":141.377197},{"code":"01103232319","name":"北二十三条東１９丁目","lat":43.093877,"lng":141.379758},{"code":"01103232320","name":"北二十三条東２０丁目","lat":43.093661,"lng":141.381816},{"code":"01103232321","name":"北二十三条東２１丁目","lat":43.093635,"lng":141.384157},{"code":"01103232322","name":"北二十三条東２２丁目","lat":43.092958,"lng":141.386128},{"code":"01103232323","name":"北二十三条東２３丁目","lat":43.092717,"lng":141.387965},{"code":"01103232401","name":"北二十四条東１丁目","lat":43.091675,"lng":141.349501},{"code":"01103232402","name":"北二十四条東２丁目","lat":43.09199,"lng":141.35203},{"code":"01103232403","name":"北二十四条東３丁目","lat":43.092185,"lng":141.353562},{"code":"01103232404","name":"北二十四条東４丁目","lat":43.092228,"lng":141.354969},{"code":"01103232405","name":"北二十四条東５丁目","lat":43.092595,"lng":141.356847},{"code":"01103232406","name":"北二十四条東６丁目","lat":43.092825,"lng":141.358233},{"code":"01103232407","name":"北二十四条東７丁目","lat":43.093054,"lng":141.359827},{"code":"01103232408","name":"北二十四条東８丁目","lat":43.093266,"lng":141.361422},{"code":"01103232409","name":"北二十四条東９丁目","lat":43.093471,"lng":141.362948},{"code":"01103232410","name":"北二十四条東１０丁目","lat":43.09368,"lng":141.364489},{"code":"01103232412","name":"北二十四条東１２丁目","lat":43.09389,"lng":141.366044},{"code":"01103232413","name":"北二十四条東１３丁目","lat":43.094092,"lng":141.367578},{"code":"01103232414","name":"北二十四条東１４丁目","lat":43.094309,"lng":141.369159},{"code":"01103232415","name":"北二十四条東１５丁目","lat":43.09447,"lng":141.370714},{"code":"01103232416","name":"北二十四条東１６丁目","lat":43.094661,"lng":141.372651},{"code":"01103232417","name":"北二十四条東１７丁目","lat":43.094859,"lng":141.374488},{"code":"01103232418","name":"北二十四条東１８丁目","lat":43.095098,"lng":141.376929},{"code":"01103232419","name":"北二十四条東１９丁目","lat":43.095251,"lng":141.379921},{"code":"01103232420","name":"北二十四条東２０丁目","lat":43.095185,"lng":141.382406},{"code":"01103232421","name":"北二十四条東２１丁目","lat":43.09485,"lng":141.384933},{"code":"01103232422","name":"北二十四条東２２丁目","lat":43.094569,"lng":141.38732},{"code":"01103232501","name":"北二十五条東１丁目","lat":43.092781,"lng":141.349008},{"code":"01103232502","name":"北二十五条東２丁目","lat":43.09316,"lng":141.351727},{"code":"01103232503","name":"北二十五条東３丁目","lat":43.09336,"lng":141.353282},{"code":"01103232504","name":"北二十五条東４丁目","lat":43.093272,"lng":141.355144},{"code":"01103232505","name":"北二十五条東５丁目","lat":43.093835,"lng":141.35642},{"code":"01103232506","name":"北二十五条東６丁目","lat":43.094005,"lng":141.357967},{"code":"01103232507","name":"北二十五条東７丁目","lat":43.094207,"lng":141.359522},{"code":"01103232508","name":"北二十五条東８丁目","lat":43.09442,"lng":141.361109},{"code":"01103232509","name":"北二十五条東９丁目","lat":43.09463,"lng":141.362667},{"code":"01103232510","name":"北二十五条東１０丁目","lat":43.094836,"lng":141.364213},{"code":"01103232512","name":"北二十五条東１２丁目","lat":43.095041,"lng":141.365751},{"code":"01103232513","name":"北二十五条東１３丁目","lat":43.09524,"lng":141.367306},{"code":"01103232514","name":"北二十五条東１４丁目","lat":43.09545,"lng":141.368874},{"code":"01103232515","name":"北二十五条東１５丁目","lat":43.095661,"lng":141.37045},{"code":"01103232516","name":"北二十五条東１６丁目","lat":43.095871,"lng":141.372404},{"code":"01103232517","name":"北二十五条東１７丁目","lat":43.096032,"lng":141.374223},{"code":"01103232518","name":"北二十五条東１８丁目","lat":43.096395,"lng":141.376623},{"code":"01103232519","name":"北二十五条東１９丁目","lat":43.096394,"lng":141.379682},{"code":"01103232520","name":"北二十五条東２０丁目","lat":43.096728,"lng":141.382534},{"code":"01103232521","name":"北二十五条東２１丁目","lat":43.096409,"lng":141.384992},{"code":"01103232522","name":"北二十五条東２２丁目","lat":43.096281,"lng":141.386872},{"code":"01103232601","name":"北二十六条東１丁目","lat":43.093961,"lng":141.348879},{"code":"01103232602","name":"北二十六条東２丁目","lat":43.094345,"lng":141.351416},{"code":"01103232603","name":"北二十六条東３丁目","lat":43.094551,"lng":141.352999},{"code":"01103232604","name":"北二十六条東４丁目","lat":43.094754,"lng":141.354536},{"code":"01103232605","name":"北二十六条東５丁目","lat":43.094961,"lng":141.356117},{"code":"01103232606","name":"北二十六条東６丁目","lat":43.095162,"lng":141.357685},{"code":"01103232607","name":"北二十六条東７丁目","lat":43.095367,"lng":141.359268},{"code":"01103232608","name":"北二十六条東８丁目","lat":43.095567,"lng":141.360829},{"code":"01103232609","name":"北二十六条東９丁目","lat":43.095764,"lng":141.362367},{"code":"01103232610","name":"北二十六条東１０丁目","lat":43.09598,"lng":141.363964},{"code":"01103232612","name":"北二十六条東１２丁目","lat":43.096177,"lng":141.365476},{"code":"01103232613","name":"北二十六条東１３丁目","lat":43.096374,"lng":141.367027},{"code":"01103232614","name":"北二十六条東１４丁目","lat":43.096579,"lng":141.368586},{"code":"01103232615","name":"北二十六条東１５丁目","lat":43.096777,"lng":141.370172},{"code":"01103232616","name":"北二十六条東１６丁目","lat":43.097004,"lng":141.372145},{"code":"01103232617","name":"北二十六条東１７丁目","lat":43.097313,"lng":141.373953},{"code":"01103232618","name":"北二十六条東１８丁目","lat":43.097603,"lng":141.376187},{"code":"01103232619","name":"北二十六条東１９丁目","lat":43.097475,"lng":141.37953},{"code":"01103232620","name":"北二十六条東２０丁目","lat":43.098064,"lng":141.382139},{"code":"01103232621","name":"北二十六条東２１丁目","lat":43.098047,"lng":141.384418},{"code":"01103232622","name":"北二十六条東２２丁目","lat":43.097859,"lng":141.386842},{"code":"01103232701","name":"北二十七条東１丁目","lat":43.095065,"lng":141.348522},{"code":"01103232702","name":"北二十七条東２丁目","lat":43.095497,"lng":141.351141},{"code":"01103232703","name":"北二十七条東３丁目","lat":43.095693,"lng":141.352688},{"code":"01103232704","name":"北二十七条東４丁目","lat":43.095848,"lng":141.354243},{"code":"01103232705","name":"北二十七条東５丁目","lat":43.096101,"lng":141.355827},{"code":"01103232706","name":"北二十七条東６丁目","lat":43.096304,"lng":141.357404},{"code":"01103232707","name":"北二十七条東７丁目","lat":43.096505,"lng":141.358966},{"code":"01103232708","name":"北二十七条東８丁目","lat":43.096736,"lng":141.360567},{"code":"01103232709","name":"北二十七条東９丁目","lat":43.09693,"lng":141.362098},{"code":"01103232710","name":"北二十七条東１０丁目","lat":43.097133,"lng":141.363637},{"code":"01103232712","name":"北二十七条東１２丁目","lat":43.09734,"lng":141.365184},{"code":"01103232713","name":"北二十七条東１３丁目","lat":43.097531,"lng":141.366716},{"code":"01103232714","name":"北二十七条東１４丁目","lat":43.097736,"lng":141.368324},{"code":"01103232715","name":"北二十七条東１５丁目","lat":43.097923,"lng":141.369897},{"code":"01103232716","name":"北二十七条東１６丁目","lat":43.09814,"lng":141.371829},{"code":"01103232717","name":"北二十七条東１７丁目","lat":43.098458,"lng":141.373675},{"code":"01103232718","name":"北二十七条東１８丁目","lat":43.098652,"lng":141.376103},{"code":"01103232719","name":"北二十七条東１９丁目","lat":43.098857,"lng":141.379288},{"code":"01103232720","name":"北二十七条東２０丁目","lat":43.099227,"lng":141.381618},{"code":"01103232721","name":"北二十七条東２１丁目","lat":43.099504,"lng":141.383942},{"code":"01103232722","name":"北二十七条東２２丁目","lat":43.099464,"lng":141.386684},{"code":"01103232801","name":"北二十八条東１丁目","lat":43.096178,"lng":141.348127},{"code":"01103232802","name":"北二十八条東２丁目","lat":43.096602,"lng":141.350879},{"code":"01103232803","name":"北二十八条東３丁目","lat":43.096813,"lng":141.352395},{"code":"01103232804","name":"北二十八条東４丁目","lat":43.097032,"lng":141.353997},{"code":"01103232805","name":"北二十八条東５丁目","lat":43.097233,"lng":141.355556},{"code":"01103232806","name":"北二十八条東６丁目","lat":43.097424,"lng":141.357104},{"code":"01103232807","name":"北二十八条東７丁目","lat":43.09763,"lng":141.358694},{"code":"01103232808","name":"北二十八条東８丁目","lat":43.09786,"lng":141.360279},{"code":"01103232809","name":"北二十八条東９丁目","lat":43.098066,"lng":141.36182},{"code":"01103232810","name":"北二十八条東１０丁目","lat":43.098266,"lng":141.363359},{"code":"01103232812","name":"北二十八条東１２丁目","lat":43.098465,"lng":141.364896},{"code":"01103232813","name":"北二十八条東１３丁目","lat":43.098665,"lng":141.366457},{"code":"01103232814","name":"北二十八条東１４丁目","lat":43.098851,"lng":141.368025},{"code":"01103232815","name":"北二十八条東１５丁目","lat":43.099051,"lng":141.369611},{"code":"01103232816","name":"北二十八条東１６丁目","lat":43.099309,"lng":141.371305},{"code":"01103232817","name":"北二十八条東１７丁目","lat":43.099542,"lng":141.373075},{"code":"01103232818","name":"北二十八条東１８丁目","lat":43.099787,"lng":141.375718},{"code":"01103232819","name":"北二十八条東１９丁目","lat":43.100149,"lng":141.378537},{"code":"01103232820","name":"北二十八条東２０丁目","lat":43.100487,"lng":141.381139},{"code":"01103232821","name":"北二十八条東２１丁目","lat":43.100699,"lng":141.383915},{"code":"01103233001","name":"北三十条東１丁目","lat":43.097465,"lng":141.347775},{"code":"01103233002","name":"北三十条東２丁目","lat":43.097706,"lng":141.35061},{"code":"01103233003","name":"北三十条東３丁目","lat":43.097935,"lng":141.352161},{"code":"01103233004","name":"北三十条東４丁目","lat":43.098123,"lng":141.353568},{"code":"01103233005","name":"北三十条東５丁目","lat":43.098332,"lng":141.355165},{"code":"01103233006","name":"北三十条東６丁目","lat":43.098553,"lng":141.35686},{"code":"01103233007","name":"北三十条東７丁目","lat":43.098753,"lng":141.358422},{"code":"01103233008","name":"北三十条東８丁目","lat":43.098948,"lng":141.359997},{"code":"01103233009","name":"北三十条東９丁目","lat":43.099148,"lng":141.361563},{"code":"01103233010","name":"北三十条東１０丁目","lat":43.099348,"lng":141.363121},{"code":"01103233012","name":"北三十条東１２丁目","lat":43.099528,"lng":141.364626},{"code":"01103233013","name":"北三十条東１３丁目","lat":43.099714,"lng":141.366185},{"code":"01103233014","name":"北三十条東１４丁目","lat":43.099916,"lng":141.367789},{"code":"01103233015","name":"北三十条東１５丁目","lat":43.100112,"lng":141.369387},{"code":"01103233016","name":"北三十条東１６丁目","lat":43.100362,"lng":141.371064},{"code":"01103233017","name":"北三十条東１７丁目","lat":43.100589,"lng":141.372759},{"code":"01103233018","name":"北三十条東１８丁目","lat":43.100931,"lng":141.3754},{"code":"01103233019","name":"北三十条東１９丁目","lat":43.101447,"lng":141.378205},{"code":"01103233020","name":"北三十条東２０丁目","lat":43.101889,"lng":141.380585},{"code":"01103233101","name":"北三十一条東１丁目","lat":43.098674,"lng":141.347652},{"code":"01103233102","name":"北三十一条東２丁目","lat":43.098848,"lng":141.350315},{"code":"01103233103","name":"北三十一条東３丁目","lat":43.09906,"lng":141.351869},{"code":"01103233104","name":"北三十一条東４丁目","lat":43.099263,"lng":141.353317},{"code":"01103233105","name":"北三十一条東５丁目","lat":43.099468,"lng":141.354888},{"code":"01103233106","name":"北三十一条東６丁目","lat":43.099695,"lng":141.356571},{"code":"01103233107","name":"北三十一条東７丁目","lat":43.099901,"lng":141.35813},{"code":"01103233108","name":"北三十一条東８丁目","lat":43.099982,"lng":141.359787},{"code":"01103233109","name":"北三十一条東９丁目","lat":43.100158,"lng":141.361265},{"code":"01103233110","name":"北三十一条東１０丁目","lat":43.100348,"lng":141.362785},{"code":"01103233112","name":"北三十一条東１２丁目","lat":43.100547,"lng":141.36438},{"code":"01103233113","name":"北三十一条東１３丁目","lat":43.100729,"lng":141.365886},{"code":"01103233114","name":"北三十一条東１４丁目","lat":43.101154,"lng":141.367073},{"code":"01103233115","name":"北三十一条東１５丁目","lat":43.10161,"lng":141.36869},{"code":"01103233116","name":"北三十一条東１６丁目","lat":43.101476,"lng":141.370774},{"code":"01103233117","name":"北三十一条東１７丁目","lat":43.101704,"lng":141.372492},{"code":"01103233118","name":"北三十一条東１８丁目","lat":43.101914,"lng":141.375164},{"code":"01103233119","name":"北三十一条東１９丁目","lat":43.102952,"lng":141.377778},{"code":"01103233201","name":"北三十二条東１丁目","lat":43.099799,"lng":141.347266},{"code":"01103233202","name":"北三十二条東２丁目","lat":43.099962,"lng":141.350071},{"code":"01103233203","name":"北三十二条東３丁目","lat":43.100202,"lng":141.351631},{"code":"01103233204","name":"北三十二条東４丁目","lat":43.100399,"lng":141.353009},{"code":"01103233205","name":"北三十二条東５丁目","lat":43.100618,"lng":141.35461},{"code":"01103233206","name":"北三十二条東６丁目","lat":43.100834,"lng":141.356267},{"code":"01103233207","name":"北三十二条東７丁目","lat":43.101043,"lng":141.357846},{"code":"01103233208","name":"北三十二条東８丁目","lat":43.100932,"lng":141.359506},{"code":"01103233209","name":"北三十二条東９丁目","lat":43.101137,"lng":141.36105},{"code":"01103233210","name":"北三十二条東１０丁目","lat":43.10133,"lng":141.362585},{"code":"01103233212","name":"北三十二条東１２丁目","lat":43.101537,"lng":141.364148},{"code":"01103233213","name":"北三十二条東１３丁目","lat":43.101734,"lng":141.365715},{"code":"01103233214","name":"北三十二条東１４丁目","lat":43.10216,"lng":141.366838},{"code":"01103233216","name":"北三十二条東１６丁目","lat":43.10249,"lng":141.370515},{"code":"01103233217","name":"北三十二条東１７丁目","lat":43.102738,"lng":141.372291},{"code":"01103233218","name":"北三十二条東１８丁目","lat":43.102875,"lng":141.374849},{"code":"01103233301","name":"北三十三条東１丁目","lat":43.100934,"lng":141.347181},{"code":"01103233302","name":"北三十三条東２丁目","lat":43.101235,"lng":141.349879},{"code":"01103233303","name":"北三十三条東３丁目","lat":43.101444,"lng":141.351323},{"code":"01103233304","name":"北三十三条東４丁目","lat":43.101636,"lng":141.352658},{"code":"01103233305","name":"北三十三条東５丁目","lat":43.10186,"lng":141.354293},{"code":"01103233306","name":"北三十三条東６丁目","lat":43.102075,"lng":141.355952},{"code":"01103233307","name":"北三十三条東７丁目","lat":43.102283,"lng":141.357521},{"code":"01103233308","name":"北三十三条東８丁目","lat":43.102278,"lng":141.359077},{"code":"01103233309","name":"北三十三条東９丁目","lat":43.102516,"lng":141.360625},{"code":"01103233310","name":"北三十三条東１０丁目","lat":43.102726,"lng":141.362193},{"code":"01103233312","name":"北三十三条東１２丁目","lat":43.102914,"lng":141.363603},{"code":"01103233313","name":"北三十三条東１３丁目","lat":43.103111,"lng":141.364996},{"code":"01103233314","name":"北三十三条東１４丁目","lat":43.103334,"lng":141.366738},{"code":"01103233315","name":"北三十三条東１５丁目","lat":43.103575,"lng":141.368594},{"code":"01103233316","name":"北三十三条東１６丁目","lat":43.103753,"lng":141.370159},{"code":"01103233317","name":"北三十三条東１７丁目","lat":43.103875,"lng":141.371877},{"code":"01103233318","name":"北三十三条東１８丁目","lat":43.103906,"lng":141.374394},{"code":"01103233401","name":"北三十四条東１丁目","lat":43.102075,"lng":141.34683},{"code":"01103233402","name":"北三十四条東２丁目","lat":43.102479,"lng":141.34957},{"code":"01103233403","name":"北三十四条東３丁目","lat":43.102678,"lng":141.351081},{"code":"01103233404","name":"北三十四条東４丁目","lat":43.102845,"lng":141.35236},{"code":"01103233405","name":"北三十四条東５丁目","lat":43.103081,"lng":141.353967},{"code":"01103233406","name":"北三十四条東６丁目","lat":43.103307,"lng":141.355649},{"code":"01103233407","name":"北三十四条東７丁目","lat":43.103517,"lng":141.357242},{"code":"01103233408","name":"北三十四条東８丁目","lat":43.103723,"lng":141.358753},{"code":"01103233409","name":"北三十四条東９丁目","lat":43.103941,"lng":141.360291},{"code":"01103233410","name":"北三十四条東１０丁目","lat":43.104167,"lng":141.361856},{"code":"01103233412","name":"北三十四条東１２丁目","lat":43.104195,"lng":141.363293},{"code":"01103233413","name":"北三十四条東１３丁目","lat":43.104382,"lng":141.364683},{"code":"01103233414","name":"北三十四条東１４丁目","lat":43.104596,"lng":141.366401},{"code":"01103233415","name":"北三十四条東１５丁目","lat":43.1048,"lng":141.368295},{"code":"01103233416","name":"北三十四条東１６丁目","lat":43.10516,"lng":141.369838},{"code":"01103233417","name":"北三十四条東１７丁目","lat":43.105134,"lng":141.371587},{"code":"01103233418","name":"北三十四条東１８丁目","lat":43.105215,"lng":141.373329},{"code":"01103233419","name":"北三十四条東１９丁目","lat":43.105159,"lng":141.375204},{"code":"01103233420","name":"北三十四条東２０丁目","lat":43.1049,"lng":141.377367},{"code":"01103233421","name":"北三十四条東２１丁目","lat":43.104332,"lng":141.378788},{"code":"01103233422","name":"北三十四条東２２丁目","lat":43.103867,"lng":141.380134},{"code":"01103233423","name":"北三十四条東２３丁目","lat":43.103285,"lng":141.38157},{"code":"01103233424","name":"北三十四条東２４丁目","lat":43.102716,"lng":141.383048},{"code":"01103233425","name":"北三十四条東２５丁目","lat":43.101969,"lng":141.384321},{"code":"01103233426","name":"北三十四条東２６丁目","lat":43.101386,"lng":141.38575},{"code":"01103233427","name":"北三十四条東２７丁目","lat":43.10074,"lng":141.387832},{"code":"01103233428","name":"北三十四条東２８丁目","lat":43.099486,"lng":141.390994},{"code":"01103233501","name":"北三十五条東１丁目","lat":43.103215,"lng":141.346676},{"code":"01103233502","name":"北三十五条東２丁目","lat":43.103691,"lng":141.349286},{"code":"01103233503","name":"北三十五条東３丁目","lat":43.103908,"lng":141.350832},{"code":"01103233504","name":"北三十五条東４丁目","lat":43.104069,"lng":141.352123},{"code":"01103233505","name":"北三十五条東５丁目","lat":43.104279,"lng":141.353689},{"code":"01103233506","name":"北三十五条東６丁目","lat":43.104506,"lng":141.355378},{"code":"01103233507","name":"北三十五条東７丁目","lat":43.104716,"lng":141.356942},{"code":"01103233508","name":"北三十五条東８丁目","lat":43.104916,"lng":141.358474},{"code":"01103233509","name":"北三十五条東９丁目","lat":43.105136,"lng":141.360008},{"code":"01103233510","name":"北三十五条東１０丁目","lat":43.105355,"lng":141.361561},{"code":"01103233512","name":"北三十五条東１２丁目","lat":43.104991,"lng":141.363101},{"code":"01103233513","name":"北三十五条東１３丁目","lat":43.105187,"lng":141.364503},{"code":"01103233514","name":"北三十五条東１４丁目","lat":43.105294,"lng":141.366358},{"code":"01103233515","name":"北三十五条東１５丁目","lat":43.105576,"lng":141.368038},{"code":"01103233516","name":"北三十五条東１６丁目","lat":43.105906,"lng":141.369678},{"code":"01103233517","name":"北三十五条東１７丁目","lat":43.105971,"lng":141.371379},{"code":"01103233518","name":"北三十五条東１８丁目","lat":43.106195,"lng":141.373099},{"code":"01103233519","name":"北三十五条東１９丁目","lat":43.106421,"lng":141.374825},{"code":"01103233520","name":"北三十五条東２０丁目","lat":43.10632,"lng":141.377021},{"code":"01103233521","name":"北三十五条東２１丁目","lat":43.10589,"lng":141.379279},{"code":"01103233522","name":"北三十五条東２２丁目","lat":43.105602,"lng":141.380907},{"code":"01103233523","name":"北三十五条東２３丁目","lat":43.104723,"lng":141.382534},{"code":"01103233524","name":"北三十五条東２４丁目","lat":43.103914,"lng":141.384111},{"code":"01103233525","name":"北三十五条東２５丁目","lat":43.103196,"lng":141.385434},{"code":"01103233526","name":"北三十五条東２６丁目","lat":43.102486,"lng":141.386848},{"code":"01103233527","name":"北三十五条東２７丁目","lat":43.101964,"lng":141.388967},{"code":"01103233528","name":"北三十五条東２８丁目","lat":43.10071,"lng":141.392332},{"code":"01103233601","name":"北三十六条東１丁目","lat":43.104241,"lng":141.346306},{"code":"01103233602","name":"北三十六条東２丁目","lat":43.104752,"lng":141.349044},{"code":"01103233603","name":"北三十六条東３丁目","lat":43.104975,"lng":141.350597},{"code":"01103233604","name":"北三十六条東４丁目","lat":43.105121,"lng":141.351864},{"code":"01103233605","name":"北三十六条東５丁目","lat":43.105328,"lng":141.353427},{"code":"01103233606","name":"北三十六条東６丁目","lat":43.105543,"lng":141.355061},{"code":"01103233607","name":"北三十六条東７丁目","lat":43.10572,"lng":141.356625},{"code":"01103233608","name":"北三十六条東８丁目","lat":43.105916,"lng":141.35822},{"code":"01103233609","name":"北三十六条東９丁目","lat":43.106126,"lng":141.359767},{"code":"01103233610","name":"北三十六条東１０丁目","lat":43.106325,"lng":141.361301},{"code":"01103233612","name":"北三十六条東１２丁目","lat":43.105965,"lng":141.362866},{"code":"01103233613","name":"北三十六条東１３丁目","lat":43.106434,"lng":141.364173},{"code":"01103233614","name":"北三十六条東１４丁目","lat":43.106208,"lng":141.366037},{"code":"01103233615","name":"北三十六条東１５丁目","lat":43.106653,"lng":141.367873},{"code":"01103233616","name":"北三十六条東１６丁目","lat":43.106848,"lng":141.369789},{"code":"01103233617","name":"北三十六条東１７丁目","lat":43.107021,"lng":141.371492},{"code":"01103233618","name":"北三十六条東１８丁目","lat":43.10721,"lng":141.37281},{"code":"01103233619","name":"北三十六条東１９丁目","lat":43.107462,"lng":141.374525},{"code":"01103233620","name":"北三十六条東２０丁目","lat":43.107738,"lng":141.376631},{"code":"01103233621","name":"北三十六条東２１丁目","lat":43.107566,"lng":141.379073},{"code":"01103233622","name":"北三十六条東２２丁目","lat":43.107101,"lng":141.382206},{"code":"01103233623","name":"北三十六条東２３丁目","lat":43.106134,"lng":141.38386},{"code":"01103233624","name":"北三十六条東２４丁目","lat":43.105304,"lng":141.385285},{"code":"01103233625","name":"北三十六条東２５丁目","lat":43.1045,"lng":141.386596},{"code":"01103233626","name":"北三十六条東２６丁目","lat":43.103656,"lng":141.387974},{"code":"01103233627","name":"北三十六条東２７丁目","lat":43.102774,"lng":141.389637},{"code":"01103233628","name":"北三十六条東２８丁目","lat":43.101721,"lng":141.392955},{"code":"01103233629","name":"北三十六条東２９丁目","lat":43.100731,"lng":141.395987},{"code":"01103233701","name":"北三十七条東１丁目","lat":43.105194,"lng":141.346156},{"code":"01103233702","name":"北三十七条東２丁目","lat":43.105587,"lng":141.348842},{"code":"01103233703","name":"北三十七条東３丁目","lat":43.105794,"lng":141.350403},{"code":"01103233704","name":"北三十七条東４丁目","lat":43.105953,"lng":141.351665},{"code":"01103233705","name":"北三十七条東５丁目","lat":43.106152,"lng":141.353204},{"code":"01103233706","name":"北三十七条東６丁目","lat":43.106361,"lng":141.354856},{"code":"01103233707","name":"北三十七条東７丁目","lat":43.106538,"lng":141.35646},{"code":"01103233708","name":"北三十七条東８丁目","lat":43.106677,"lng":141.358034},{"code":"01103233709","name":"北三十七条東９丁目","lat":43.106858,"lng":141.359588},{"code":"01103233710","name":"北三十七条東１０丁目","lat":43.107067,"lng":141.361178},{"code":"01103233712","name":"北三十七条東１２丁目","lat":43.107187,"lng":141.362649},{"code":"01103233713","name":"北三十七条東１３丁目","lat":43.107517,"lng":141.363906},{"code":"01103233714","name":"北三十七条東１４丁目","lat":43.107534,"lng":141.365728},{"code":"01103233715","name":"北三十七条東１５丁目","lat":43.107784,"lng":141.367554},{"code":"01103233716","name":"北三十七条東１６丁目","lat":43.107991,"lng":141.369169},{"code":"01103233717","name":"北三十七条東１７丁目","lat":43.108221,"lng":141.370832},{"code":"01103233718","name":"北三十七条東１８丁目","lat":43.108453,"lng":141.372468},{"code":"01103233719","name":"北三十七条東１９丁目","lat":43.108696,"lng":141.374147},{"code":"01103233720","name":"北三十七条東２０丁目","lat":43.10902,"lng":141.376299},{"code":"01103233721","name":"北三十七条東２１丁目","lat":43.109579,"lng":141.378755},{"code":"01103233722","name":"北三十七条東２２丁目","lat":43.108646,"lng":141.380608},{"code":"01103233725","name":"北三十七条東２５丁目","lat":43.105931,"lng":141.386402},{"code":"01103233726","name":"北三十七条東２６丁目","lat":43.105041,"lng":141.388524},{"code":"01103233727","name":"北三十七条東２７丁目","lat":43.104034,"lng":141.391399},{"code":"01103233728","name":"北三十七条東２８丁目","lat":43.103103,"lng":141.393769},{"code":"01103233729","name":"北三十七条東２９丁目","lat":43.102914,"lng":141.39698},{"code":"01103233730","name":"北三十七条東３０丁目","lat":43.102665,"lng":141.399511},{"code":"01103233801","name":"北三十八条東１丁目","lat":43.106088,"lng":141.346295},{"code":"01103233802","name":"北三十八条東２丁目","lat":43.106395,"lng":141.348628},{"code":"01103233803","name":"北三十八条東３丁目","lat":43.10659,"lng":141.350182},{"code":"01103233804","name":"北三十八条東４丁目","lat":43.106743,"lng":141.351448},{"code":"01103233805","name":"北三十八条東５丁目","lat":43.10695,"lng":141.353005},{"code":"01103233806","name":"北三十八条東６丁目","lat":43.107173,"lng":141.354683},{"code":"01103233807","name":"北三十八条東７丁目","lat":43.107363,"lng":141.356238},{"code":"01103233808","name":"北三十八条東８丁目","lat":43.107605,"lng":141.357794},{"code":"01103233809","name":"北三十八条東９丁目","lat":43.107794,"lng":141.359353},{"code":"01103233810","name":"北三十八条東１０丁目","lat":43.108002,"lng":141.360927},{"code":"01103233812","name":"北三十八条東１２丁目","lat":43.108321,"lng":141.362313},{"code":"01103233813","name":"北三十八条東１３丁目","lat":43.10839,"lng":141.363709},{"code":"01103233814","name":"北三十八条東１４丁目","lat":43.108688,"lng":141.365433},{"code":"01103233815","name":"北三十八条東１５丁目","lat":43.108919,"lng":141.367298},{"code":"01103233816","name":"北三十八条東１６丁目","lat":43.109153,"lng":141.36889},{"code":"01103233817","name":"北三十八条東１７丁目","lat":43.109389,"lng":141.370545},{"code":"01103233818","name":"北三十八条東１８丁目","lat":43.109626,"lng":141.372172},{"code":"01103233819","name":"北三十八条東１９丁目","lat":43.109871,"lng":141.373843},{"code":"01103233820","name":"北三十八条東２０丁目","lat":43.110227,"lng":141.375919},{"code":"01103233821","name":"北三十八条東２１丁目","lat":43.110477,"lng":141.378134},{"code":"01103233901","name":"北三十九条東１丁目","lat":43.106861,"lng":141.345901},{"code":"01103233902","name":"北三十九条東２丁目","lat":43.107216,"lng":141.348427},{"code":"01103233903","name":"北三十九条東３丁目","lat":43.107456,"lng":141.349952},{"code":"01103233904","name":"北三十九条東４丁目","lat":43.107643,"lng":141.35138},{"code":"01103233905","name":"北三十九条東５丁目","lat":43.107854,"lng":141.352951},{"code":"01103233906","name":"北三十九条東６丁目","lat":43.108062,"lng":141.354457},{"code":"01103233907","name":"北三十九条東７丁目","lat":43.108287,"lng":141.356063},{"code":"01103233908","name":"北三十九条東８丁目","lat":43.108599,"lng":141.357618},{"code":"01103233909","name":"北三十九条東９丁目","lat":43.108778,"lng":141.359119},{"code":"01103233910","name":"北三十九条東１０丁目","lat":43.108993,"lng":141.360699},{"code":"01103233912","name":"北三十九条東１２丁目","lat":43.109261,"lng":141.362116},{"code":"01103233913","name":"北三十九条東１３丁目","lat":43.10941,"lng":141.363459},{"code":"01103233914","name":"北三十九条東１４丁目","lat":43.109707,"lng":141.365256},{"code":"01103233915","name":"北三十九条東１５丁目","lat":43.109939,"lng":141.367094},{"code":"01103233916","name":"北三十九条東１６丁目","lat":43.110227,"lng":141.368595},{"code":"01103233917","name":"北三十九条東１７丁目","lat":43.110472,"lng":141.370256},{"code":"01103233918","name":"北三十九条東１８丁目","lat":43.11071,"lng":141.371882},{"code":"01103233919","name":"北三十九条東１９丁目","lat":43.11094,"lng":141.373546},{"code":"01103233920","name":"北三十九条東２０丁目","lat":43.111135,"lng":141.374991},{"code":"01103233921","name":"北三十九条東２１丁目","lat":43.111885,"lng":141.376519},{"code":"01103234001","name":"北四十条東１丁目","lat":43.107886,"lng":141.345692},{"code":"01103234002","name":"北四十条東２丁目","lat":43.108253,"lng":141.348197},{"code":"01103234003","name":"北四十条東３丁目","lat":43.108503,"lng":141.349697},{"code":"01103234004","name":"北四十条東４丁目","lat":43.108679,"lng":141.35097},{"code":"01103234005","name":"北四十条東５丁目","lat":43.108906,"lng":141.352555},{"code":"01103234006","name":"北四十条東６丁目","lat":43.109181,"lng":141.3542},{"code":"01103234007","name":"北四十条東７丁目","lat":43.109401,"lng":141.355751},{"code":"01103234008","name":"北四十条東８丁目","lat":43.109624,"lng":141.357333},{"code":"01103234009","name":"北四十条東９丁目","lat":43.109815,"lng":141.358821},{"code":"01103234010","name":"北四十条東１０丁目","lat":43.109661,"lng":141.360542},{"code":"01103234012","name":"北四十条東１２丁目","lat":43.110257,"lng":141.361869},{"code":"01103234013","name":"北四十条東１３丁目","lat":43.110455,"lng":141.363252},{"code":"01103234014","name":"北四十条東１４丁目","lat":43.110677,"lng":141.365062},{"code":"01103234015","name":"北四十条東１５丁目","lat":43.110864,"lng":141.366825},{"code":"01103234016","name":"北四十条東１６丁目","lat":43.111289,"lng":141.36836},{"code":"01103234017","name":"北四十条東１７丁目","lat":43.111516,"lng":141.370002},{"code":"01103234018","name":"北四十条東１８丁目","lat":43.111741,"lng":141.371652},{"code":"01103234019","name":"北四十条東１９丁目","lat":43.111955,"lng":141.373263},{"code":"01103234020","name":"北四十条東２０丁目","lat":43.112173,"lng":141.374721},{"code":"01103234101","name":"北四十一条東１丁目","lat":43.109208,"lng":141.345315},{"code":"01103234102","name":"北四十一条東２丁目","lat":43.109532,"lng":141.34789},{"code":"01103234103","name":"北四十一条東３丁目","lat":43.109742,"lng":141.349372},{"code":"01103234104","name":"北四十一条東４丁目","lat":43.109933,"lng":141.350671},{"code":"01103234105","name":"北四十一条東５丁目","lat":43.110158,"lng":141.352253},{"code":"01103234106","name":"北四十一条東６丁目","lat":43.110445,"lng":141.353914},{"code":"01103234107","name":"北四十一条東７丁目","lat":43.110673,"lng":141.355454},{"code":"01103234108","name":"北四十一条東８丁目","lat":43.110894,"lng":141.357026},{"code":"01103234109","name":"北四十一条東９丁目","lat":43.111082,"lng":141.358412},{"code":"01103234110","name":"北四十一条東１０丁目","lat":43.110911,"lng":141.360088},{"code":"01103234112","name":"北四十一条東１２丁目","lat":43.111492,"lng":141.361544},{"code":"01103234113","name":"北四十一条東１３丁目","lat":43.111687,"lng":141.36293},{"code":"01103234114","name":"北四十一条東１４丁目","lat":43.111896,"lng":141.364463},{"code":"01103234115","name":"北四十一条東１５丁目","lat":43.11214,"lng":141.366314},{"code":"01103234116","name":"北四十一条東１６丁目","lat":43.112475,"lng":141.368081},{"code":"01103234117","name":"北四十一条東１７丁目","lat":43.112706,"lng":141.369709},{"code":"01103234118","name":"北四十一条東１８丁目","lat":43.112923,"lng":141.371314},{"code":"01103234119","name":"北四十一条東１９丁目","lat":43.113122,"lng":141.372955},{"code":"01103234120","name":"北四十一条東２０丁目","lat":43.113184,"lng":141.37434},{"code":"01103234201","name":"北四十二条東１丁目","lat":43.110516,"lng":141.345094},{"code":"01103234202","name":"北四十二条東２丁目","lat":43.110841,"lng":141.347569},{"code":"01103234203","name":"北四十二条東３丁目","lat":43.111053,"lng":141.349083},{"code":"01103234204","name":"北四十二条東４丁目","lat":43.111234,"lng":141.350353},{"code":"01103234205","name":"北四十二条東５丁目","lat":43.111474,"lng":141.351967},{"code":"01103234206","name":"北四十二条東６丁目","lat":43.111704,"lng":141.353605},{"code":"01103234207","name":"北四十二条東７丁目","lat":43.111932,"lng":141.355133},{"code":"01103234208","name":"北四十二条東８丁目","lat":43.112047,"lng":141.356742},{"code":"01103234209","name":"北四十二条東９丁目","lat":43.112286,"lng":141.358265},{"code":"01103234210","name":"北四十二条東１０丁目","lat":43.112819,"lng":141.359857},{"code":"01103234212","name":"北四十二条東１２丁目","lat":43.112794,"lng":141.361243},{"code":"01103234213","name":"北四十二条東１３丁目","lat":43.11298,"lng":141.362571},{"code":"01103234214","name":"北四十二条東１４丁目","lat":43.113219,"lng":141.364167},{"code":"01103234215","name":"北四十二条東１５丁目","lat":43.113476,"lng":141.366068},{"code":"01103234216","name":"北四十二条東１６丁目","lat":43.113934,"lng":141.367666},{"code":"01103234217","name":"北四十二条東１７丁目","lat":43.114136,"lng":141.369373},{"code":"01103234218","name":"北四十二条東１８丁目","lat":43.114435,"lng":141.371123},{"code":"01103234219","name":"北四十二条東１９丁目","lat":43.114671,"lng":141.372529},{"code":"01103234301","name":"北四十三条東１丁目","lat":43.111871,"lng":141.344831},{"code":"01103234302","name":"北四十三条東２丁目","lat":43.112108,"lng":141.347268},{"code":"01103234303","name":"北四十三条東３丁目","lat":43.112308,"lng":141.348749},{"code":"01103234304","name":"北四十三条東４丁目","lat":43.112505,"lng":141.350054},{"code":"01103234305","name":"北四十三条東５丁目","lat":43.112729,"lng":141.351677},{"code":"01103234306","name":"北四十三条東６丁目","lat":43.112963,"lng":141.353297},{"code":"01103234307","name":"北四十三条東７丁目","lat":43.113164,"lng":141.354798},{"code":"01103234308","name":"北四十三条東８丁目","lat":43.113273,"lng":141.356416},{"code":"01103234309","name":"北四十三条東９丁目","lat":43.113524,"lng":141.357957},{"code":"01103234310","name":"北四十三条東１０丁目","lat":43.113921,"lng":141.359326},{"code":"01103234312","name":"北四十三条東１２丁目","lat":43.11403,"lng":141.360936},{"code":"01103234313","name":"北四十三条東１３丁目","lat":43.114213,"lng":141.36226},{"code":"01103234314","name":"北四十三条東１４丁目","lat":43.11444,"lng":141.363875},{"code":"01103234315","name":"北四十三条東１５丁目","lat":43.114693,"lng":141.365738},{"code":"01103234316","name":"北四十三条東１６丁目","lat":43.11564,"lng":141.367366},{"code":"01103234317","name":"北四十三条東１７丁目","lat":43.115908,"lng":141.369004},{"code":"01103234318","name":"北四十三条東１８丁目","lat":43.11603,"lng":141.370681},{"code":"01103234319","name":"北四十三条東１９丁目","lat":43.116292,"lng":141.372156},{"code":"01103234401","name":"北四十四条東１丁目","lat":43.113182,"lng":141.344863},{"code":"01103234402","name":"北四十四条東２丁目","lat":43.113351,"lng":141.346953},{"code":"01103234403","name":"北四十四条東３丁目","lat":43.113568,"lng":141.348466},{"code":"01103234404","name":"北四十四条東４丁目","lat":43.113738,"lng":141.349745},{"code":"01103234405","name":"北四十四条東５丁目","lat":43.113958,"lng":141.351401},{"code":"01103234406","name":"北四十四条東６丁目","lat":43.114144,"lng":141.35289},{"code":"01103234407","name":"北四十四条東７丁目","lat":43.114343,"lng":141.354412},{"code":"01103234408","name":"北四十四条東８丁目","lat":43.114562,"lng":141.356101},{"code":"01103234409","name":"北四十四条東９丁目","lat":43.114754,"lng":141.357618},{"code":"01103234410","name":"北四十四条東１０丁目","lat":43.115027,"lng":141.35923},{"code":"01103234412","name":"北四十四条東１２丁目","lat":43.115226,"lng":141.360655},{"code":"01103234413","name":"北四十四条東１３丁目","lat":43.115407,"lng":141.361955},{"code":"01103234414","name":"北四十四条東１４丁目","lat":43.115623,"lng":141.363585},{"code":"01103234415","name":"北四十四条東１５丁目","lat":43.115849,"lng":141.365438},{"code":"01103234501","name":"北四十五条東１丁目","lat":43.114366,"lng":141.344782},{"code":"01103234502","name":"北四十五条東２丁目","lat":43.114543,"lng":141.346627},{"code":"01103234503","name":"北四十五条東３丁目","lat":43.114805,"lng":141.348153},{"code":"01103234504","name":"北四十五条東４丁目","lat":43.114964,"lng":141.34945},{"code":"01103234505","name":"北四十五条東５丁目","lat":43.115172,"lng":141.351118},{"code":"01103234506","name":"北四十五条東６丁目","lat":43.11536,"lng":141.352641},{"code":"01103234507","name":"北四十五条東７丁目","lat":43.115497,"lng":141.3541},{"code":"01103234508","name":"北四十五条東８丁目","lat":43.115741,"lng":141.355798},{"code":"01103234509","name":"北四十五条東９丁目","lat":43.115923,"lng":141.35735},{"code":"01103234510","name":"北四十五条東１０丁目","lat":43.116158,"lng":141.358906},{"code":"01103234512","name":"北四十五条東１２丁目","lat":43.11637,"lng":141.360376},{"code":"01103234513","name":"北四十五条東１３丁目","lat":43.116535,"lng":141.361666},{"code":"01103234514","name":"北四十五条東１４丁目","lat":43.116751,"lng":141.363304},{"code":"01103234515","name":"北四十五条東１５丁目","lat":43.117005,"lng":141.365193},{"code":"01103234516","name":"北四十五条東１６丁目","lat":43.117199,"lng":141.366868},{"code":"01103234517","name":"北四十五条東１７丁目","lat":43.117404,"lng":141.368523},{"code":"01103234518","name":"北四十五条東１８丁目","lat":43.117568,"lng":141.370125},{"code":"01103234519","name":"北四十五条東１９丁目","lat":43.11779,"lng":141.371621},{"code":"01103234601","name":"北四十六条東１丁目","lat":43.115684,"lng":141.344511},{"code":"01103234602","name":"北四十六条東２丁目","lat":43.115886,"lng":141.346094},{"code":"01103234603","name":"北四十六条東３丁目","lat":43.116084,"lng":141.347617},{"code":"01103234604","name":"北四十六条東４丁目","lat":43.116287,"lng":141.349267},{"code":"01103234605","name":"北四十六条東５丁目","lat":43.116475,"lng":141.350722},{"code":"01103234606","name":"北四十六条東６丁目","lat":43.116523,"lng":141.352114},{"code":"01103234607","name":"北四十六条東７丁目","lat":43.116731,"lng":141.353794},{"code":"01103234608","name":"北四十六条東８丁目","lat":43.11712,"lng":141.355383},{"code":"01103234609","name":"北四十六条東９丁目","lat":43.117381,"lng":141.356807},{"code":"01103234610","name":"北四十六条東１０丁目","lat":43.117438,"lng":141.358491},{"code":"01103234612","name":"北四十六条東１２丁目","lat":43.11758,"lng":141.360063},{"code":"01103234613","name":"北四十六条東１３丁目","lat":43.117753,"lng":141.36139},{"code":"01103234614","name":"北四十六条東１４丁目","lat":43.117966,"lng":141.363008},{"code":"01103234615","name":"北四十六条東１５丁目","lat":43.118172,"lng":141.364861},{"code":"01103234616","name":"北四十六条東１６丁目","lat":43.118363,"lng":141.366591},{"code":"01103234617","name":"北四十六条東１７丁目","lat":43.11854,"lng":141.368172},{"code":"01103234618","name":"北四十六条東１８丁目","lat":43.118933,"lng":141.369719},{"code":"01103234619","name":"北四十六条東１９丁目","lat":43.119183,"lng":141.371203},{"code":"01103234701","name":"北四十七条東１丁目","lat":43.116886,"lng":141.344226},{"code":"01103234702","name":"北四十七条東２丁目","lat":43.117097,"lng":141.345855},{"code":"01103234703","name":"北四十七条東３丁目","lat":43.117388,"lng":141.347349},{"code":"01103234704","name":"北四十七条東４丁目","lat":43.117584,"lng":141.348962},{"code":"01103234705","name":"北四十七条東５丁目","lat":43.117772,"lng":141.350442},{"code":"01103234706","name":"北四十七条東６丁目","lat":43.117805,"lng":141.351822},{"code":"01103234707","name":"北四十七条東７丁目","lat":43.118009,"lng":141.353486},{"code":"01103234708","name":"北四十七条東８丁目","lat":43.118398,"lng":141.355091},{"code":"01103234709","name":"北四十七条東９丁目","lat":43.118771,"lng":141.356437},{"code":"01103234710","name":"北四十七条東１０丁目","lat":43.118817,"lng":141.358287},{"code":"01103234713","name":"北四十七条東１３丁目","lat":43.118953,"lng":141.36046},{"code":"01103234714","name":"北四十七条東１４丁目","lat":43.119329,"lng":141.362569},{"code":"01103234715","name":"北四十七条東１５丁目","lat":43.119467,"lng":141.364502},{"code":"01103234716","name":"北四十七条東１６丁目","lat":43.1195,"lng":141.366329},{"code":"01103234717","name":"北四十七条東１７丁目","lat":43.119678,"lng":141.367899},{"code":"01103234718","name":"北四十七条東１８丁目","lat":43.120066,"lng":141.369367},{"code":"01103234719","name":"北四十七条東１９丁目","lat":43.120268,"lng":141.370853},{"code":"01103234801","name":"北四十八条東１丁目","lat":43.118043,"lng":141.344106},{"code":"01103234802","name":"北四十八条東２丁目","lat":43.118145,"lng":141.345646},{"code":"01103234803","name":"北四十八条東３丁目","lat":43.118424,"lng":141.34712},{"code":"01103234804","name":"北四十八条東４丁目","lat":43.118614,"lng":141.348722},{"code":"01103234805","name":"北四十八条東５丁目","lat":43.11879,"lng":141.350206},{"code":"01103234806","name":"北四十八条東６丁目","lat":43.118942,"lng":141.351544},{"code":"01103234807","name":"北四十八条東７丁目","lat":43.119151,"lng":141.353198},{"code":"01103234808","name":"北四十八条東８丁目","lat":43.11941,"lng":141.354852},{"code":"01103234809","name":"北四十八条東９丁目","lat":43.119637,"lng":141.356234},{"code":"01103234810","name":"北四十八条東１０丁目","lat":43.119892,"lng":141.358214},{"code":"01103234813","name":"北四十八条東１３丁目","lat":43.12012,"lng":141.360372},{"code":"01103234814","name":"北四十八条東１４丁目","lat":43.120325,"lng":141.362191},{"code":"01103234815","name":"北四十八条東１５丁目","lat":43.120567,"lng":141.364253},{"code":"01103234816","name":"北四十八条東１６丁目","lat":43.120592,"lng":141.366023},{"code":"01103234817","name":"北四十八条東１７丁目","lat":43.120897,"lng":141.36755},{"code":"01103234818","name":"北四十八条東１８丁目","lat":43.121246,"lng":141.369215},{"code":"01103234819","name":"北四十八条東１９丁目","lat":43.121323,"lng":141.37063},{"code":"01103234902","name":"北四十九条東２丁目","lat":43.119538,"lng":141.345182},{"code":"01103234903","name":"北四十九条東３丁目","lat":43.11979,"lng":141.347564},{"code":"01103234904","name":"北四十九条東４丁目","lat":43.119952,"lng":141.348762},{"code":"01103234905","name":"北四十九条東５丁目","lat":43.120073,"lng":141.349891},{"code":"01103234906","name":"北四十九条東６丁目","lat":43.120221,"lng":141.35124},{"code":"01103234907","name":"北四十九条東７丁目","lat":43.120469,"lng":141.353029},{"code":"01103234908","name":"北四十九条東８丁目","lat":43.120885,"lng":141.355102},{"code":"01103234909","name":"北四十九条東９丁目","lat":43.121383,"lng":141.356472},{"code":"01103234910","name":"北四十九条東１０丁目","lat":43.121301,"lng":141.358217},{"code":"01103234913","name":"北四十九条東１３丁目","lat":43.121615,"lng":141.359907},{"code":"01103234914","name":"北四十九条東１４丁目","lat":43.121754,"lng":141.362036},{"code":"01103234915","name":"北四十九条東１５丁目","lat":43.121958,"lng":141.364066},{"code":"01103234916","name":"北四十九条東１６丁目","lat":43.122205,"lng":141.365731},{"code":"01103234917","name":"北四十九条東１７丁目","lat":43.122502,"lng":141.367461},{"code":"01103235002","name":"北五十条東２丁目","lat":43.12084,"lng":141.345054},{"code":"01103235003","name":"北五十条東３丁目","lat":43.121157,"lng":141.347196},{"code":"01103235004","name":"北五十条東４丁目","lat":43.121336,"lng":141.348421},{"code":"01103235005","name":"北五十条東５丁目","lat":43.121573,"lng":141.349558},{"code":"01103235006","name":"北五十条東６丁目","lat":43.121751,"lng":141.3509},{"code":"01103235007","name":"北五十条東７丁目","lat":43.122196,"lng":141.352837},{"code":"01103235008","name":"北五十条東８丁目","lat":43.122972,"lng":141.35453},{"code":"01103235009","name":"北五十条東９丁目","lat":43.122927,"lng":141.356097},{"code":"01103235010","name":"北五十条東１０丁目","lat":43.122784,"lng":141.358147},{"code":"01103235013","name":"北五十条東１３丁目","lat":43.123148,"lng":141.359644},{"code":"01103235014","name":"北五十条東１４丁目","lat":43.123319,"lng":141.361051},{"code":"01103235015","name":"北五十条東１５丁目","lat":43.123725,"lng":141.363034},{"code":"01103235102","name":"北五十一条東２丁目","lat":43.122076,"lng":141.345105},{"code":"01103235103","name":"北五十一条東３丁目","lat":43.122451,"lng":141.346891},{"code":"01103235104","name":"北五十一条東４丁目","lat":43.122742,"lng":141.348119},{"code":"01103235105","name":"北五十一条東５丁目","lat":43.123036,"lng":141.349241},{"code":"01103235106","name":"北五十一条東６丁目","lat":43.1233,"lng":141.350529},{"code":"01103235107","name":"北五十一条東７丁目","lat":43.123939,"lng":141.35279},{"code":"01103235108","name":"北五十一条東８丁目","lat":43.124381,"lng":141.354663},{"code":"01103235109","name":"北五十一条東９丁目","lat":43.124181,"lng":141.356217},{"code":"01103235110","name":"北五十一条東１０丁目","lat":43.123847,"lng":141.358034},{"code":"01103235114","name":"北五十一条東１４丁目","lat":43.124425,"lng":141.36113},{"code":"01103235115","name":"北五十一条東１５丁目","lat":43.125177,"lng":141.362568}]}
