{"municipality":"01208","name":"北見市","prefecture":"北海道","source":{"dataset":"frogcat/japan-small-area","census":"平成27年国勢調査 小地域（e-Stat 統計LOD）","license":"MIT（リポジトリ）／政府統計の総合窓口(e-Stat)の利用規約（元データ・出典表記必要）","fetched":"2026-07-06"},"towns":[{"code":"012080010","name":"大通東","lat":43.809636,"lng":143.897094},{"code":"012080020","name":"大通西","lat":43.80393,"lng":143.891927},{"code":"012080030","name":"大町","lat":43.814731,"lng":143.904564},{"code":"012080040","name":"公園町","lat":43.819219,"lng":143.906536},{"code":"012080050","name":"高砂町","lat":43.816093,"lng":143.900673},{"code":"012080060","name":"青葉町","lat":43.814234,"lng":143.897186},{"code":"012080070","name":"三楽町","lat":43.815283,"lng":143.892535},{"code":"012080080","name":"三住町","lat":43.812272,"lng":143.890958},{"code":"012080090","name":"東陵町","lat":43.823631,"lng":143.895571},{"code":"012080100","name":"中央町","lat":43.81043,"lng":143.889255},{"code":"012080110","name":"番場町","lat":43.813514,"lng":143.888807},{"code":"01208012001","name":"北斗町１丁目","lat":43.812706,"lng":143.886637},{"code":"01208012002","name":"北斗町２丁目","lat":43.810718,"lng":143.884627},{"code":"01208012003","name":"北斗町３丁目","lat":43.813225,"lng":143.884263},{"code":"012080130","name":"清見町","lat":43.816581,"lng":143.885933},{"code":"01208014001","name":"幸町１丁目","lat":43.808311,"lng":143.889401},{"code":"01208014002","name":"幸町２丁目","lat":43.808811,"lng":143.887741},{"code":"01208014003","name":"幸町３丁目","lat":43.808736,"lng":143.886191},{"code":"01208014004","name":"幸町４丁目","lat":43.808616,"lng":143.884464},{"code":"01208014005","name":"幸町５丁目","lat":43.806681,"lng":143.890061},{"code":"01208014006","name":"幸町６丁目","lat":43.806582,"lng":143.888528},{"code":"01208014007","name":"幸町７丁目","lat":43.80654,"lng":143.886767},{"code":"01208014008","name":"幸町８丁目","lat":43.806301,"lng":143.884843},{"code":"01208015001","name":"山下町１丁目","lat":43.805384,"lng":143.888825},{"code":"01208015002","name":"山下町２丁目","lat":43.80454,"lng":143.887419},{"code":"01208015003","name":"山下町３丁目","lat":43.804827,"lng":143.885308},{"code":"01208015004","name":"山下町４丁目","lat":43.803539,"lng":143.885641},{"code":"01208015005","name":"山下町５丁目","lat":43.802197,"lng":143.885632},{"code":"01208016001","name":"本町１丁目","lat":43.800483,"lng":143.892847},{"code":"01208016002","name":"本町２丁目","lat":43.80053,"lng":143.889676},{"code":"01208016003","name":"本町３丁目","lat":43.800673,"lng":143.886152},{"code":"01208016004","name":"本町４丁目","lat":43.800693,"lng":143.882643},{"code":"01208016005","name":"本町５丁目","lat":43.800761,"lng":143.879164},{"code":"01208017001","name":"美芳町１丁目","lat":43.808824,"lng":143.881714},{"code":"01208017002","name":"美芳町２丁目","lat":43.808691,"lng":143.878162},{"code":"01208017003","name":"美芳町３丁目","lat":43.807164,"lng":143.881935},{"code":"01208017004","name":"美芳町４丁目","lat":43.807064,"lng":143.878488},{"code":"01208017005","name":"美芳町５丁目","lat":43.805583,"lng":143.882107},{"code":"01208017006","name":"美芳町６丁目","lat":43.805363,"lng":143.878658},{"code":"01208017007","name":"美芳町７丁目","lat":43.80423,"lng":143.882277},{"code":"01208017008","name":"美芳町８丁目","lat":43.804009,"lng":143.878831},{"code":"01208017009","name":"美芳町９丁目","lat":43.802717,"lng":143.882579},{"code":"01208017010","name":"美芳町１０丁目","lat":43.802786,"lng":143.879093},{"code":"01208018001","name":"寿町１丁目","lat":43.81049,"lng":143.881501},{"code":"01208018002","name":"寿町２丁目","lat":43.81203,"lng":143.881328},{"code":"01208018003","name":"寿町３丁目","lat":43.813849,"lng":143.881522},{"code":"01208018004","name":"寿町４丁目","lat":43.812883,"lng":143.879009},{"code":"01208018005","name":"寿町５丁目","lat":43.810264,"lng":143.878056},{"code":"01208018006","name":"寿町６丁目","lat":43.812733,"lng":143.877004},{"code":"01208019001","name":"緑ヶ丘１丁目","lat":43.820402,"lng":143.871126},{"code":"01208019002","name":"緑ヶ丘２丁目","lat":43.822767,"lng":143.871825},{"code":"01208019003","name":"緑ヶ丘３丁目","lat":43.826935,"lng":143.871907},{"code":"01208019004","name":"緑ヶ丘４丁目","lat":43.823714,"lng":143.862303},{"code":"01208019005","name":"緑ヶ丘５丁目","lat":43.821464,"lng":143.86541},{"code":"01208019006","name":"緑ヶ丘６丁目","lat":43.819384,"lng":143.864812},{"code":"012080200","name":"花月町","lat":43.816976,"lng":143.879054},{"code":"01208021101","name":"美山町西１丁目","lat":43.826242,"lng":143.879278},{"code":"01208021102","name":"美山町西２丁目","lat":43.828621,"lng":143.879576},{"code":"01208021103","name":"美山町西３丁目","lat":43.830812,"lng":143.878098},{"code":"01208021104","name":"美山町西４丁目","lat":43.829172,"lng":143.875544},{"code":"01208021105","name":"美山町西５丁目","lat":43.825864,"lng":143.87604},{"code":"01208021201","name":"美山町南１丁目","lat":43.819104,"lng":143.887578},{"code":"01208021202","name":"美山町南２丁目","lat":43.821145,"lng":143.887436},{"code":"01208021203","name":"美山町南３丁目","lat":43.823151,"lng":143.885795},{"code":"01208021204","name":"美山町南４丁目","lat":43.824019,"lng":143.887579},{"code":"01208021205","name":"美山町南５丁目","lat":43.823382,"lng":143.883129},{"code":"01208021206","name":"美山町南６丁目","lat":43.820845,"lng":143.883919},{"code":"01208021207","name":"美山町南７丁目","lat":43.819051,"lng":143.884032},{"code":"01208021208","name":"美山町南８丁目","lat":43.821397,"lng":143.879964},{"code":"01208021209","name":"美山町南９丁目","lat":43.823751,"lng":143.878347},{"code":"01208021210","name":"美山町南１０丁目","lat":43.820862,"lng":143.876691},{"code":"01208021301","name":"美山町東１丁目","lat":43.825601,"lng":143.882857},{"code":"01208021302","name":"美山町東２丁目","lat":43.826851,"lng":143.885196},{"code":"01208021303","name":"美山町東３丁目","lat":43.82909,"lng":143.884716},{"code":"01208021304","name":"美山町東４丁目","lat":43.831293,"lng":143.881997},{"code":"01208021305","name":"美山町東５丁目","lat":43.832969,"lng":143.885361},{"code":"01208022001","name":"高栄西町１丁目","lat":43.810039,"lng":143.866974},{"code":"01208022002","name":"高栄西町２丁目","lat":43.812594,"lng":143.867225},{"code":"01208022003","name":"高栄西町３丁目","lat":43.815124,"lng":143.866606},{"code":"01208022004","name":"高栄西町４丁目","lat":43.817581,"lng":143.865515},{"code":"01208022005","name":"高栄西町５丁目","lat":43.813927,"lng":143.863692},{"code":"01208022006","name":"高栄西町６丁目","lat":43.817377,"lng":143.861305},{"code":"01208022007","name":"高栄西町７丁目","lat":43.81631,"lng":143.858744},{"code":"01208022008","name":"高栄西町８丁目","lat":43.81384,"lng":143.856872},{"code":"01208022009","name":"高栄西町９丁目","lat":43.811428,"lng":143.861572},{"code":"01208022010","name":"高栄西町１０丁目","lat":43.80987,"lng":143.857796},{"code":"01208023001","name":"高栄東町１丁目","lat":43.810797,"lng":143.872849},{"code":"01208023002","name":"高栄東町２丁目","lat":43.813282,"lng":143.872513},{"code":"01208023003","name":"高栄東町３丁目","lat":43.815455,"lng":143.87224},{"code":"01208023004","name":"高栄東町４丁目","lat":43.817949,"lng":143.871945},{"code":"01208024001","name":"栄町１丁目","lat":43.800187,"lng":143.875637},{"code":"01208024002","name":"栄町２丁目","lat":43.799898,"lng":143.872212},{"code":"01208024003","name":"栄町３丁目","lat":43.801953,"lng":143.871714},{"code":"01208024004","name":"栄町４丁目","lat":43.801853,"lng":143.875035},{"code":"01208025001","name":"西富町１丁目","lat":43.799945,"lng":143.869135},{"code":"01208025002","name":"西富町２丁目","lat":43.800079,"lng":143.86565},{"code":"01208025003","name":"西富町３丁目","lat":43.802577,"lng":143.865543},{"code":"01208025004","name":"西富町４丁目","lat":43.802323,"lng":143.869012},{"code":"012080260","name":"光西町","lat":43.795055,"lng":143.867731},{"code":"012080270","name":"とん田西町","lat":43.794841,"lng":143.874963},{"code":"012080280","name":"とん田東町","lat":43.794486,"lng":143.881559},{"code":"01208029001","name":"北進町１丁目","lat":43.807921,"lng":143.873411},{"code":"01208029002","name":"北進町２丁目","lat":43.806007,"lng":143.873044},{"code":"01208029003","name":"北進町３丁目","lat":43.804766,"lng":143.87358},{"code":"01208029004","name":"北進町４丁目","lat":43.803458,"lng":143.87426},{"code":"01208029005","name":"北進町５丁目","lat":43.807775,"lng":143.866501},{"code":"01208029006","name":"北進町６丁目","lat":43.806193,"lng":143.866221},{"code":"01208029007","name":"北進町７丁目","lat":43.804484,"lng":143.866925},{"code":"01208030001","name":"常盤町１丁目","lat":43.795781,"lng":143.892782},{"code":"01208030002","name":"常盤町２丁目","lat":43.798085,"lng":143.890061},{"code":"01208030003","name":"常盤町３丁目","lat":43.797874,"lng":143.886632},{"code":"01208030004","name":"常盤町４丁目","lat":43.794933,"lng":143.88875},{"code":"01208030005","name":"常盤町５丁目","lat":43.79277,"lng":143.889033},{"code":"01208030006","name":"常盤町６丁目","lat":43.79006,"lng":143.889921},{"code":"01208031001","name":"中ノ島町１丁目","lat":43.797257,"lng":143.894918},{"code":"01208031002","name":"中ノ島町２丁目","lat":43.794047,"lng":143.895631},{"code":"01208031003","name":"中ノ島町３丁目","lat":43.794119,"lng":143.899808},{"code":"01208031004","name":"中ノ島町４丁目","lat":43.790467,"lng":143.896622},{"code":"01208032001","name":"南仲町１丁目","lat":43.801403,"lng":143.895619},{"code":"01208032002","name":"南仲町２丁目","lat":43.800398,"lng":143.897337},{"code":"01208032003","name":"南仲町３丁目","lat":43.799364,"lng":143.899421},{"code":"01208033001","name":"南町１丁目","lat":43.79808,"lng":143.901897},{"code":"01208033002","name":"南町２丁目","lat":43.797041,"lng":143.904006},{"code":"01208033003","name":"南町３丁目","lat":43.796345,"lng":143.906256},{"code":"01208034001","name":"泉町１丁目","lat":43.805435,"lng":143.899448},{"code":"01208034002","name":"泉町２丁目","lat":43.803123,"lng":143.900448},{"code":"01208034003","name":"泉町３丁目","lat":43.805114,"lng":143.902233},{"code":"01208034004","name":"泉町４丁目","lat":43.802472,"lng":143.902671},{"code":"012080350","name":"清月町","lat":43.801483,"lng":143.907254},{"code":"01208036001","name":"桜町１丁目","lat":43.808155,"lng":143.902095},{"code":"01208036002","name":"桜町２丁目","lat":43.810229,"lng":143.904096},{"code":"01208036003","name":"桜町３丁目","lat":43.806867,"lng":143.904621},{"code":"01208036004","name":"桜町４丁目","lat":43.808204,"lng":143.905926},{"code":"01208036005","name":"桜町５丁目","lat":43.809597,"lng":143.907276},{"code":"01208036006","name":"桜町６丁目","lat":43.807088,"lng":143.908233},{"code":"01208036007","name":"桜町７丁目","lat":43.805811,"lng":143.910284},{"code":"012080370","name":"朝日町","lat":43.811448,"lng":143.911803},{"code":"012080380","name":"田端町","lat":43.81551,"lng":143.915896},{"code":"01208039001","name":"春光町１丁目","lat":43.822339,"lng":143.915364},{"code":"01208039002","name":"春光町２丁目","lat":43.826118,"lng":143.919706},{"code":"01208039003","name":"春光町３丁目","lat":43.821036,"lng":143.916506},{"code":"01208039004","name":"春光町４丁目","lat":43.824896,"lng":143.922588},{"code":"01208039005","name":"春光町５丁目","lat":43.820294,"lng":143.919102},{"code":"01208039006","name":"春光町６丁目","lat":43.822872,"lng":143.924337},{"code":"01208039007","name":"春光町７丁目","lat":43.819023,"lng":143.920872},{"code":"01208039008","name":"春光町８丁目","lat":43.819803,"lng":143.926473},{"code":"012080400","name":"小泉","lat":43.839391,"lng":143.904595},{"code":"01208041101","name":"中央三輪１丁目","lat":43.800904,"lng":143.855236},{"code":"01208041102","name":"中央三輪２丁目","lat":43.800703,"lng":143.851776},{"code":"01208041103","name":"中央三輪３丁目","lat":43.801916,"lng":143.845887},{"code":"01208041104","name":"中央三輪４丁目","lat":43.798879,"lng":143.846646},{"code":"01208041105","name":"中央三輪５丁目","lat":43.795758,"lng":143.856401},{"code":"01208041106","name":"中央三輪６丁目","lat":43.795582,"lng":143.853853},{"code":"01208041107","name":"中央三輪７丁目","lat":43.795366,"lng":143.851283},{"code":"01208041108","name":"中央三輪８丁目","lat":43.794359,"lng":143.848465},{"code":"01208041109","name":"中央三輪９丁目","lat":43.794197,"lng":143.845428},{"code":"01208041201","name":"西三輪１丁目","lat":43.798595,"lng":143.839684},{"code":"01208041202","name":"西三輪２丁目","lat":43.801705,"lng":143.839095},{"code":"01208041203","name":"西三輪３丁目","lat":43.801985,"lng":143.831922},{"code":"01208041204","name":"西三輪４丁目","lat":43.799178,"lng":143.8332},{"code":"01208041205","name":"西三輪５丁目","lat":43.794255,"lng":143.841571},{"code":"01208041206","name":"西三輪６丁目","lat":43.795337,"lng":143.838089},{"code":"01208041207","name":"西三輪７丁目","lat":43.797141,"lng":143.832176},{"code":"01208041301","name":"東三輪１丁目","lat":43.801149,"lng":143.861514},{"code":"01208041302","name":"東三輪２丁目","lat":43.801075,"lng":143.858074},{"code":"01208041303","name":"東三輪３丁目","lat":43.796339,"lng":143.862079},{"code":"01208041304","name":"東三輪４丁目","lat":43.796087,"lng":143.858662},{"code":"01208041305","name":"東三輪５丁目","lat":43.792951,"lng":143.861731},{"code":"012080420","name":"北光","lat":43.779264,"lng":143.864523},{"code":"012080430","name":"川東","lat":43.799414,"lng":143.944663},{"code":"012080440","name":"若松","lat":43.770177,"lng":143.928728},{"code":"012080450","name":"南丘","lat":43.763581,"lng":143.893825},{"code":"012080460","name":"大正","lat":43.831581,"lng":143.844292},{"code":"012080470","name":"昭和","lat":43.844924,"lng":143.875724},{"code":"012080480","name":"豊地","lat":43.788392,"lng":143.822993},{"code":"012080490","name":"開成","lat":43.730287,"lng":143.880865},{"code":"012080500","name":"上仁頃","lat":43.863012,"lng":143.838597},{"code":"012080510","name":"美里","lat":43.895576,"lng":143.794184},{"code":"01208052001","name":"若葉１丁目","lat":43.808718,"lng":143.853367},{"code":"01208052002","name":"若葉２丁目","lat":43.808723,"lng":143.849638},{"code":"01208052003","name":"若葉３丁目","lat":43.807891,"lng":143.846108},{"code":"01208052004","name":"若葉４丁目","lat":43.810376,"lng":143.850983},{"code":"01208052005","name":"若葉５丁目","lat":43.812639,"lng":143.854107},{"code":"01208052006","name":"若葉６丁目","lat":43.812614,"lng":143.851454},{"code":"01208052007","name":"若葉７丁目","lat":43.809528,"lng":143.844747},{"code":"01208053001","name":"緑町１丁目","lat":43.806568,"lng":143.847305},{"code":"01208053002","name":"緑町２丁目","lat":43.804526,"lng":143.847188},{"code":"01208053003","name":"緑町３丁目","lat":43.806208,"lng":143.843821},{"code":"01208053004","name":"緑町４丁目","lat":43.804197,"lng":143.843725},{"code":"01208053005","name":"緑町５丁目","lat":43.805986,"lng":143.840986},{"code":"01208053006","name":"緑町６丁目","lat":43.80397,"lng":143.840709},{"code":"01208053007","name":"緑町７丁目","lat":43.805684,"lng":143.839261},{"code":"01208054001","name":"卸町１丁目","lat":43.804979,"lng":143.837017},{"code":"01208054002","name":"卸町２丁目","lat":43.80498,"lng":143.833748},{"code":"01208054003","name":"卸町３丁目","lat":43.805154,"lng":143.830291},{"code":"01208055001","name":"桂町１丁目","lat":43.80774,"lng":143.861032},{"code":"01208055002","name":"桂町２丁目","lat":43.806391,"lng":143.860596},{"code":"01208055003","name":"桂町３丁目","lat":43.804795,"lng":143.861212},{"code":"01208055004","name":"桂町４丁目","lat":43.807172,"lng":143.857338},{"code":"01208055005","name":"桂町５丁目","lat":43.805163,"lng":143.85754},{"code":"01208056001","name":"双葉町１丁目","lat":43.807228,"lng":143.85359},{"code":"01208056002","name":"双葉町２丁目","lat":43.80538,"lng":143.85469},{"code":"01208056003","name":"双葉町３丁目","lat":43.806871,"lng":143.850319},{"code":"01208056004","name":"双葉町４丁目","lat":43.804928,"lng":143.851278},{"code":"012080570","name":"柏陽町","lat":43.824072,"lng":143.911161},{"code":"012080580","name":"並木町","lat":43.828201,"lng":143.91515},{"code":"012080590","name":"文京町","lat":43.827191,"lng":143.904998},{"code":"012080600","name":"曙町","lat":43.831304,"lng":143.909001},{"code":"012080610","name":"光葉町","lat":43.78765,"lng":143.898089},{"code":"012080620","name":"花園町","lat":43.786766,"lng":143.889436},{"code":"012080630","name":"新生町","lat":43.783081,"lng":143.889851},{"code":"012080640","name":"川沿町","lat":43.786972,"lng":143.882837},{"code":"012080650","name":"北央町","lat":43.781742,"lng":143.883209},{"code":"012080660","name":"錦町","lat":43.786279,"lng":143.876982},{"code":"012080670","name":"広明町","lat":43.781807,"lng":143.87687},{"code":"012080680","name":"末広町","lat":43.787815,"lng":143.870202},{"code":"012080690","name":"無加川町","lat":43.787568,"lng":143.86159},{"code":"012080700","name":"上ところ","lat":43.747968,"lng":143.824437},{"code":"012080710","name":"広郷","lat":43.765584,"lng":143.821072},{"code":"012080720","name":"北上","lat":43.767781,"lng":143.859655},{"code":"012080730","name":"常川","lat":43.717718,"lng":143.828405},{"code":"012080740","name":"仁頃町","lat":43.897142,"lng":143.904863},{"code":"012080750","name":"大和","lat":43.879067,"lng":143.882416},{"code":"012080760","name":"北陽","lat":43.930237,"lng":143.819564},{"code":"012080770","name":"相内町","lat":43.797304,"lng":143.755575},{"code":"012080780","name":"美園","lat":43.800981,"lng":143.773074},{"code":"012080790","name":"豊田","lat":43.789677,"lng":143.728263},{"code":"012080800","name":"西相内","lat":43.797434,"lng":143.684053},{"code":"012080810","name":"住吉","lat":43.813921,"lng":143.721269},{"code":"012080820","name":"本沢","lat":43.84153,"lng":143.735975},{"code":"012080830","name":"東相内町","lat":43.805683,"lng":143.80378},{"code":"012080840","name":"柏木","lat":43.830509,"lng":143.808161},{"code":"012080850","name":"富里","lat":43.86888,"lng":143.761787},{"code":"01208086001","name":"ひかり野１丁目","lat":43.827225,"lng":143.926023},{"code":"01208086002","name":"ひかり野２丁目","lat":43.828996,"lng":143.928101},{"code":"01208086003","name":"ひかり野３丁目","lat":43.82658,"lng":143.930029},{"code":"01208086004","name":"ひかり野４丁目","lat":43.830945,"lng":143.930318},{"code":"01208086005","name":"ひかり野５丁目","lat":43.833216,"lng":143.932522},{"code":"01208086006","name":"ひかり野６丁目","lat":43.829918,"lng":143.932399},{"code":"01208086007","name":"ひかり野７丁目","lat":43.832141,"lng":143.934534},{"code":"01208086008","name":"ひかり野８丁目","lat":43.829762,"lng":143.936265},{"code":"012080870","name":"緋牛内","lat":43.895884,"lng":144.018832},{"code":"012080880","name":"一区","lat":43.888499,"lng":143.967248},{"code":"012080890","name":"二区","lat":43.872077,"lng":143.938013},{"code":"012080900","name":"端野","lat":43.849835,"lng":143.94965},{"code":"012080910","name":"三区","lat":43.851225,"lng":143.922312},{"code":"012080920","name":"川向","lat":43.821194,"lng":143.968769},{"code":"012080930","name":"協和","lat":43.850131,"lng":143.985027},{"code":"012080940","name":"忠志","lat":43.933401,"lng":143.980433},{"code":"012080950","name":"豊実","lat":43.913145,"lng":143.931892},{"code":"012080960","name":"北登","lat":43.940031,"lng":143.873633},{"code":"012080970","name":"厚和","lat":43.686835,"lng":143.287156},{"code":"01208098001","name":"滝湯","lat":43.764177,"lng":143.393004},{"code":"01208098002","name":"滝湯","lat":43.730815,"lng":143.406102},{"code":"012080990","name":"川北","lat":43.77348,"lng":143.442305},{"code":"01208100001","name":"留辺蘂町大和","lat":43.728298,"lng":143.462388},{"code":"01208100002","name":"留辺蘂町大和","lat":43.740622,"lng":143.450999},{"code":"01208100003","name":"留辺蘂町大和","lat":43.716175,"lng":143.441331},{"code":"01208101001","name":"平里","lat":43.749732,"lng":143.489428},{"code":"01208101002","name":"平里","lat":43.747049,"lng":143.476835},{"code":"01208101003","name":"平里","lat":43.721942,"lng":143.481843},{"code":"01208101004","name":"平里","lat":43.734339,"lng":143.477062},{"code":"01208102001","name":"花丘","lat":43.779818,"lng":143.517353},{"code":"01208102002","name":"花丘","lat":43.777579,"lng":143.465437},{"code":"01208103001","name":"松山","lat":43.751621,"lng":143.499743},{"code":"01208103002","name":"松山","lat":43.723114,"lng":143.506781},{"code":"01208104001","name":"温根湯温泉","lat":43.759681,"lng":143.514652},{"code":"01208104002","name":"温根湯温泉","lat":43.754943,"lng":143.509166},{"code":"01208104003","name":"温根湯温泉","lat":43.75805,"lng":143.507638},{"code":"01208104004","name":"温根湯温泉","lat":43.756099,"lng":143.505751},{"code":"01208104005","name":"温根湯温泉","lat":43.751067,"lng":143.514479},{"code":"01208104006","name":"温根湯温泉","lat":43.753711,"lng":143.503672},{"code":"01208104007","name":"温根湯温泉","lat":43.755931,"lng":143.51281},{"code":"01208105001","name":"昭栄","lat":43.76109,"lng":143.558097},{"code":"01208105002","name":"昭栄","lat":43.755635,"lng":143.546338},{"code":"01208105003","name":"昭栄","lat":43.751873,"lng":143.530375},{"code":"012081060","name":"金華","lat":43.811338,"lng":143.531973},{"code":"01208107001","name":"大富","lat":43.779773,"lng":143.581194},{"code":"01208107002","name":"大富","lat":43.767557,"lng":143.571126},{"code":"012081080","name":"富岡","lat":43.766307,"lng":143.629947},{"code":"01208109001","name":"豊金１区","lat":43.814961,"lng":143.631445},{"code":"01208109002","name":"豊金２区","lat":43.819152,"lng":143.591575},{"code":"012081100","name":"泉","lat":43.797648,"lng":143.652154},{"code":"01208111001","name":"旭東","lat":43.779635,"lng":143.644423},{"code":"01208111002","name":"旭中央","lat":43.77881,"lng":143.625811},{"code":"01208111003","name":"旭南","lat":43.773297,"lng":143.619575},{"code":"01208111004","name":"旭公園","lat":43.775327,"lng":143.612558},{"code":"01208111005","name":"旭北","lat":43.782254,"lng":143.616274},{"code":"01208111006","name":"旭西","lat":43.783218,"lng":143.597035},{"code":"01208111007","name":"旭３区","lat":43.789011,"lng":143.590236},{"code":"01208111008","name":"旭１区","lat":43.769149,"lng":143.597657},{"code":"01208112001","name":"留辺蘂町栄町","lat":43.784499,"lng":143.60906},{"code":"01208112002","name":"留辺蘂町栄町","lat":43.784577,"lng":143.614136},{"code":"012081130","name":"上町","lat":43.78772,"lng":143.610514},{"code":"012081140","name":"仲町","lat":43.787205,"lng":143.619456},{"code":"012081150","name":"東町","lat":43.786544,"lng":143.622696},{"code":"012081160","name":"元町","lat":43.786093,"lng":143.626613},{"code":"012081170","name":"宮下町","lat":43.790343,"lng":143.62426},{"code":"012081180","name":"丸山","lat":43.853987,"lng":143.638558},{"code":"012081190","name":"瑞穂","lat":43.876457,"lng":143.636199},{"code":"012081200","name":"留辺蘂町花園","lat":43.918032,"lng":143.625342},{"code":"012081210","name":"東浜","lat":44.114591,"lng":144.095231},{"code":"012081220","name":"豊浜","lat":44.125527,"lng":144.094312},{"code":"012081230","name":"弁天","lat":44.117362,"lng":144.07732},{"code":"012081240","name":"本通","lat":44.122755,"lng":144.077184},{"code":"012081250","name":"常呂町中央町","lat":44.121916,"lng":144.071436},{"code":"012081260","name":"常呂町栄町","lat":44.122304,"lng":144.067509},{"code":"012081270","name":"末広","lat":44.117612,"lng":144.068624},{"code":"012081280","name":"開進町","lat":44.11918,"lng":144.064653},{"code":"012081290","name":"常呂町北進町","lat":44.123336,"lng":144.057245},{"code":"012081300","name":"常呂町南町","lat":44.113539,"lng":144.06602},{"code":"012081310","name":"西町","lat":44.117629,"lng":144.057096},{"code":"012081320","name":"字土佐","lat":44.110669,"lng":144.049481},{"code":"012081330","name":"字岐阜","lat":44.107749,"lng":144.001771},{"code":"012081340","name":"字栄浦","lat":44.139907,"lng":143.88753},{"code":"012081350","name":"字共立","lat":44.088935,"lng":144.050366},{"code":"012081360","name":"字豊川","lat":44.053257,"lng":144.022645},{"code":"012081370","name":"字富丘","lat":44.070362,"lng":143.990876},{"code":"012081380","name":"字福山","lat":44.009837,"lng":144.00559},{"code":"012081390","name":"字日吉","lat":43.977146,"lng":143.913798}]}
