{"municipality":"01212","name":"留萌市","prefecture":"北海道","source":{"dataset":"frogcat/japan-small-area","census":"平成27年国勢調査 小地域（e-Stat 統計LOD）","license":"MIT（リポジトリ）／政府統計の総合窓口(e-Stat)の利用規約（元データ・出典表記必要）","fetched":"2026-07-06"},"towns":[{"code":"01212001001","name":"大町１丁目","lat":43.949763,"lng":141.632808},{"code":"01212001002","name":"大町２丁目","lat":43.946567,"lng":141.631774},{"code":"01212001003","name":"大町３丁目","lat":43.945229,"lng":141.632819},{"code":"01212002001","name":"港町１丁目","lat":43.944231,"lng":141.636009},{"code":"01212002002","name":"港町２丁目","lat":43.943352,"lng":141.636734},{"code":"01212002003","name":"港町３丁目","lat":43.942493,"lng":141.637391},{"code":"01212003001","name":"本町１丁目","lat":43.942273,"lng":141.638891},{"code":"01212003002","name":"本町２丁目","lat":43.941639,"lng":141.639882},{"code":"01212003003","name":"本町３丁目","lat":43.940999,"lng":141.640855},{"code":"01212003004","name":"本町４丁目","lat":43.940538,"lng":141.641587},{"code":"012120040","name":"瀬越町","lat":43.940666,"lng":141.634146},{"code":"01212005001","name":"明元町１丁目","lat":43.94691,"lng":141.635747},{"code":"01212005002","name":"明元町２丁目","lat":43.94467,"lng":141.63899},{"code":"01212005003","name":"明元町３丁目","lat":43.944093,"lng":141.640574},{"code":"01212005004","name":"明元町４丁目","lat":43.943671,"lng":141.641871},{"code":"01212005005","name":"明元町５丁目","lat":43.943287,"lng":141.64299},{"code":"01212005006","name":"明元町６丁目","lat":43.942166,"lng":141.644129},{"code":"01212006001","name":"錦町１丁目","lat":43.939851,"lng":141.642574},{"code":"01212006002","name":"錦町２丁目","lat":43.938948,"lng":141.643833},{"code":"01212006003","name":"錦町３丁目","lat":43.938225,"lng":141.644843},{"code":"01212006004","name":"錦町４丁目","lat":43.937489,"lng":141.64591},{"code":"01212007001","name":"沖見町１丁目","lat":43.929727,"lng":141.631833},{"code":"01212007002","name":"沖見町２丁目","lat":43.933476,"lng":141.637682},{"code":"01212007003","name":"沖見町３丁目","lat":43.93094,"lng":141.636204},{"code":"01212007004","name":"沖見町４丁目","lat":43.9278,"lng":141.6352},{"code":"01212007005","name":"沖見町５丁目","lat":43.929896,"lng":141.640962},{"code":"01212007006","name":"沖見町６丁目","lat":43.926078,"lng":141.64268},{"code":"01212008001","name":"寿町１丁目","lat":43.937814,"lng":141.637392},{"code":"01212008002","name":"寿町２丁目","lat":43.936221,"lng":141.638059},{"code":"01212008003","name":"寿町３丁目","lat":43.935168,"lng":141.63781},{"code":"01212009001","name":"幸町１丁目","lat":43.940693,"lng":141.636879},{"code":"01212009002","name":"幸町２丁目","lat":43.940018,"lng":141.637866},{"code":"01212009003","name":"幸町３丁目","lat":43.939397,"lng":141.638854},{"code":"01212009004","name":"幸町４丁目","lat":43.938908,"lng":141.639579},{"code":"01212010001","name":"宮園町１丁目","lat":43.93829,"lng":141.640564},{"code":"01212010002","name":"宮園町２丁目","lat":43.937479,"lng":141.641806},{"code":"01212010003","name":"宮園町３丁目","lat":43.936317,"lng":141.642358},{"code":"01212010004","name":"宮園町４丁目","lat":43.936257,"lng":141.644206},{"code":"01212011001","name":"見晴町１丁目","lat":43.934291,"lng":141.643108},{"code":"01212011002","name":"見晴町２丁目","lat":43.932873,"lng":141.645651},{"code":"01212011003","name":"見晴町３丁目","lat":43.931023,"lng":141.648345},{"code":"01212011004","name":"見晴町４丁目","lat":43.929814,"lng":141.646384},{"code":"01212011005","name":"見晴町５丁目","lat":43.927238,"lng":141.649267},{"code":"01212011006","name":"見晴町６丁目","lat":43.924602,"lng":141.649682},{"code":"01212011007","name":"見晴町７丁目","lat":43.924551,"lng":141.653175},{"code":"01212012001","name":"栄町１丁目","lat":43.942509,"lng":141.64916},{"code":"01212012002","name":"栄町２丁目","lat":43.941439,"lng":141.649588},{"code":"01212012003","name":"栄町３丁目","lat":43.940233,"lng":141.651162},{"code":"01212013001","name":"開運町１丁目","lat":43.939982,"lng":141.649382},{"code":"01212013002","name":"開運町２丁目","lat":43.939894,"lng":141.647464},{"code":"01212013003","name":"開運町３丁目","lat":43.938862,"lng":141.646823},{"code":"01212014001","name":"末広町１丁目","lat":43.941572,"lng":141.655923},{"code":"01212014002","name":"末広町２丁目","lat":43.940666,"lng":141.654834},{"code":"01212014003","name":"末広町３丁目","lat":43.93975,"lng":141.654154},{"code":"01212014004","name":"末広町４丁目","lat":43.938887,"lng":141.652764},{"code":"01212015001","name":"花園町１丁目","lat":43.937329,"lng":141.64985},{"code":"01212015002","name":"花園町２丁目","lat":43.937309,"lng":141.651255},{"code":"01212015003","name":"花園町３丁目","lat":43.937067,"lng":141.65296},{"code":"01212015004","name":"花園町４丁目","lat":43.936942,"lng":141.655136},{"code":"01212015005","name":"花園町５丁目","lat":43.935942,"lng":141.657485},{"code":"01212016001","name":"旭町１丁目","lat":43.936739,"lng":141.646943},{"code":"01212016002","name":"旭町２丁目","lat":43.936006,"lng":141.647973},{"code":"01212016003","name":"旭町３丁目","lat":43.934995,"lng":141.650033},{"code":"01212017001","name":"泉町１丁目","lat":43.93239,"lng":141.650165},{"code":"01212017002","name":"泉町２丁目","lat":43.929694,"lng":141.651607},{"code":"01212018001","name":"住之江町１丁目","lat":43.93461,"lng":141.653292},{"code":"01212018002","name":"住之江町２丁目","lat":43.934168,"lng":141.655947},{"code":"01212018003","name":"住之江町３丁目","lat":43.932693,"lng":141.652667},{"code":"01212018004","name":"住之江町４丁目","lat":43.931823,"lng":141.654481},{"code":"01212019001","name":"船場町１丁目","lat":43.944654,"lng":141.653054},{"code":"01212019002","name":"船場町２丁目","lat":43.944511,"lng":141.649145},{"code":"01212020001","name":"元町１丁目","lat":43.947786,"lng":141.646105},{"code":"01212020002","name":"元町２丁目","lat":43.948501,"lng":141.644306},{"code":"01212020003","name":"元町３丁目","lat":43.949357,"lng":141.643116},{"code":"01212020004","name":"元町４丁目","lat":43.950438,"lng":141.643274},{"code":"01212020005","name":"元町５丁目","lat":43.953145,"lng":141.641075},{"code":"012120210","name":"野本町","lat":43.932783,"lng":141.657531},{"code":"01212022001","name":"千鳥町１丁目","lat":43.933952,"lng":141.662266},{"code":"01212022002","name":"千鳥町２丁目","lat":43.933033,"lng":141.661597},{"code":"01212022003","name":"千鳥町３丁目","lat":43.931585,"lng":141.66473},{"code":"01212022004","name":"千鳥町４丁目","lat":43.929068,"lng":141.659312},{"code":"01212023001","name":"元川町１丁目","lat":43.934768,"lng":141.666014},{"code":"01212023002","name":"元川町２丁目","lat":43.932469,"lng":141.66783},{"code":"01212024001","name":"堀川町１丁目","lat":43.940296,"lng":141.662353},{"code":"01212024002","name":"堀川町２丁目","lat":43.938259,"lng":141.665855},{"code":"01212024003","name":"堀川町３丁目","lat":43.941377,"lng":141.665909},{"code":"01212025001","name":"緑ケ丘町１丁目","lat":43.928765,"lng":141.668316},{"code":"01212025002","name":"緑ケ丘町２丁目","lat":43.925147,"lng":141.664717},{"code":"01212026001","name":"南町１丁目","lat":43.929121,"lng":141.672173},{"code":"01212026002","name":"南町２丁目","lat":43.926017,"lng":141.671461},{"code":"01212026003","name":"南町３丁目","lat":43.924205,"lng":141.67548},{"code":"01212026004","name":"南町４丁目","lat":43.92082,"lng":141.672745},{"code":"01212027001","name":"五十嵐町１丁目","lat":43.937259,"lng":141.662918},{"code":"01212027002","name":"五十嵐町２丁目","lat":43.936163,"lng":141.661594},{"code":"01212027003","name":"五十嵐町３丁目","lat":43.935955,"lng":141.659722},{"code":"01212028001","name":"高砂町１丁目","lat":43.940008,"lng":141.659301},{"code":"01212028002","name":"高砂町２丁目","lat":43.938792,"lng":141.657889},{"code":"01212028003","name":"高砂町３丁目","lat":43.937985,"lng":141.656795},{"code":"01212029001","name":"東雲町１丁目","lat":43.935242,"lng":141.67079},{"code":"01212029002","name":"東雲町２丁目","lat":43.929719,"lng":141.676513},{"code":"01212029003","name":"東雲町３丁目","lat":43.923745,"lng":141.683794},{"code":"012120300","name":"礼受町","lat":43.908768,"lng":141.620551},{"code":"012120310","name":"浜中町","lat":43.918229,"lng":141.637127},{"code":"012120320","name":"三泊町","lat":43.975289,"lng":141.657001},{"code":"012120330","name":"塩見町","lat":43.961861,"lng":141.648121},{"code":"01212034001","name":"春日町１丁目","lat":43.954332,"lng":141.648143},{"code":"01212034002","name":"春日町２丁目","lat":43.95743,"lng":141.65506},{"code":"01212034003","name":"春日町３丁目","lat":43.955482,"lng":141.666191},{"code":"01212035100","name":"大和田町","lat":43.900163,"lng":141.691546},{"code":"01212035101","name":"大和田町１丁目","lat":43.917795,"lng":141.692155},{"code":"01212035102","name":"大和田町２丁目","lat":43.923827,"lng":141.698557},{"code":"01212035103","name":"大和田町３丁目","lat":43.914938,"lng":141.697024},{"code":"01212046001","name":"平和台１丁目","lat":43.926354,"lng":141.645961},{"code":"01212046002","name":"平和台２丁目","lat":43.924007,"lng":141.646636},{"code":"01212047001","name":"潮静１丁目","lat":43.922606,"lng":141.678513},{"code":"01212047002","name":"潮静２丁目","lat":43.920701,"lng":141.677418},{"code":"01212047003","name":"潮静３丁目","lat":43.920431,"lng":141.682608},{"code":"01212047004","name":"潮静４丁目","lat":43.91665,"lng":141.681523},{"code":"01212048001","name":"大字留萌村字カモイワ","lat":43.943215,"lng":141.676781},{"code":"01212048002","name":"大字留萌村字バンゴベ","lat":43.941115,"lng":141.695676},{"code":"01212048003","name":"大字留萌村字千葉辺利","lat":43.805437,"lng":141.750601},{"code":"01212048004","name":"大字留萌村字峠下","lat":43.884269,"lng":141.843952},{"code":"01212048005","name":"大字留萌村字留萌","lat":43.916844,"lng":141.658228},{"code":"01212048006","name":"大字留萌村字東幌糠","lat":43.84791,"lng":141.785349},{"code":"012120527","name":"樽真布町","lat":43.921238,"lng":141.824475},{"code":"012120531","name":"幌糠町","lat":43.911762,"lng":141.781456},{"code":"012120532","name":"藤山町","lat":43.872619,"lng":141.721724}]}
