{"municipality":"01218","name":"赤平市","prefecture":"北海道","source":{"dataset":"frogcat/japan-small-area","census":"平成27年国勢調査 小地域（e-Stat 統計LOD）","license":"MIT（リポジトリ）／政府統計の総合窓口(e-Stat)の利用規約（元データ・出典表記必要）","fetched":"2026-07-06"},"towns":[{"code":"01218001001","name":"東大町１丁目","lat":43.550862,"lng":142.056762},{"code":"01218001002","name":"東大町２丁目","lat":43.549579,"lng":142.058443},{"code":"01218001003","name":"東大町３丁目","lat":43.55201,"lng":142.05847},{"code":"01218002001","name":"大町１丁目","lat":43.553514,"lng":142.053057},{"code":"01218002002","name":"大町２丁目","lat":43.555101,"lng":142.051937},{"code":"01218002003","name":"大町３丁目","lat":43.554595,"lng":142.05395},{"code":"01218002004","name":"大町４丁目","lat":43.554245,"lng":142.056354},{"code":"01218003001","name":"本町１丁目","lat":43.555313,"lng":142.049978},{"code":"01218003002","name":"本町２丁目","lat":43.556267,"lng":142.051101},{"code":"01218003003","name":"本町３丁目","lat":43.557043,"lng":142.053662},{"code":"01218004001","name":"錦町１丁目","lat":43.556049,"lng":142.048865},{"code":"01218004002","name":"錦町２丁目","lat":43.557307,"lng":142.049235},{"code":"01218004003","name":"錦町３丁目","lat":43.559023,"lng":142.049649},{"code":"01218005001","name":"泉町１丁目","lat":43.556443,"lng":142.046807},{"code":"01218005002","name":"泉町２丁目","lat":43.557673,"lng":142.046464},{"code":"01218005003","name":"泉町３丁目","lat":43.559093,"lng":142.046045},{"code":"01218005004","name":"泉町４丁目","lat":43.558597,"lng":142.042506},{"code":"01218006001","name":"美園町１丁目","lat":43.553295,"lng":142.047134},{"code":"01218006002","name":"美園町２丁目","lat":43.556693,"lng":142.041703},{"code":"01218006003","name":"美園町３丁目","lat":43.553824,"lng":142.037657},{"code":"01218006004","name":"美園町４丁目","lat":43.556308,"lng":142.038369},{"code":"01218006005","name":"美園町５丁目","lat":43.557178,"lng":142.03805},{"code":"01218007001","name":"宮下町１丁目","lat":43.558319,"lng":142.037292},{"code":"01218007002","name":"宮下町２丁目","lat":43.556699,"lng":142.035648},{"code":"01218007003","name":"宮下町３丁目","lat":43.557314,"lng":142.02786},{"code":"01218007004","name":"宮下町４丁目","lat":43.560141,"lng":142.034782},{"code":"01218007005","name":"宮下町５丁目","lat":43.561094,"lng":142.031953},{"code":"01218008001","name":"桜木町１丁目","lat":43.562283,"lng":142.030869},{"code":"01218008002","name":"桜木町２丁目","lat":43.563028,"lng":142.030206},{"code":"01218008003","name":"桜木町３丁目","lat":43.563836,"lng":142.029473},{"code":"01218008004","name":"桜木町４丁目","lat":43.563585,"lng":142.028536},{"code":"01218008005","name":"桜木町５丁目","lat":43.562989,"lng":142.024357},{"code":"01218009001","name":"昭和町１丁目","lat":43.563314,"lng":142.032011},{"code":"01218009002","name":"昭和町２丁目","lat":43.564743,"lng":142.030893},{"code":"01218009003","name":"昭和町３丁目","lat":43.566463,"lng":142.030909},{"code":"01218009004","name":"昭和町４丁目","lat":43.568936,"lng":142.03041},{"code":"01218009005","name":"昭和町５丁目","lat":43.568392,"lng":142.026917},{"code":"01218009006","name":"昭和町６丁目","lat":43.567136,"lng":142.023337},{"code":"01218010001","name":"豊栄町１丁目","lat":43.56461,"lng":142.037064},{"code":"01218010002","name":"豊栄町２丁目","lat":43.564364,"lng":142.035103},{"code":"01218010003","name":"豊栄町３丁目","lat":43.564333,"lng":142.033986},{"code":"01218010004","name":"豊栄町４丁目","lat":43.56426,"lng":142.033098},{"code":"01218010005","name":"豊栄町５丁目","lat":43.561372,"lng":142.035883},{"code":"01218011001","name":"幸町１丁目","lat":43.566141,"lng":142.033394},{"code":"01218011002","name":"幸町２丁目","lat":43.567337,"lng":142.033212},{"code":"01218011003","name":"幸町３丁目","lat":43.568142,"lng":142.033078},{"code":"01218011004","name":"幸町４丁目","lat":43.56981,"lng":142.032875},{"code":"01218011005","name":"幸町５丁目","lat":43.568775,"lng":142.034683},{"code":"01218011006","name":"幸町６丁目","lat":43.566774,"lng":142.035452},{"code":"01218011007","name":"幸町７丁目","lat":43.568632,"lng":142.037693},{"code":"012180120","name":"住吉町","lat":43.546347,"lng":142.000457},{"code":"012180130","name":"共和町","lat":43.594243,"lng":142.015542},{"code":"012180140","name":"幌岡町","lat":43.60107,"lng":142.05027},{"code":"012180150","name":"西豊里町","lat":43.579556,"lng":142.052943},{"code":"012180160","name":"東豊里町","lat":43.565515,"lng":142.063759},{"code":"01218017001","name":"若木町北１丁目","lat":43.573615,"lng":142.041763},{"code":"01218017002","name":"若木町北２丁目","lat":43.573194,"lng":142.040559},{"code":"01218017003","name":"若木町北３丁目","lat":43.573867,"lng":142.040052},{"code":"01218017004","name":"若木町北４丁目","lat":43.575878,"lng":142.03993},{"code":"01218017005","name":"若木町北５丁目","lat":43.574947,"lng":142.040596},{"code":"01218017006","name":"若木町北６丁目","lat":43.574855,"lng":142.040979},{"code":"01218017007","name":"若木町北７丁目","lat":43.574703,"lng":142.041322},{"code":"01218017008","name":"若木町北８丁目","lat":43.575246,"lng":142.041953},{"code":"01218018001","name":"若木町西１丁目","lat":43.570362,"lng":142.04044},{"code":"01218018002","name":"若木町西２丁目","lat":43.572632,"lng":142.039948},{"code":"01218018003","name":"若木町西３丁目","lat":43.573327,"lng":142.039161},{"code":"01218018004","name":"若木町西４丁目","lat":43.574248,"lng":142.039164},{"code":"01218018005","name":"若木町西５丁目","lat":43.57409,"lng":142.038399},{"code":"01218018006","name":"若木町西６丁目","lat":43.571635,"lng":142.0387},{"code":"01218019001","name":"若木町東１丁目","lat":43.57026,"lng":142.045398},{"code":"01218019002","name":"若木町東２丁目","lat":43.570796,"lng":142.044732},{"code":"01218019003","name":"若木町東３丁目","lat":43.571256,"lng":142.043535},{"code":"01218019004","name":"若木町東４丁目","lat":43.572088,"lng":142.042157},{"code":"01218019005","name":"若木町東５丁目","lat":43.572511,"lng":142.041514},{"code":"01218019006","name":"若木町東６丁目","lat":43.572208,"lng":142.042818},{"code":"01218019007","name":"若木町東７丁目","lat":43.571641,"lng":142.044397},{"code":"01218019008","name":"若木町東８丁目","lat":43.571118,"lng":142.045367},{"code":"01218019009","name":"若木町東９丁目","lat":43.572603,"lng":142.045098},{"code":"01218020001","name":"若木町南１丁目","lat":43.569351,"lng":142.042485},{"code":"01218020002","name":"若木町南２丁目","lat":43.570092,"lng":142.042345},{"code":"01218020003","name":"若木町南３丁目","lat":43.570834,"lng":142.042682},{"code":"01218020004","name":"若木町南４丁目","lat":43.56975,"lng":142.044598},{"code":"01218020005","name":"若木町南５丁目","lat":43.569468,"lng":142.043724},{"code":"01218021001","name":"北文京町１丁目","lat":43.567569,"lng":142.043638},{"code":"01218021002","name":"北文京町２丁目","lat":43.567698,"lng":142.045912},{"code":"01218021003","name":"北文京町３丁目","lat":43.566032,"lng":142.048629},{"code":"01218021004","name":"北文京町４丁目","lat":43.567024,"lng":142.048858},{"code":"01218021005","name":"北文京町５丁目","lat":43.568571,"lng":142.049367},{"code":"01218022001","name":"西文京町１丁目","lat":43.561089,"lng":142.039893},{"code":"01218022002","name":"西文京町２丁目","lat":43.562851,"lng":142.040579},{"code":"01218022003","name":"西文京町３丁目","lat":43.563896,"lng":142.040627},{"code":"01218022004","name":"西文京町４丁目","lat":43.565277,"lng":142.041147},{"code":"01218022005","name":"西文京町５丁目","lat":43.567328,"lng":142.041544},{"code":"01218023001","name":"東文京町１丁目","lat":43.560994,"lng":142.044891},{"code":"01218023002","name":"東文京町２丁目","lat":43.562445,"lng":142.044793},{"code":"01218023003","name":"東文京町３丁目","lat":43.563593,"lng":142.044691},{"code":"01218023004","name":"東文京町４丁目","lat":43.56518,"lng":142.044331},{"code":"01218024001","name":"豊丘町１丁目","lat":43.564695,"lng":142.047552},{"code":"01218024002","name":"豊丘町２丁目","lat":43.565354,"lng":142.050304},{"code":"01218024003","name":"豊丘町３丁目","lat":43.56664,"lng":142.053128},{"code":"012180250","name":"字豊里","lat":43.559903,"lng":142.05552},{"code":"012180260","name":"字赤平","lat":43.542797,"lng":142.047476},{"code":"01218027001","name":"茂尻元町北１丁目","lat":43.540121,"lng":142.083007},{"code":"01218027002","name":"茂尻元町北２丁目","lat":43.539987,"lng":142.081721},{"code":"01218027003","name":"茂尻元町北３丁目","lat":43.539886,"lng":142.080573},{"code":"01218027004","name":"茂尻元町北４丁目","lat":43.539822,"lng":142.079244},{"code":"01218027005","name":"茂尻元町北５丁目","lat":43.539692,"lng":142.077422},{"code":"01218027006","name":"茂尻元町北６丁目","lat":43.540346,"lng":142.073029},{"code":"01218028001","name":"茂尻元町南１丁目","lat":43.538202,"lng":142.083372},{"code":"01218028002","name":"茂尻元町南２丁目","lat":43.537709,"lng":142.082186},{"code":"01218028003","name":"茂尻元町南３丁目","lat":43.538056,"lng":142.080855},{"code":"01218028004","name":"茂尻元町南４丁目","lat":43.538153,"lng":142.079254},{"code":"01218028005","name":"茂尻元町南５丁目","lat":43.538956,"lng":142.072906},{"code":"01218029001","name":"茂尻中央町北１丁目","lat":43.539693,"lng":142.08444},{"code":"01218029002","name":"茂尻中央町北２丁目","lat":43.540178,"lng":142.084636},{"code":"01218030001","name":"茂尻中央町南１丁目","lat":43.538164,"lng":142.084038},{"code":"01218030002","name":"茂尻中央町南２丁目","lat":43.53818,"lng":142.084548},{"code":"01218030003","name":"茂尻中央町南３丁目","lat":43.538171,"lng":142.085093},{"code":"01218030004","name":"茂尻中央町南４丁目","lat":43.538186,"lng":142.085702},{"code":"01218030005","name":"茂尻中央町南５丁目","lat":43.538074,"lng":142.086307},{"code":"01218030006","name":"茂尻中央町南６丁目","lat":43.537021,"lng":142.085793},{"code":"01218031001","name":"茂尻春日町１丁目","lat":43.53879,"lng":142.087016},{"code":"01218031002","name":"茂尻春日町２丁目","lat":43.537782,"lng":142.08743},{"code":"01218031003","name":"茂尻春日町３丁目","lat":43.538094,"lng":142.08896},{"code":"01218032001","name":"茂尻新春日町１丁目","lat":43.540632,"lng":142.085743},{"code":"01218032002","name":"茂尻新春日町２丁目","lat":43.540745,"lng":142.087767},{"code":"01218033001","name":"茂尻本町１丁目","lat":43.539947,"lng":142.090975},{"code":"01218033002","name":"茂尻本町２丁目","lat":43.537862,"lng":142.094631},{"code":"01218033003","name":"茂尻本町３丁目","lat":43.537627,"lng":142.091208},{"code":"01218033004","name":"茂尻本町４丁目","lat":43.53658,"lng":142.094584},{"code":"01218034001","name":"茂尻新町１丁目","lat":43.536445,"lng":142.085228},{"code":"01218034002","name":"茂尻新町２丁目","lat":43.536232,"lng":142.083024},{"code":"01218034003","name":"茂尻新町３丁目","lat":43.536325,"lng":142.081911},{"code":"01218034004","name":"茂尻新町４丁目","lat":43.534477,"lng":142.082564},{"code":"01218034005","name":"茂尻新町５丁目","lat":43.53438,"lng":142.08556},{"code":"01218035001","name":"茂尻栄町１丁目","lat":43.53633,"lng":142.080863},{"code":"01218035002","name":"茂尻栄町２丁目","lat":43.536302,"lng":142.079859},{"code":"01218035003","name":"茂尻栄町３丁目","lat":43.534784,"lng":142.081124},{"code":"01218035004","name":"茂尻栄町４丁目","lat":43.534772,"lng":142.079988},{"code":"01218035005","name":"茂尻栄町５丁目","lat":43.536089,"lng":142.077294},{"code":"01218036001","name":"茂尻旭町１丁目","lat":43.536218,"lng":142.09149},{"code":"01218036002","name":"茂尻旭町２丁目","lat":43.534619,"lng":142.092072},{"code":"01218036003","name":"茂尻旭町３丁目","lat":43.533455,"lng":142.089271},{"code":"012180370","name":"茂尻宮下町","lat":43.532787,"lng":142.092762},{"code":"012180380","name":"字茂尻","lat":43.512517,"lng":142.090929},{"code":"01218039001","name":"百戸町東１丁目","lat":43.545959,"lng":142.08408},{"code":"01218039002","name":"百戸町東２丁目","lat":43.545373,"lng":142.088998},{"code":"01218039003","name":"百戸町東３丁目","lat":43.545371,"lng":142.096406},{"code":"01218039004","name":"百戸町東４丁目","lat":43.542735,"lng":142.086342},{"code":"01218039005","name":"百戸町東５丁目","lat":43.542645,"lng":142.092444},{"code":"01218040001","name":"百戸町西１丁目","lat":43.546307,"lng":142.078905},{"code":"01218040002","name":"百戸町西２丁目","lat":43.542693,"lng":142.081876},{"code":"01218040003","name":"百戸町西３丁目","lat":43.543837,"lng":142.079651},{"code":"01218040004","name":"百戸町西４丁目","lat":43.542051,"lng":142.079324},{"code":"01218040005","name":"百戸町西５丁目","lat":43.542688,"lng":142.077335},{"code":"01218040006","name":"百戸町西６丁目","lat":43.544586,"lng":142.072238},{"code":"012180410","name":"百戸町北","lat":43.595768,"lng":142.098068},{"code":"012180420","name":"エルム町","lat":43.57365,"lng":142.074164},{"code":"012180430","name":"平岸桂町","lat":43.537061,"lng":142.101356},{"code":"01218044001","name":"平岸西町１丁目","lat":43.540556,"lng":142.110481},{"code":"01218044002","name":"平岸西町２丁目","lat":43.538283,"lng":142.11263},{"code":"01218044003","name":"平岸西町３丁目","lat":43.539406,"lng":142.107993},{"code":"01218044004","name":"平岸西町４丁目","lat":43.538288,"lng":142.109582},{"code":"01218044005","name":"平岸西町５丁目","lat":43.536758,"lng":142.109528},{"code":"01218044006","name":"平岸西町６丁目","lat":43.538699,"lng":142.104974},{"code":"01218045001","name":"平岸新光町１丁目","lat":43.541187,"lng":142.116589},{"code":"01218045002","name":"平岸新光町２丁目","lat":43.542073,"lng":142.118401},{"code":"01218045003","name":"平岸新光町３丁目","lat":43.543453,"lng":142.118197},{"code":"01218045004","name":"平岸新光町４丁目","lat":43.54357,"lng":142.115738},{"code":"01218045005","name":"平岸新光町５丁目","lat":43.541791,"lng":142.114957},{"code":"01218045006","name":"平岸新光町６丁目","lat":43.543624,"lng":142.113806},{"code":"01218045007","name":"平岸新光町７丁目","lat":43.543394,"lng":142.111627},{"code":"01218045008","name":"平岸新光町８丁目","lat":43.54249,"lng":142.109429},{"code":"01218045009","name":"平岸新光町９丁目","lat":43.54166,"lng":142.106707},{"code":"01218046001","name":"平岸曙町１丁目","lat":43.540421,"lng":142.118234},{"code":"01218046002","name":"平岸曙町２丁目","lat":43.539226,"lng":142.118706},{"code":"01218046003","name":"平岸曙町３丁目","lat":43.537534,"lng":142.118887},{"code":"01218046004","name":"平岸曙町４丁目","lat":43.537272,"lng":142.11547},{"code":"01218046005","name":"平岸曙町５丁目","lat":43.538849,"lng":142.115349},{"code":"01218046006","name":"平岸曙町６丁目","lat":43.540185,"lng":142.114923},{"code":"01218047001","name":"平岸仲町１丁目","lat":43.541469,"lng":142.123573},{"code":"01218047002","name":"平岸仲町２丁目","lat":43.542942,"lng":142.122379},{"code":"01218047003","name":"平岸仲町３丁目","lat":43.543065,"lng":142.126184},{"code":"01218047004","name":"平岸仲町４丁目","lat":43.541998,"lng":142.125856},{"code":"01218047005","name":"平岸仲町５丁目","lat":43.53897,"lng":142.122221},{"code":"01218047006","name":"平岸仲町６丁目","lat":43.539152,"lng":142.125715},{"code":"01218048001","name":"平岸東町１丁目","lat":43.543777,"lng":142.130008},{"code":"01218048002","name":"平岸東町２丁目","lat":43.541781,"lng":142.130618},{"code":"01218048003","name":"平岸東町３丁目","lat":43.5411,"lng":142.138255},{"code":"01218048004","name":"平岸東町４丁目","lat":43.539434,"lng":142.129053},{"code":"01218048005","name":"平岸東町５丁目","lat":43.539425,"lng":142.132446},{"code":"01218048006","name":"平岸東町６丁目","lat":43.538843,"lng":142.137331},{"code":"012180490","name":"平岸南町","lat":43.53221,"lng":142.117825},{"code":"012180500","name":"平岸","lat":43.518439,"lng":142.119163}]}
