{"municipality":"01228","name":"深川市","prefecture":"北海道","source":{"dataset":"frogcat/japan-small-area","census":"平成27年国勢調査 小地域（e-Stat 統計LOD）","license":"MIT（リポジトリ）／政府統計の総合窓口(e-Stat)の利用規約（元データ・出典表記必要）","fetched":"2026-07-06"},"towns":[{"code":"012280010","name":"一条","lat":43.72294,"lng":142.048593},{"code":"012280020","name":"二条","lat":43.722455,"lng":142.049744},{"code":"012280030","name":"三条","lat":43.721754,"lng":142.050185},{"code":"012280040","name":"四条","lat":43.721187,"lng":142.051233},{"code":"012280050","name":"五条","lat":43.719278,"lng":142.047697},{"code":"012280060","name":"六条","lat":43.720116,"lng":142.054022},{"code":"012280070","name":"七条","lat":43.718492,"lng":142.050572},{"code":"012280080","name":"八条","lat":43.716089,"lng":142.047877},{"code":"012280090","name":"九条","lat":43.717118,"lng":142.055859},{"code":"012280100","name":"緑町","lat":43.709798,"lng":142.03594},{"code":"012280110","name":"西町","lat":43.713236,"lng":142.028959},{"code":"012280120","name":"文光町","lat":43.711285,"lng":142.022678},{"code":"01228013000","name":"錦町","lat":43.718754,"lng":142.029848},{"code":"01228013001","name":"錦町西","lat":43.717565,"lng":142.025216},{"code":"01228013002","name":"錦町北","lat":43.720439,"lng":142.02462},{"code":"012280140","name":"太子町","lat":43.720829,"lng":142.037228},{"code":"01228015001","name":"新光町１丁目","lat":43.721808,"lng":142.035809},{"code":"01228015002","name":"新光町２丁目","lat":43.724166,"lng":142.036465},{"code":"01228015003","name":"新光町３丁目","lat":43.723182,"lng":142.030726},{"code":"01228016101","name":"開西町１丁目","lat":43.711594,"lng":142.01495},{"code":"01228016102","name":"開西町２丁目","lat":43.709063,"lng":142.016474},{"code":"01228016103","name":"開西町３丁目","lat":43.706768,"lng":142.017839},{"code":"012280162","name":"字メム","lat":43.706296,"lng":142.005227},{"code":"012280170","name":"字大鳳","lat":43.743405,"lng":141.979636},{"code":"012280180","name":"あけぼの町","lat":43.744941,"lng":142.036015},{"code":"01228019001","name":"北光町１丁目","lat":43.723946,"lng":142.045108},{"code":"01228019002","name":"北光町２丁目","lat":43.727171,"lng":142.041633},{"code":"01228019003","name":"北光町３丁目","lat":43.732455,"lng":142.040603},{"code":"01228020001","name":"稲穂町１丁目","lat":43.725945,"lng":142.051641},{"code":"01228020002","name":"稲穂町２丁目","lat":43.729648,"lng":142.048959},{"code":"012280210","name":"字一已","lat":43.748377,"lng":142.056224},{"code":"01228022101","name":"納内町北","lat":43.734699,"lng":142.130516},{"code":"01228022102","name":"納内町２丁目","lat":43.728098,"lng":142.127407},{"code":"01228022103","name":"納内町３丁目","lat":43.728872,"lng":142.137811},{"code":"01228022104","name":"納内町グリーンタウン","lat":43.731223,"lng":142.137652},{"code":"012280222","name":"字納内","lat":43.75171,"lng":142.154716},{"code":"012280230","name":"字菊丘","lat":43.647435,"lng":142.181099},{"code":"012280240","name":"字吉住","lat":43.665793,"lng":142.13779},{"code":"012280250","name":"字国見","lat":43.694099,"lng":142.111822},{"code":"012280260","name":"字更進","lat":43.69703,"lng":142.161903},{"code":"01228027101","name":"音江町１丁目","lat":43.696594,"lng":142.073865},{"code":"01228027102","name":"音江町２丁目","lat":43.694238,"lng":142.077332},{"code":"012280272","name":"字音江","lat":43.675292,"lng":142.087082},{"code":"01228028101","name":"広里町１丁目","lat":43.709735,"lng":142.045144},{"code":"01228028102","name":"広里町２丁目","lat":43.707571,"lng":142.051657},{"code":"01228028103","name":"広里町３丁目","lat":43.712219,"lng":142.051278},{"code":"01228028104","name":"広里町４丁目","lat":43.708355,"lng":142.055283},{"code":"01228028105","name":"広里町５丁目","lat":43.707002,"lng":142.059966},{"code":"012280282","name":"字広里","lat":43.698397,"lng":142.051203},{"code":"012280290","name":"字豊泉","lat":43.657947,"lng":142.062031},{"code":"012280300","name":"字向陽","lat":43.658454,"lng":142.027061},{"code":"012280310","name":"字稲田","lat":43.663955,"lng":141.991525},{"code":"012280320","name":"字内園","lat":43.71145,"lng":142.146015},{"code":"012280340","name":"多度志","lat":43.813679,"lng":142.046971},{"code":"012280350","name":"多度志南","lat":43.792613,"lng":142.044729},{"code":"012280370","name":"湯内","lat":43.809448,"lng":142.163523},{"code":"012280380","name":"宇摩","lat":43.826267,"lng":142.090297},{"code":"012280390","name":"ウッカ","lat":43.849994,"lng":142.08608},{"code":"012280410","name":"幌内","lat":43.858719,"lng":142.14184},{"code":"012280430","name":"鷹泊","lat":43.948122,"lng":142.080896}]}
