{"municipality":"01394","name":"磯谷郡蘭越町","prefecture":"北海道","source":{"dataset":"frogcat/japan-small-area","census":"平成27年国勢調査 小地域（e-Stat 統計LOD）","license":"MIT（リポジトリ）／政府統計の総合窓口(e-Stat)の利用規約（元データ・出典表記必要）","fetched":"2026-07-06"},"towns":[{"code":"013940010","name":"字三和","lat":42.825943,"lng":140.465424},{"code":"013940020","name":"字御成","lat":42.851961,"lng":140.429394},{"code":"013940030","name":"字共栄","lat":42.831979,"lng":140.391195},{"code":"013940040","name":"字初田","lat":42.881698,"lng":140.449357},{"code":"013940050","name":"港町","lat":42.889576,"lng":140.399875},{"code":"013940060","name":"字上里","lat":42.856243,"lng":140.457102},{"code":"013940070","name":"字吉国","lat":42.850239,"lng":140.50319},{"code":"013940080","name":"字新見","lat":42.881016,"lng":140.533859},{"code":"013940090","name":"字富岡","lat":42.835074,"lng":140.524271},{"code":"013940100","name":"字栄","lat":42.811603,"lng":140.489829},{"code":"013940110","name":"字豊国","lat":42.821897,"lng":140.55045},{"code":"013940120","name":"字旭台","lat":42.844422,"lng":140.570536},{"code":"013940130","name":"字日出","lat":42.835355,"lng":140.593632},{"code":"013940140","name":"字湯里","lat":42.858693,"lng":140.604342},{"code":"013940150","name":"字黄金","lat":42.806764,"lng":140.602597},{"code":"013940160","name":"昆布町","lat":42.791016,"lng":140.576591},{"code":"013940170","name":"蘭越町","lat":42.805156,"lng":140.544096},{"code":"013940180","name":"字水上","lat":42.781502,"lng":140.521238},{"code":"013940190","name":"字大谷","lat":42.796731,"lng":140.500812},{"code":"013940200","name":"字淀川","lat":42.792614,"lng":140.472287},{"code":"013940210","name":"目名町","lat":42.769861,"lng":140.461075},{"code":"013940220","name":"字鮎川","lat":42.793012,"lng":140.448685},{"code":"013940230","name":"名駒町","lat":42.816508,"lng":140.421017},{"code":"013940240","name":"字清水","lat":42.796463,"lng":140.422196},{"code":"013940250","name":"字三笠","lat":42.768621,"lng":140.398834},{"code":"013940260","name":"字貝川","lat":42.749575,"lng":140.431866},{"code":"013940270","name":"字田下","lat":42.72404,"lng":140.434166},{"code":"013940280","name":"字上目名","lat":42.7216,"lng":140.405389},{"code":"013940290","name":"字讃岐","lat":42.721008,"lng":140.489487},{"code":"013940300","name":"字相生","lat":42.754969,"lng":140.503516},{"code":"013940310","name":"字立川","lat":42.748116,"lng":140.557368},{"code":"013940320","name":"字川上","lat":42.682962,"lng":140.542976}]}
