{"municipality":"01398","name":"虻田郡喜茂別町","prefecture":"北海道","source":{"dataset":"frogcat/japan-small-area","census":"平成27年国勢調査 小地域（e-Stat 統計LOD）","license":"MIT（リポジトリ）／政府統計の総合窓口(e-Stat)の利用規約（元データ・出典表記必要）","fetched":"2026-07-06"},"towns":[{"code":"013980010","name":"字喜茂別","lat":42.798657,"lng":140.93799},{"code":"013980020","name":"字伏見","lat":42.801067,"lng":140.966199},{"code":"013980030","name":"字比羅岡","lat":42.808952,"lng":140.862466},{"code":"013980040","name":"字留産","lat":42.796485,"lng":140.903283},{"code":"013980050","name":"字相川","lat":42.789784,"lng":140.921025},{"code":"013980060","name":"字知来別","lat":42.785864,"lng":140.996669},{"code":"013980070","name":"字栄","lat":42.803994,"lng":141.004235},{"code":"013980080","name":"字川上","lat":42.824185,"lng":141.038168},{"code":"013980090","name":"字福島","lat":42.860144,"lng":141.057717},{"code":"013980100","name":"字花丘","lat":42.78041,"lng":141.049277},{"code":"013980110","name":"字中里","lat":42.756241,"lng":141.021108},{"code":"013980120","name":"字双葉","lat":42.76283,"lng":141.068251},{"code":"013980130","name":"字壮園","lat":42.737024,"lng":141.028713},{"code":"013980140","name":"字御園","lat":42.741362,"lng":140.994715},{"code":"013980150","name":"字鈴川","lat":42.766331,"lng":140.988735},{"code":"013980160","name":"字富士見台","lat":42.781087,"lng":140.964755},{"code":"013980170","name":"字尻別","lat":42.773241,"lng":140.937971},{"code":"013980180","name":"字福丘","lat":42.755298,"lng":140.962555},{"code":"013980190","name":"字金山","lat":42.724431,"lng":141.021257}]}
