{"municipality":"01396","name":"虻田郡真狩村","prefecture":"北海道","source":{"dataset":"frogcat/japan-small-area","census":"平成27年国勢調査 小地域（e-Stat 統計LOD）","license":"MIT（リポジトリ）／政府統計の総合窓口(e-Stat)の利用規約（元データ・出典表記必要）","fetched":"2026-07-06"},"towns":[{"code":"013960010","name":"字富里","lat":42.771722,"lng":140.752453},{"code":"013960020","name":"字社","lat":42.79831,"lng":140.798161},{"code":"013960030","name":"字緑岡","lat":42.763703,"lng":140.785974},{"code":"013960040","name":"字泉","lat":42.780463,"lng":140.82625},{"code":"013960050","name":"字新陽","lat":42.794046,"lng":140.847436},{"code":"013960060","name":"字美原","lat":42.775286,"lng":140.871122},{"code":"013960070","name":"字共明","lat":42.765792,"lng":140.829495},{"code":"013960080","name":"字光","lat":42.755481,"lng":140.823939},{"code":"013960090","name":"字真狩","lat":42.765568,"lng":140.802887},{"code":"013960100","name":"字見晴","lat":42.746602,"lng":140.810621},{"code":"013960110","name":"字桜川","lat":42.749731,"lng":140.748295},{"code":"013960120","name":"字南部","lat":42.738217,"lng":140.776244},{"code":"013960130","name":"字豊川","lat":42.726309,"lng":140.806121},{"code":"013960140","name":"字加野","lat":42.707122,"lng":140.797405},{"code":"013960150","name":"字神里","lat":42.710338,"lng":140.770413},{"code":"013960160","name":"字川崎","lat":42.679084,"lng":140.768391}]}
