{"municipality":"01401","name":"岩内郡共和町","prefecture":"北海道","source":{"dataset":"frogcat/japan-small-area","census":"平成27年国勢調査 小地域（e-Stat 統計LOD）","license":"MIT（リポジトリ）／政府統計の総合窓口(e-Stat)の利用規約（元データ・出典表記必要）","fetched":"2026-07-06"},"towns":[{"code":"014010010","name":"前田","lat":42.950481,"lng":140.578548},{"code":"014010020","name":"南幌似","lat":42.943077,"lng":140.607225},{"code":"014010030","name":"老古美","lat":42.936526,"lng":140.550377},{"code":"014010040","name":"梨野舞納","lat":43.00379,"lng":140.544059},{"code":"014010050","name":"宮丘","lat":43.061557,"lng":140.565135},{"code":"014010060","name":"発足","lat":43.035384,"lng":140.600368},{"code":"014010070","name":"幌似","lat":42.998444,"lng":140.624061},{"code":"014010080","name":"国富","lat":43.015145,"lng":140.65842},{"code":"014010090","name":"小沢","lat":42.977234,"lng":140.69999},{"code":"014010100","name":"ワイス","lat":42.941465,"lng":140.698247}]}
