{"municipality":"01429","name":"夕張郡栗山町","prefecture":"北海道","source":{"dataset":"frogcat/japan-small-area","census":"平成27年国勢調査 小地域（e-Stat 統計LOD）","license":"MIT（リポジトリ）／政府統計の総合窓口(e-Stat)の利用規約（元データ・出典表記必要）","fetched":"2026-07-06"},"towns":[{"code":"01429001001","name":"松風２丁目","lat":43.061004,"lng":141.785476},{"code":"01429001002","name":"松風３丁目","lat":43.057435,"lng":141.786189},{"code":"01429001003","name":"松風４丁目","lat":43.053428,"lng":141.786891},{"code":"01429002001","name":"中央１丁目","lat":43.062619,"lng":141.777335},{"code":"01429002002","name":"中央２丁目","lat":43.05976,"lng":141.779147},{"code":"01429002003","name":"中央３丁目","lat":43.056745,"lng":141.779841},{"code":"01429002004","name":"中央４丁目","lat":43.05286,"lng":141.780662},{"code":"01429003001","name":"錦１丁目","lat":43.065921,"lng":141.768767},{"code":"01429003002","name":"錦２丁目","lat":43.063585,"lng":141.769964},{"code":"01429003003","name":"錦３丁目","lat":43.059884,"lng":141.771402},{"code":"01429003004","name":"錦４丁目","lat":43.054097,"lng":141.772739},{"code":"01429004001","name":"桜丘１丁目","lat":43.063697,"lng":141.786651},{"code":"01429004002","name":"桜丘２丁目","lat":43.067609,"lng":141.776859},{"code":"01429004003","name":"桜丘３丁目","lat":43.078401,"lng":141.775567},{"code":"01429005001","name":"朝日２丁目","lat":43.060758,"lng":141.790108},{"code":"01429005002","name":"朝日３丁目","lat":43.057924,"lng":141.79221},{"code":"01429005003","name":"朝日４丁目","lat":43.054362,"lng":141.793857},{"code":"014290060","name":"字富士","lat":43.042107,"lng":141.774117},{"code":"014290070","name":"字中里","lat":43.047665,"lng":141.793591},{"code":"014290080","name":"字湯地","lat":43.063379,"lng":141.800924},{"code":"014290090","name":"字森","lat":43.086616,"lng":141.796291},{"code":"014290100","name":"字鳩山","lat":43.088454,"lng":141.812875},{"code":"014290110","name":"字雨煙別","lat":43.080604,"lng":141.836401},{"code":"014290120","name":"字緑丘","lat":43.108711,"lng":141.862093},{"code":"014290130","name":"字北学田","lat":43.063121,"lng":141.824948},{"code":"014290140","name":"字本沢","lat":43.086825,"lng":141.887295},{"code":"014290150","name":"字桜山","lat":43.054086,"lng":141.859928},{"code":"014290160","name":"字杵臼","lat":43.042493,"lng":141.837793},{"code":"014290170","name":"字旭台","lat":43.036989,"lng":141.81959},{"code":"014290180","name":"字共和","lat":43.037502,"lng":141.793775},{"code":"014290190","name":"字三日月","lat":43.028063,"lng":141.787647},{"code":"014290200","name":"角田","lat":43.03054,"lng":141.810324},{"code":"014290210","name":"字阿野呂","lat":43.01617,"lng":141.820337},{"code":"014290220","name":"字大井分","lat":43.021632,"lng":141.836158},{"code":"014290230","name":"字南学田","lat":43.003263,"lng":141.849368},{"code":"014290240","name":"字継立","lat":43.037183,"lng":141.875984},{"code":"014290250","name":"字日出","lat":43.055898,"lng":141.901494},{"code":"014290260","name":"字御園","lat":43.002973,"lng":141.886499},{"code":"014290270","name":"字南角田","lat":42.980456,"lng":141.887587},{"code":"014290280","name":"字円山","lat":42.942483,"lng":141.903918},{"code":"014290290","name":"字東山","lat":42.966224,"lng":141.923334},{"code":"014290300","name":"字滝下","lat":42.925846,"lng":141.945892}]}
