{"municipality":"01430","name":"樺戸郡月形町","prefecture":"北海道","source":{"dataset":"frogcat/japan-small-area","census":"平成27年国勢調査 小地域（e-Stat 統計LOD）","license":"MIT（リポジトリ）／政府統計の総合窓口(e-Stat)の利用規約（元データ・出典表記必要）","fetched":"2026-07-06"},"towns":[{"code":"01430001001","name":"市北第１区","lat":43.337088,"lng":141.669012},{"code":"01430001002","name":"市北第２区","lat":43.338067,"lng":141.67345},{"code":"01430001003","name":"市北第３区","lat":43.340523,"lng":141.672536},{"code":"01430002001","name":"市南第１区","lat":43.334205,"lng":141.672728},{"code":"01430002002","name":"市南第２区","lat":43.324781,"lng":141.675847},{"code":"01430002003","name":"市南第３区","lat":43.33115,"lng":141.664231},{"code":"01430003001","name":"北農場第１区","lat":43.352271,"lng":141.686928},{"code":"01430003002","name":"北農場第２区","lat":43.350915,"lng":141.693781},{"code":"01430004001","name":"赤川第１区","lat":43.346059,"lng":141.662376},{"code":"01430004002","name":"赤川第２区","lat":43.346513,"lng":141.652947},{"code":"014300050","name":"新生区","lat":43.336958,"lng":141.687314},{"code":"014300060","name":"雁里区","lat":43.296439,"lng":141.665416},{"code":"014300070","name":"南耕地区","lat":43.322222,"lng":141.651289},{"code":"014300080","name":"知来乙区","lat":43.355335,"lng":141.633027},{"code":"014300090","name":"昭栄区","lat":43.300716,"lng":141.644246},{"code":"01430010001","name":"中和第１区","lat":43.334267,"lng":141.613269},{"code":"01430010002","name":"中和第２区","lat":43.314932,"lng":141.611875},{"code":"01430010003","name":"中和第３区","lat":43.296314,"lng":141.618365},{"code":"01430011001","name":"札比内第１区","lat":43.387435,"lng":141.745151},{"code":"01430011002","name":"札比内第２区","lat":43.384913,"lng":141.728435},{"code":"01430011003","name":"札比内第３区","lat":43.373519,"lng":141.724045},{"code":"01430011004","name":"札比内第４区","lat":43.366526,"lng":141.709278},{"code":"01430011005","name":"札比内第５区","lat":43.370544,"lng":141.745049},{"code":"01430011006","name":"札比内第６区","lat":43.374629,"lng":141.760175},{"code":"01430011007","name":"札比内第７区","lat":43.357788,"lng":141.739401},{"code":"014300120","name":"字なし区域","lat":43.403356,"lng":141.67723}]}
