{"municipality":"01463","name":"勇払郡占冠村","prefecture":"北海道","source":{"dataset":"frogcat/japan-small-area","census":"平成27年国勢調査 小地域（e-Stat 統計LOD）","license":"MIT（リポジトリ）／政府統計の総合窓口(e-Stat)の利用規約（元データ・出典表記必要）","fetched":"2026-07-06"},"towns":[{"code":"014630010","name":"字双珠別","lat":42.964697,"lng":142.52521},{"code":"014630020","name":"字中央","lat":42.967473,"lng":142.421157},{"code":"014630030","name":"字占冠","lat":43.043315,"lng":142.421852},{"code":"014630040","name":"字ニニウ","lat":42.956679,"lng":142.344191},{"code":"014630051","name":"字上トマム","lat":43.016462,"lng":142.669616},{"code":"014630052","name":"字中トマム","lat":43.05243,"lng":142.615201},{"code":"014630053","name":"字下トマム","lat":43.068708,"lng":142.546365}]}
