{"municipality":"01468","name":"上川郡下川町","prefecture":"北海道","source":{"dataset":"frogcat/japan-small-area","census":"平成27年国勢調査 小地域（e-Stat 統計LOD）","license":"MIT（リポジトリ）／政府統計の総合窓口(e-Stat)の利用規約（元データ・出典表記必要）","fetched":"2026-07-06"},"towns":[{"code":"01468001002","name":"上名寄第３","lat":44.33429,"lng":142.591627},{"code":"01468001003","name":"上名寄第２","lat":44.302588,"lng":142.57143},{"code":"01468001004","name":"上名寄第１","lat":44.303611,"lng":142.548826},{"code":"01468002002","name":"西町元町","lat":44.304226,"lng":142.630449},{"code":"01468002003","name":"西町中成南","lat":44.29304,"lng":142.611559},{"code":"01468002004","name":"西町中成北","lat":44.307108,"lng":142.620928},{"code":"014680030","name":"班渓","lat":44.232554,"lng":142.750369},{"code":"014680040","name":"北町","lat":44.318092,"lng":142.640318},{"code":"014680050","name":"珊瑠","lat":44.394421,"lng":142.711303},{"code":"014680070","name":"幸町","lat":44.303616,"lng":142.634493},{"code":"014680080","name":"錦町","lat":44.304369,"lng":142.638171},{"code":"014680090","name":"共栄町","lat":44.301434,"lng":142.639285},{"code":"014680100","name":"旭町","lat":44.303934,"lng":142.641751},{"code":"014680110","name":"緑町","lat":44.301211,"lng":142.645904},{"code":"01468012001","name":"南町末広町","lat":44.297909,"lng":142.636609},{"code":"01468012002","name":"南町新町","lat":44.29746,"lng":142.643235},{"code":"014680140","name":"三の橋","lat":44.300428,"lng":142.662007},{"code":"014680150","name":"渓和","lat":44.276794,"lng":142.676997},{"code":"014680160","name":"二の橋","lat":44.305859,"lng":142.706016},{"code":"01468017001","name":"一の橋幸成","lat":44.327264,"lng":142.733159},{"code":"01468017002","name":"一の橋一の橋","lat":44.318128,"lng":142.77053}]}
