{"municipality":"01471","name":"中川郡中川町","prefecture":"北海道","source":{"dataset":"frogcat/japan-small-area","census":"平成27年国勢調査 小地域（e-Stat 統計LOD）","license":"MIT（リポジトリ）／政府統計の総合窓口(e-Stat)の利用規約（元データ・出典表記必要）","fetched":"2026-07-06"},"towns":[{"code":"014710011","name":"字国府","lat":44.871932,"lng":142.018175},{"code":"014710012","name":"字大富","lat":44.836359,"lng":142.037065},{"code":"014710013","name":"字歌内","lat":44.885679,"lng":142.06492},{"code":"014710021","name":"字中川","lat":44.840195,"lng":142.11644},{"code":"014710022","name":"字琴平","lat":44.783772,"lng":142.11745},{"code":"014710031","name":"字誉","lat":44.800741,"lng":142.038606},{"code":"014710032","name":"字豊里","lat":44.770762,"lng":142.025619},{"code":"014710040","name":"字佐久","lat":44.749283,"lng":142.074148},{"code":"014710051","name":"字共和","lat":44.650156,"lng":142.089379},{"code":"014710052","name":"字神路","lat":44.757388,"lng":142.130174},{"code":"014710053","name":"字板谷","lat":44.552054,"lng":142.121124},{"code":"014710054","name":"字富和","lat":44.710178,"lng":142.100908},{"code":"014710055","name":"字安川","lat":44.720663,"lng":142.016754}]}
