{"municipality":"01487","name":"天塩郡天塩町","prefecture":"北海道","source":{"dataset":"frogcat/japan-small-area","census":"平成27年国勢調査 小地域（e-Stat 統計LOD）","license":"MIT（リポジトリ）／政府統計の総合窓口(e-Stat)の利用規約（元データ・出典表記必要）","fetched":"2026-07-06"},"towns":[{"code":"014870020","name":"川口基線","lat":44.926437,"lng":141.733454},{"code":"014870030","name":"南川口","lat":44.898021,"lng":141.771031},{"code":"014870040","name":"北川口","lat":44.937504,"lng":141.761779},{"code":"014870050","name":"振老","lat":44.972325,"lng":141.786693},{"code":"014870060","name":"作返","lat":44.982336,"lng":141.840983},{"code":"014870070","name":"東産士","lat":44.94782,"lng":141.860411},{"code":"014870080","name":"北産士","lat":44.957676,"lng":141.818082},{"code":"014870090","name":"中産士","lat":44.933687,"lng":141.822497},{"code":"014870100","name":"西産士，六志内","lat":44.897334,"lng":141.821908},{"code":"014870110","name":"中更岸","lat":44.851476,"lng":141.8215},{"code":"014870120","name":"南更岸","lat":44.828964,"lng":141.812412},{"code":"014870130","name":"浜更岸","lat":44.82931,"lng":141.764167},{"code":"014870150","name":"干拓","lat":44.855437,"lng":141.77115},{"code":"014870160","name":"北更岸","lat":44.87052,"lng":141.79283},{"code":"014870170","name":"円山","lat":44.904493,"lng":141.867425},{"code":"014870180","name":"雄信内","lat":44.901487,"lng":141.900979},{"code":"014870190","name":"東雄信内","lat":44.896262,"lng":141.943144},{"code":"014870200","name":"辰子丑","lat":44.898193,"lng":141.974448},{"code":"014870210","name":"下国根府","lat":44.85974,"lng":141.990389},{"code":"014870220","name":"新成","lat":44.859224,"lng":141.946544},{"code":"014870230","name":"泉源，南雄信内","lat":44.805676,"lng":141.937353},{"code":"014870240","name":"男能富","lat":44.845908,"lng":141.890366},{"code":"014870250","name":"西雄信内","lat":44.875077,"lng":141.894151},{"code":"01487030001","name":"天塩１丁目","lat":44.879732,"lng":141.744642},{"code":"01487030002","name":"天塩２丁目","lat":44.881693,"lng":141.745767},{"code":"01487030003","name":"天塩３丁目","lat":44.882702,"lng":141.745591},{"code":"01487030004","name":"天塩４丁目","lat":44.883789,"lng":141.745575},{"code":"01487030005","name":"天塩５丁目","lat":44.884997,"lng":141.745865},{"code":"01487030006","name":"天塩６丁目","lat":44.886022,"lng":141.745194},{"code":"01487030007","name":"天塩７丁目","lat":44.887353,"lng":141.747177},{"code":"01487030008","name":"天塩８丁目","lat":44.888429,"lng":141.746689},{"code":"01487030009","name":"天塩９丁目","lat":44.889581,"lng":141.746499},{"code":"01487030010","name":"天塩１０丁目","lat":44.890641,"lng":141.74595},{"code":"01487030011","name":"天塩１１丁目","lat":44.891745,"lng":141.74533},{"code":"014870310","name":"苗畑","lat":44.884725,"lng":141.752092},{"code":"014870320","name":"更岸基線","lat":44.867698,"lng":141.749566},{"code":"014870330","name":"新川，緑新団地","lat":44.878892,"lng":141.753426}]}
