{"municipality":"01518","name":"利尻郡利尻町","prefecture":"北海道","source":{"dataset":"frogcat/japan-small-area","census":"平成27年国勢調査 小地域（e-Stat 統計LOD）","license":"MIT（リポジトリ）／政府統計の総合窓口(e-Stat)の利用規約（元データ・出典表記必要）","fetched":"2026-07-06"},"towns":[{"code":"01518001001","name":"沓形字栄浜","lat":45.217032,"lng":141.148472},{"code":"01518001002","name":"沓形字新湊","lat":45.208063,"lng":141.145247},{"code":"01518001003","name":"沓形字種富町","lat":45.184388,"lng":141.184235},{"code":"01518001004","name":"沓形字富野","lat":45.191754,"lng":141.149337},{"code":"01518001005","name":"沓形字日出町","lat":45.187688,"lng":141.149152},{"code":"01518001006","name":"沓形字緑町","lat":45.185766,"lng":141.13953},{"code":"01518001007","name":"沓形字本町","lat":45.185089,"lng":141.13689},{"code":"01518001008","name":"沓形字富士見町","lat":45.185716,"lng":141.132102},{"code":"01518001009","name":"沓形字泉町","lat":45.181545,"lng":141.148826},{"code":"01518001010","name":"沓形字神居","lat":45.168989,"lng":141.146231},{"code":"01518001011","name":"沓形字蘭泊","lat":45.15709,"lng":141.155866},{"code":"01518009001","name":"仙法志字久連","lat":45.142724,"lng":141.166415},{"code":"01518009002","name":"仙法志字長浜","lat":45.131826,"lng":141.181742},{"code":"01518009003","name":"仙法志字神磯","lat":45.125962,"lng":141.203317},{"code":"01518009004","name":"仙法志字政泊","lat":45.121024,"lng":141.213271},{"code":"01518009005","name":"仙法志字本町","lat":45.118129,"lng":141.222599},{"code":"01518009006","name":"仙法志字元村","lat":45.111024,"lng":141.229786},{"code":"01518009007","name":"仙法志字御崎","lat":45.144918,"lng":141.218986}]}
