{"municipality":"01549","name":"常呂郡訓子府町","prefecture":"北海道","source":{"dataset":"frogcat/japan-small-area","census":"平成27年国勢調査 小地域（e-Stat 統計LOD）","license":"MIT（リポジトリ）／政府統計の総合窓口(e-Stat)の利用規約（元データ・出典表記必要）","fetched":"2026-07-06"},"towns":[{"code":"015490010","name":"若葉町","lat":43.730096,"lng":143.730146},{"code":"015490020","name":"西幸町","lat":43.730567,"lng":143.735416},{"code":"015490030","name":"東幸町","lat":43.731742,"lng":143.742628},{"code":"015490040","name":"東町","lat":43.725438,"lng":143.744497},{"code":"015490050","name":"元町","lat":43.728133,"lng":143.739485},{"code":"015490060","name":"大町","lat":43.727935,"lng":143.735977},{"code":"015490070","name":"若富町","lat":43.725721,"lng":143.730733},{"code":"015490080","name":"栄町","lat":43.724434,"lng":143.735331},{"code":"015490090","name":"仲町","lat":43.724456,"lng":143.737484},{"code":"015490100","name":"旭町","lat":43.724219,"lng":143.73984},{"code":"015490110","name":"末広町","lat":43.717836,"lng":143.73795},{"code":"015490120","name":"字駒里","lat":43.75711,"lng":143.684296},{"code":"015490130","name":"字弥生","lat":43.766601,"lng":143.722871},{"code":"015490140","name":"字福野","lat":43.771664,"lng":143.769504},{"code":"015490150","name":"字日出","lat":43.748056,"lng":143.790026},{"code":"015490160","name":"字柏丘","lat":43.749848,"lng":143.75926},{"code":"015490170","name":"字高園","lat":43.743569,"lng":143.726703},{"code":"015490180","name":"字北栄","lat":43.733999,"lng":143.686525},{"code":"015490190","name":"字西富","lat":43.723126,"lng":143.696418},{"code":"015490200","name":"字穂波","lat":43.732914,"lng":143.763154},{"code":"015490220","name":"字実郷","lat":43.722065,"lng":143.760723},{"code":"015490230","name":"字大谷","lat":43.673309,"lng":143.787443},{"code":"015490240","name":"字緑丘","lat":43.668717,"lng":143.751562},{"code":"015490250","name":"字協成","lat":43.69417,"lng":143.736024},{"code":"015490260","name":"字清住","lat":43.71764,"lng":143.710208},{"code":"015490270","name":"字豊坂","lat":43.702235,"lng":143.69007},{"code":"015490280","name":"字開盛","lat":43.6838,"lng":143.720711},{"code":"015490290","name":"字常盤","lat":43.673934,"lng":143.686899},{"code":"015490300","name":"字美園","lat":43.647222,"lng":143.676575}]}
