{"municipality":"01562","name":"紋別郡西興部村","prefecture":"北海道","source":{"dataset":"frogcat/japan-small-area","census":"平成27年国勢調査 小地域（e-Stat 統計LOD）","license":"MIT（リポジトリ）／政府統計の総合窓口(e-Stat)の利用規約（元データ・出典表記必要）","fetched":"2026-07-06"},"towns":[{"code":"015620010","name":"字奥興部","lat":44.381855,"lng":142.843202},{"code":"015620020","name":"字東興","lat":44.354571,"lng":142.897259},{"code":"015620030","name":"字札滑","lat":44.297836,"lng":142.866861},{"code":"015620040","name":"字上興部","lat":44.35893,"lng":142.863613},{"code":"015620050","name":"字西興部","lat":44.329648,"lng":142.947967},{"code":"015620060","name":"字七重","lat":44.336216,"lng":142.949594},{"code":"015620080","name":"字忍路子","lat":44.295263,"lng":142.923572},{"code":"015620090","name":"字中興部","lat":44.373421,"lng":142.943945},{"code":"015620100","name":"字中藻","lat":44.339473,"lng":143.00579},{"code":"015620110","name":"字上藻","lat":44.265562,"lng":142.963466}]}
