{"municipality":"01602","name":"沙流郡平取町","prefecture":"北海道","source":{"dataset":"frogcat/japan-small-area","census":"平成27年国勢調査 小地域（e-Stat 統計LOD）","license":"MIT（リポジトリ）／政府統計の総合窓口(e-Stat)の利用規約（元データ・出典表記必要）","fetched":"2026-07-06"},"towns":[{"code":"016020010","name":"本町","lat":42.592951,"lng":142.131985},{"code":"016020020","name":"字小平","lat":42.605919,"lng":142.187605},{"code":"016020030","name":"字川向","lat":42.554131,"lng":142.128639},{"code":"016020040","name":"字紫雲古津","lat":42.554775,"lng":142.066482},{"code":"016020050","name":"字去場","lat":42.563442,"lng":142.089783},{"code":"016020060","name":"字荷菜","lat":42.577833,"lng":142.108233},{"code":"016020070","name":"字二風谷","lat":42.637373,"lng":142.17254},{"code":"016020080","name":"字荷負","lat":42.676022,"lng":142.199078},{"code":"016020090","name":"字長知内","lat":42.714705,"lng":142.217543},{"code":"016020100","name":"字幌毛志","lat":42.727206,"lng":142.266113},{"code":"016020110","name":"振内町","lat":42.72828,"lng":142.305396},{"code":"016020120","name":"字岩知志","lat":42.746135,"lng":142.384342},{"code":"016020130","name":"字仁世宇","lat":42.823904,"lng":142.34728},{"code":"016020140","name":"字貫気別","lat":42.658659,"lng":142.271753},{"code":"016020150","name":"字旭","lat":42.637509,"lng":142.385557},{"code":"016020160","name":"字芽生","lat":42.671927,"lng":142.446223},{"code":"016020170","name":"字豊糠","lat":42.745693,"lng":142.531829}]}
