{"municipality":"01604","name":"新冠郡新冠町","prefecture":"北海道","source":{"dataset":"frogcat/japan-small-area","census":"平成27年国勢調査 小地域（e-Stat 統計LOD）","license":"MIT（リポジトリ）／政府統計の総合窓口(e-Stat)の利用規約（元データ・出典表記必要）","fetched":"2026-07-06"},"towns":[{"code":"016040010","name":"字北星町","lat":42.366982,"lng":142.315634},{"code":"016040020","name":"字東町","lat":42.361189,"lng":142.321517},{"code":"016040030","name":"字中央町","lat":42.363998,"lng":142.310283},{"code":"016040040","name":"字本町","lat":42.356047,"lng":142.317591},{"code":"016040050","name":"字里平","lat":42.551157,"lng":142.408088},{"code":"016040060","name":"字太陽","lat":42.536747,"lng":142.423544},{"code":"016040070","name":"字若園","lat":42.488447,"lng":142.419618},{"code":"016040080","name":"字泉","lat":42.487155,"lng":142.464571},{"code":"016040090","name":"字新栄","lat":42.467965,"lng":142.441145},{"code":"016040100","name":"字美宇","lat":42.504582,"lng":142.366923},{"code":"016040110","name":"字新和","lat":42.532242,"lng":142.352677},{"code":"016040120","name":"字東川","lat":42.465357,"lng":142.350199},{"code":"016040130","name":"字古岸","lat":42.440814,"lng":142.39789},{"code":"016040140","name":"字明和","lat":42.445626,"lng":142.445913},{"code":"016040150","name":"字万世","lat":42.415022,"lng":142.418196},{"code":"016040160","name":"字緑丘","lat":42.416313,"lng":142.379487},{"code":"016040170","name":"字共栄","lat":42.43277,"lng":142.306672},{"code":"016040180","name":"字朝日","lat":42.403053,"lng":142.352403},{"code":"016040190","name":"字大富","lat":42.394189,"lng":142.39172},{"code":"016040200","name":"字東泊津","lat":42.378362,"lng":142.366954},{"code":"016040210","name":"字西泊津","lat":42.363078,"lng":142.338072},{"code":"016040220","name":"字高江","lat":42.38603,"lng":142.316789},{"code":"016040230","name":"字大狩部","lat":42.412268,"lng":142.266558},{"code":"016040240","name":"字節婦町","lat":42.392991,"lng":142.293656},{"code":"016040250","name":"字岩清水","lat":42.62702,"lng":142.585636}]}
