{"municipality":"01647","name":"足寄郡足寄町","prefecture":"北海道","source":{"dataset":"frogcat/japan-small-area","census":"平成27年国勢調査 小地域（e-Stat 統計LOD）","license":"MIT（リポジトリ）／政府統計の総合窓口(e-Stat)の利用規約（元データ・出典表記必要）","fetched":"2026-07-06"},"towns":[{"code":"016470010","name":"里見が丘","lat":43.244589,"lng":143.521108},{"code":"01647002001","name":"西町１丁目","lat":43.234148,"lng":143.545055},{"code":"01647002002","name":"西町２丁目","lat":43.238818,"lng":143.544838},{"code":"01647002003","name":"西町３丁目","lat":43.241537,"lng":143.543122},{"code":"01647002004","name":"西町４丁目","lat":43.24297,"lng":143.54317},{"code":"01647002005","name":"西町５丁目","lat":43.244595,"lng":143.543094},{"code":"01647002006","name":"西町６丁目","lat":43.246195,"lng":143.543425},{"code":"01647002007","name":"西町７丁目","lat":43.248687,"lng":143.54366},{"code":"01647002008","name":"西町８丁目","lat":43.251136,"lng":143.543871},{"code":"01647002009","name":"西町９丁目","lat":43.253567,"lng":143.543986},{"code":"016470030","name":"常盤","lat":43.247229,"lng":143.533827},{"code":"016470040","name":"美盛","lat":43.258784,"lng":143.532767},{"code":"01647005001","name":"下愛冠１丁目","lat":43.265893,"lng":143.542092},{"code":"01647005002","name":"下愛冠２丁目","lat":43.258217,"lng":143.546594},{"code":"01647005003","name":"下愛冠３丁目","lat":43.260992,"lng":143.545193},{"code":"01647005004","name":"下愛冠４丁目","lat":43.26497,"lng":143.557115},{"code":"016470060","name":"北六条","lat":43.252977,"lng":143.548895},{"code":"016470070","name":"北五条","lat":43.250917,"lng":143.549436},{"code":"01647008001","name":"北四条１丁目","lat":43.249324,"lng":143.548772},{"code":"01647008002","name":"北四条２丁目","lat":43.249116,"lng":143.551858},{"code":"01647009001","name":"北三条１丁目","lat":43.247429,"lng":143.548764},{"code":"01647009002","name":"北三条２丁目","lat":43.247056,"lng":143.55286},{"code":"01647010001","name":"北二条１丁目","lat":43.245968,"lng":143.547064},{"code":"01647010002","name":"北二条２丁目","lat":43.245742,"lng":143.548346},{"code":"01647010003","name":"北二条３丁目","lat":43.245701,"lng":143.549564},{"code":"01647010004","name":"北二条４丁目","lat":43.245524,"lng":143.553206},{"code":"01647011001","name":"北一条１丁目","lat":43.244536,"lng":143.546876},{"code":"01647011002","name":"北一条２丁目","lat":43.244729,"lng":143.548261},{"code":"01647011003","name":"北一条３丁目","lat":43.244673,"lng":143.549439},{"code":"01647011004","name":"北一条４丁目","lat":43.244456,"lng":143.55328},{"code":"01647012001","name":"旭町１丁目","lat":43.241544,"lng":143.557237},{"code":"01647012002","name":"旭町２丁目","lat":43.241614,"lng":143.559465},{"code":"01647012003","name":"旭町３丁目","lat":43.249836,"lng":143.560334},{"code":"01647012004","name":"旭町４丁目","lat":43.24806,"lng":143.563368},{"code":"01647012005","name":"旭町５丁目","lat":43.24483,"lng":143.566763},{"code":"01647013001","name":"南一条１丁目","lat":43.2436,"lng":143.547193},{"code":"01647013002","name":"南一条２丁目","lat":43.243615,"lng":143.548191},{"code":"01647013003","name":"南一条３丁目","lat":43.24357,"lng":143.549382},{"code":"01647013004","name":"南一条４丁目","lat":43.243486,"lng":143.55133},{"code":"01647013005","name":"南一条５丁目","lat":43.243297,"lng":143.554158},{"code":"01647014001","name":"南二条１丁目","lat":43.242644,"lng":143.546713},{"code":"01647014002","name":"南二条２丁目","lat":43.242416,"lng":143.548083},{"code":"01647014003","name":"南二条３丁目","lat":43.24237,"lng":143.549253},{"code":"01647014004","name":"南二条４丁目","lat":43.242292,"lng":143.551219},{"code":"01647014005","name":"南二条５丁目","lat":43.242195,"lng":143.554009},{"code":"01647015001","name":"南三条１丁目","lat":43.241358,"lng":143.546776},{"code":"01647015002","name":"南三条２丁目","lat":43.241333,"lng":143.547971},{"code":"01647015003","name":"南三条３丁目","lat":43.241282,"lng":143.549052},{"code":"01647015004","name":"南三条４丁目","lat":43.241194,"lng":143.551174},{"code":"01647015005","name":"南三条５丁目","lat":43.241109,"lng":143.553922},{"code":"01647016001","name":"南四条１丁目","lat":43.240259,"lng":143.546835},{"code":"01647016002","name":"南四条２丁目","lat":43.240244,"lng":143.547882},{"code":"01647016003","name":"南四条３丁目","lat":43.240193,"lng":143.548955},{"code":"01647016004","name":"南四条４丁目","lat":43.240098,"lng":143.551027},{"code":"01647016005","name":"南四条５丁目","lat":43.239997,"lng":143.553416},{"code":"01647016006","name":"南四条６丁目","lat":43.240134,"lng":143.555322},{"code":"01647017001","name":"南五条１丁目","lat":43.23915,"lng":143.546714},{"code":"01647017002","name":"南五条２丁目","lat":43.239111,"lng":143.547762},{"code":"01647017003","name":"南五条３丁目","lat":43.239071,"lng":143.548863},{"code":"01647017004","name":"南五条４丁目","lat":43.238974,"lng":143.550968},{"code":"01647017005","name":"南五条５丁目","lat":43.238867,"lng":143.55329},{"code":"01647017006","name":"南五条６丁目","lat":43.238853,"lng":143.555576},{"code":"01647018001","name":"南六条１丁目","lat":43.237785,"lng":143.546546},{"code":"01647018002","name":"南六条２丁目","lat":43.237745,"lng":143.547681},{"code":"01647018003","name":"南六条３丁目","lat":43.237694,"lng":143.548935},{"code":"01647018004","name":"南六条４丁目","lat":43.237592,"lng":143.551015},{"code":"01647018005","name":"南六条５丁目","lat":43.237519,"lng":143.553213},{"code":"01647018006","name":"南六条６丁目","lat":43.237678,"lng":143.55578},{"code":"01647018007","name":"南六条７丁目","lat":43.237588,"lng":143.559271},{"code":"01647019001","name":"南七条１丁目","lat":43.234543,"lng":143.546304},{"code":"01647019002","name":"南七条２丁目","lat":43.234894,"lng":143.547457},{"code":"01647019003","name":"南七条３丁目","lat":43.234197,"lng":143.548166},{"code":"01647019004","name":"南七条４丁目","lat":43.236027,"lng":143.550203},{"code":"01647020001","name":"栄町１丁目","lat":43.233339,"lng":143.550229},{"code":"01647020002","name":"栄町２丁目","lat":43.234777,"lng":143.55501},{"code":"016470210","name":"共栄町","lat":43.223875,"lng":143.577413},{"code":"01647022001","name":"郊南１丁目","lat":43.223465,"lng":143.55153},{"code":"01647022002","name":"郊南２丁目","lat":43.205563,"lng":143.570808},{"code":"016470230","name":"中矢","lat":43.253812,"lng":143.489417},{"code":"016470240","name":"芽登本町","lat":43.275034,"lng":143.426766},{"code":"016470250","name":"芽登","lat":43.409495,"lng":143.324284},{"code":"016470260","name":"喜登牛","lat":43.44692,"lng":143.408384},{"code":"016470270","name":"茂喜登牛","lat":43.341507,"lng":143.46892},{"code":"016470280","name":"鷲府","lat":43.304861,"lng":143.52522},{"code":"016470290","name":"愛冠","lat":43.292878,"lng":143.573768},{"code":"016470300","name":"白糸","lat":43.384414,"lng":143.531978},{"code":"016470310","name":"上利別本町","lat":43.349752,"lng":143.603434},{"code":"016470320","name":"上利別","lat":43.389456,"lng":143.589364},{"code":"016470330","name":"大誉地","lat":43.421577,"lng":143.659793},{"code":"016470340","name":"大誉地本町","lat":43.390663,"lng":143.676095},{"code":"016470350","name":"上足寄","lat":43.412155,"lng":143.834262},{"code":"016470360","name":"茂足寄","lat":43.411486,"lng":143.939702},{"code":"016470370","name":"上足寄本町","lat":43.355815,"lng":143.786874},{"code":"016470380","name":"上螺湾","lat":43.312912,"lng":143.822763},{"code":"016470390","name":"螺湾本町","lat":43.310135,"lng":143.707129},{"code":"016470400","name":"螺湾","lat":43.319773,"lng":143.690367},{"code":"016470410","name":"中足寄","lat":43.289672,"lng":143.611079},{"code":"016470420","name":"稲牛","lat":43.24357,"lng":143.720915},{"code":"016470430","name":"新町","lat":43.26376,"lng":143.586479},{"code":"016470440","name":"平和","lat":43.247,"lng":143.616639}]}
