{"municipality":"01648","name":"足寄郡陸別町","prefecture":"北海道","source":{"dataset":"frogcat/japan-small-area","census":"平成27年国勢調査 小地域（e-Stat 統計LOD）","license":"MIT（リポジトリ）／政府統計の総合窓口(e-Stat)の利用規約（元データ・出典表記必要）","fetched":"2026-07-06"},"towns":[{"code":"016480011","name":"字緑町西","lat":43.471405,"lng":143.736436},{"code":"016480012","name":"字緑町東","lat":43.469002,"lng":143.737008},{"code":"016480021","name":"字栄町西","lat":43.470752,"lng":143.738908},{"code":"016480022","name":"字栄町北","lat":43.471934,"lng":143.739521},{"code":"01648002301","name":"字栄町中央１","lat":43.470846,"lng":143.74046},{"code":"01648002302","name":"字栄町中央２","lat":43.470256,"lng":143.741593},{"code":"016480024","name":"字栄町南","lat":43.469602,"lng":143.742744},{"code":"016480031","name":"字元町北","lat":43.466628,"lng":143.738318},{"code":"016480032","name":"字元町南","lat":43.465953,"lng":143.740765},{"code":"016480041","name":"字大通南","lat":43.468524,"lng":143.744551},{"code":"016480042","name":"字鉄道","lat":43.468308,"lng":143.742017},{"code":"016480043","name":"字大通北","lat":43.472449,"lng":143.748228},{"code":"01648005001","name":"字東一条２区東","lat":43.472574,"lng":143.752018},{"code":"01648005002","name":"字東一条２区中央","lat":43.470877,"lng":143.749863},{"code":"01648005003","name":"字東一条２区西","lat":43.469582,"lng":143.74782},{"code":"01648005004","name":"字東一条１区東","lat":43.468421,"lng":143.746045},{"code":"01648005005","name":"字東一条１区西","lat":43.467309,"lng":143.744457},{"code":"016480070","name":"字旭町","lat":43.464448,"lng":143.742121},{"code":"01648008001","name":"字新町２区東","lat":43.462215,"lng":143.740373},{"code":"01648008002","name":"字新町２区北","lat":43.461838,"lng":143.738061},{"code":"01648008003","name":"字新町２区南","lat":43.46135,"lng":143.739473},{"code":"01648008004","name":"字新町２区中央１","lat":43.460307,"lng":143.738973},{"code":"01648008005","name":"字新町２区中央２","lat":43.460658,"lng":143.737486},{"code":"01648008006","name":"字新町２区西","lat":43.458713,"lng":143.738271},{"code":"01648008007","name":"字新町１区南","lat":43.459088,"lng":143.742069},{"code":"01648008008","name":"字新町１区中央","lat":43.461006,"lng":143.743953},{"code":"01648008009","name":"字新町１区北","lat":43.462642,"lng":143.744462},{"code":"01648010001","name":"字共栄第１南","lat":43.464669,"lng":143.74944},{"code":"01648010002","name":"字共栄第１","lat":43.465001,"lng":143.747538},{"code":"01648010003","name":"字共栄第１中央","lat":43.466183,"lng":143.747046},{"code":"01648010004","name":"字共栄第１西","lat":43.466819,"lng":143.745934},{"code":"01648010005","name":"字共栄第１北","lat":43.467596,"lng":143.747049},{"code":"01648010006","name":"字共栄第２南","lat":43.468635,"lng":143.749434},{"code":"01648010007","name":"字共栄第２中央","lat":43.470604,"lng":143.751622},{"code":"01648010008","name":"字共栄第２北","lat":43.471555,"lng":143.753848},{"code":"01648012101","name":"字若葉町東","lat":43.469451,"lng":143.754402},{"code":"01648012102","name":"字若葉町北","lat":43.469387,"lng":143.752497},{"code":"01648012103","name":"字若葉町中央","lat":43.468814,"lng":143.751806},{"code":"016480122","name":"字若葉町南","lat":43.467716,"lng":143.750942},{"code":"01648015101","name":"字林内１","lat":43.62024,"lng":143.664662},{"code":"01648015102","name":"字林内２","lat":43.616466,"lng":143.660269},{"code":"016480152","name":"利上","lat":43.593229,"lng":143.698341},{"code":"016480153","name":"字小利別","lat":43.586871,"lng":143.680035},{"code":"016480154","name":"字日宗","lat":43.581007,"lng":143.649209},{"code":"016480155","name":"字川上","lat":43.574657,"lng":143.75095},{"code":"016480156","name":"字分線","lat":43.523745,"lng":143.706671},{"code":"016480157","name":"字クンネベツ","lat":43.51349,"lng":143.709249},{"code":"016480160","name":"字南斗満","lat":43.471916,"lng":143.609404},{"code":"016480170","name":"字西斗満","lat":43.475495,"lng":143.596734},{"code":"016480180","name":"字下トラリ","lat":43.368273,"lng":143.681617},{"code":"016480190","name":"字上トラリ","lat":43.377293,"lng":143.719547},{"code":"016480200","name":"字薫別","lat":43.436746,"lng":143.775877},{"code":"016480210","name":"字恩根内","lat":43.443426,"lng":143.739932},{"code":"016480220","name":"字ウエンベツ","lat":43.461751,"lng":143.762914},{"code":"016480230","name":"字下陸別","lat":43.477594,"lng":143.76462},{"code":"016480240","name":"字共和","lat":43.489956,"lng":143.77759},{"code":"016480250","name":"字中陸別","lat":43.504731,"lng":143.774513},{"code":"016480260","name":"字止若","lat":43.513759,"lng":143.78536},{"code":"016480270","name":"字作集","lat":43.535065,"lng":143.79864},{"code":"016480280","name":"字上陸別","lat":43.508218,"lng":143.87016},{"code":"016480290","name":"字東斗満","lat":43.456929,"lng":143.672724},{"code":"01648030001","name":"字中斗満第１","lat":43.472219,"lng":143.6743},{"code":"01648030002","name":"字中斗満第２","lat":43.464721,"lng":143.65406},{"code":"016480310","name":"字弥生","lat":43.481545,"lng":143.694809},{"code":"016480320","name":"字川向","lat":43.470426,"lng":143.725557},{"code":"016480330","name":"字下斗満","lat":43.464019,"lng":143.70615},{"code":"016480340","name":"字殖産","lat":43.450537,"lng":143.692205},{"code":"016480350","name":"字関","lat":43.45032,"lng":143.724206},{"code":"016480360","name":"字北斗満","lat":43.520596,"lng":143.551395},{"code":"016480370","name":"字本苫務","lat":43.512916,"lng":143.641678},{"code":"016480380","name":"字トマム","lat":43.496009,"lng":143.63667},{"code":"01648039001","name":"字上斗満１","lat":43.472775,"lng":143.635904},{"code":"01648039002","name":"字上斗満２","lat":43.47883,"lng":143.632206}]}
