{"municipality":"01668","name":"白糠郡白糠町","prefecture":"北海道","source":{"dataset":"frogcat/japan-small-area","census":"平成27年国勢調査 小地域（e-Stat 統計LOD）","license":"MIT（リポジトリ）／政府統計の総合窓口(e-Stat)の利用規約（元データ・出典表記必要）","fetched":"2026-07-06"},"towns":[{"code":"01668001001","name":"白糠東一条北１丁目","lat":42.957118,"lng":144.075406},{"code":"01668001002","name":"白糠東一条北２丁目","lat":42.95854,"lng":144.075851},{"code":"01668001003","name":"白糠東一条北３丁目","lat":42.959866,"lng":144.075214},{"code":"01668001004","name":"白糠東一条北４丁目","lat":42.961442,"lng":144.074527},{"code":"01668001005","name":"白糠東一条北５丁目","lat":42.963006,"lng":144.073835},{"code":"01668001006","name":"白糠東一条北６丁目","lat":42.96447,"lng":144.07321},{"code":"01668001007","name":"白糠東一条北７丁目","lat":42.966073,"lng":144.072488},{"code":"01668001008","name":"白糠東一条北８丁目","lat":42.967719,"lng":144.071834},{"code":"01668002001","name":"白糠東二条北１丁目","lat":42.956898,"lng":144.078767},{"code":"01668002002","name":"白糠東二条北２丁目","lat":42.958767,"lng":144.079036},{"code":"01668002003","name":"白糠東二条北３丁目","lat":42.960584,"lng":144.078471},{"code":"01668002004","name":"白糠東二条北４丁目","lat":42.962148,"lng":144.077789},{"code":"01668002005","name":"白糠東二条北５丁目","lat":42.963769,"lng":144.07708},{"code":"01668002006","name":"白糠東二条北６丁目","lat":42.965316,"lng":144.076303},{"code":"01668002007","name":"白糠東二条北７丁目","lat":42.966879,"lng":144.075602},{"code":"01668002008","name":"白糠東二条北８丁目","lat":42.968441,"lng":144.075028},{"code":"01668003001","name":"白糠東三条北１丁目","lat":42.956987,"lng":144.081426},{"code":"01668003002","name":"白糠東三条北２丁目","lat":42.959317,"lng":144.081966},{"code":"01668003003","name":"白糠東三条北３丁目","lat":42.961273,"lng":144.081731},{"code":"01668003004","name":"白糠東三条北４丁目","lat":42.962741,"lng":144.0807},{"code":"01668003005","name":"白糠東三条北５丁目","lat":42.964376,"lng":144.079813},{"code":"01668003006","name":"白糠東三条北６丁目","lat":42.965977,"lng":144.079098},{"code":"01668003007","name":"白糠東三条北７丁目","lat":42.967336,"lng":144.07797},{"code":"01668003008","name":"白糠東三条北８丁目","lat":42.96898,"lng":144.077253},{"code":"01668004001","name":"白糠西一条北１丁目","lat":42.957547,"lng":144.072512},{"code":"01668004002","name":"白糠西一条北２丁目","lat":42.956877,"lng":144.069324},{"code":"01668004003","name":"白糠西一条北３丁目","lat":42.958726,"lng":144.070574},{"code":"01668004004","name":"白糠西一条北４丁目","lat":42.960589,"lng":144.070766},{"code":"01668004005","name":"白糠西一条北５丁目","lat":42.962235,"lng":144.070222},{"code":"01668004006","name":"白糠西一条北６丁目","lat":42.963868,"lng":144.069971},{"code":"01668004007","name":"白糠西一条北７丁目","lat":42.965436,"lng":144.06925},{"code":"01668004008","name":"白糠西一条北８丁目","lat":42.966992,"lng":144.068584},{"code":"01668005006","name":"白糠西二条北６丁目","lat":42.96325,"lng":144.066928},{"code":"01668005007","name":"白糠西二条北７丁目","lat":42.96467,"lng":144.065999},{"code":"01668005008","name":"白糠西二条北８丁目","lat":42.966256,"lng":144.065328},{"code":"01668006001","name":"白糠東一条南１丁目","lat":42.955774,"lng":144.075278},{"code":"01668006002","name":"白糠東一条南２丁目","lat":42.95462,"lng":144.075168},{"code":"01668006003","name":"白糠東一条南３丁目","lat":42.953384,"lng":144.075239},{"code":"01668006004","name":"白糠東一条南４丁目","lat":42.95206,"lng":144.07531},{"code":"01668007001","name":"白糠東二条南１丁目","lat":42.955487,"lng":144.078644},{"code":"01668007002","name":"白糠東二条南２丁目","lat":42.954471,"lng":144.078422},{"code":"01668007003","name":"白糠東二条南３丁目","lat":42.953204,"lng":144.078246},{"code":"01668008001","name":"白糠東三条南１丁目","lat":42.954899,"lng":144.081986},{"code":"01668008002","name":"白糠東三条南２丁目","lat":42.953546,"lng":144.081832},{"code":"01668009001","name":"白糠西一条南１丁目","lat":42.955878,"lng":144.070017},{"code":"01668009002","name":"白糠西一条南２丁目","lat":42.954942,"lng":144.07126},{"code":"01668009003","name":"白糠西一条南３丁目","lat":42.95357,"lng":144.072164},{"code":"01668009004","name":"白糠西一条南４丁目","lat":42.951638,"lng":144.072342},{"code":"016680100","name":"白糠西二条南","lat":42.95303,"lng":144.068552},{"code":"01668011001","name":"白糠西三条北１丁目","lat":42.958747,"lng":144.06711},{"code":"01668011002","name":"白糠西三条北２丁目","lat":42.960969,"lng":144.065867},{"code":"01668012001","name":"白糠西四条北１丁目","lat":42.957456,"lng":144.063804},{"code":"01668012002","name":"白糠西四条北２丁目","lat":42.959805,"lng":144.061567},{"code":"01668013001","name":"白糠西五条北１丁目","lat":42.956426,"lng":144.059101},{"code":"01668013002","name":"白糠西五条北２丁目","lat":42.957809,"lng":144.057481},{"code":"01668014001","name":"岬１丁目","lat":42.953303,"lng":144.085803},{"code":"01668014002","name":"岬２丁目","lat":42.953825,"lng":144.09208},{"code":"01668014003","name":"岬３丁目","lat":42.957221,"lng":144.091132},{"code":"01668015001","name":"刺牛１丁目","lat":42.956324,"lng":144.096452},{"code":"01668015002","name":"刺牛２丁目","lat":42.957554,"lng":144.101148},{"code":"01668015003","name":"刺牛３丁目","lat":42.961323,"lng":144.110031},{"code":"01668016001","name":"西庶路東一条北１丁目","lat":42.979832,"lng":144.129063},{"code":"01668016002","name":"西庶路東一条北２丁目","lat":42.981347,"lng":144.128302},{"code":"01668016003","name":"西庶路東一条北３丁目","lat":42.982365,"lng":144.126744},{"code":"01668016004","name":"西庶路東一条北４丁目","lat":42.98395,"lng":144.125399},{"code":"01668016005","name":"西庶路東一条北５丁目","lat":42.985196,"lng":144.124473},{"code":"01668017001","name":"西庶路東二条北１丁目","lat":42.981188,"lng":144.131881},{"code":"01668017002","name":"西庶路東二条北２丁目","lat":42.982742,"lng":144.130817},{"code":"01668017003","name":"西庶路東二条北３丁目","lat":42.983871,"lng":144.129602},{"code":"01668017004","name":"西庶路東二条北４丁目","lat":42.985164,"lng":144.128442},{"code":"01668017005","name":"西庶路東二条北５丁目","lat":42.986951,"lng":144.127373},{"code":"01668018001","name":"西庶路東三条北１丁目","lat":42.982845,"lng":144.135643},{"code":"01668018002","name":"西庶路東三条北２丁目","lat":42.984154,"lng":144.13476},{"code":"01668018003","name":"西庶路東三条北３丁目","lat":42.985619,"lng":144.133461},{"code":"01668018004","name":"西庶路東三条北４丁目","lat":42.986676,"lng":144.131772},{"code":"01668018005","name":"西庶路東三条北５丁目","lat":42.988432,"lng":144.129391},{"code":"01668019001","name":"西庶路西一条北１丁目","lat":42.978457,"lng":144.126263},{"code":"01668019002","name":"西庶路西一条北２丁目","lat":42.979768,"lng":144.125116},{"code":"01668019003","name":"西庶路西一条北３丁目","lat":42.980995,"lng":144.124011},{"code":"01668019004","name":"西庶路西一条北４丁目","lat":42.98263,"lng":144.123052},{"code":"01668019005","name":"西庶路西一条北５丁目","lat":42.984147,"lng":144.121734},{"code":"01668020001","name":"西庶路西二条北１丁目","lat":42.977055,"lng":144.123631},{"code":"01668020002","name":"西庶路西二条北２丁目","lat":42.979255,"lng":144.12251},{"code":"016680210","name":"西庶路西三条北","lat":42.975547,"lng":144.120551},{"code":"01668022001","name":"西庶路東一条南１丁目","lat":42.978172,"lng":144.130306},{"code":"01668022002","name":"西庶路東一条南２丁目","lat":42.977192,"lng":144.131579},{"code":"01668022003","name":"西庶路東一条南３丁目","lat":42.975742,"lng":144.132781},{"code":"01668022004","name":"西庶路東一条南４丁目","lat":42.973852,"lng":144.134395},{"code":"01668023001","name":"西庶路東二条南１丁目","lat":42.979764,"lng":144.132476},{"code":"01668023002","name":"西庶路東二条南２丁目","lat":42.978648,"lng":144.134262},{"code":"01668023003","name":"西庶路東二条南３丁目","lat":42.976751,"lng":144.135778},{"code":"01668023004","name":"西庶路東二条南４丁目","lat":42.975068,"lng":144.137357},{"code":"01668024001","name":"西庶路東三条南１丁目","lat":42.981564,"lng":144.137002},{"code":"01668024002","name":"西庶路東三条南２丁目","lat":42.979765,"lng":144.137746},{"code":"01668024003","name":"西庶路東三条南３丁目","lat":42.978035,"lng":144.138789},{"code":"01668024004","name":"西庶路東三条南４丁目","lat":42.976648,"lng":144.141954},{"code":"01668025001","name":"西庶路西一条南１丁目","lat":42.976908,"lng":144.127671},{"code":"01668025002","name":"西庶路西一条南２丁目","lat":42.975628,"lng":144.128409},{"code":"01668025003","name":"西庶路西一条南３丁目","lat":42.97449,"lng":144.129993},{"code":"01668025004","name":"西庶路西一条南４丁目","lat":42.972535,"lng":144.13138},{"code":"01668026001","name":"西庶路西二条南１丁目","lat":42.975615,"lng":144.124776},{"code":"01668026002","name":"西庶路西二条南２丁目","lat":42.974026,"lng":144.126006},{"code":"01668026003","name":"西庶路西二条南３丁目","lat":42.972525,"lng":144.127719},{"code":"01668026004","name":"西庶路西二条南４丁目","lat":42.971064,"lng":144.12853},{"code":"01668027001","name":"西庶路西三条南１丁目","lat":42.973984,"lng":144.122165},{"code":"01668027002","name":"西庶路西三条南２丁目","lat":42.97223,"lng":144.123703},{"code":"01668027003","name":"西庶路西三条南３丁目","lat":42.970365,"lng":144.125372},{"code":"01668028001","name":"西庶路西四条南１丁目","lat":42.97266,"lng":144.119315},{"code":"01668028002","name":"西庶路西四条南２丁目","lat":42.970763,"lng":144.120964},{"code":"01668028003","name":"西庶路西四条南３丁目","lat":42.968941,"lng":144.122548},{"code":"01668029001","name":"西庶路西五条南１丁目","lat":42.969258,"lng":144.116912},{"code":"01668029002","name":"西庶路西五条南２丁目","lat":42.966895,"lng":144.119153},{"code":"016680300","name":"和天別","lat":42.983111,"lng":143.980071},{"code":"016680310","name":"茶路","lat":43.130323,"lng":143.910327},{"code":"016680320","name":"庶路","lat":43.165239,"lng":144.017321}]}
