{"municipality":"01692","name":"標津郡中標津町","prefecture":"北海道","source":{"dataset":"frogcat/japan-small-area","census":"平成27年国勢調査 小地域（e-Stat 統計LOD）","license":"MIT（リポジトリ）／政府統計の総合窓口(e-Stat)の利用規約（元データ・出典表記必要）","fetched":"2026-07-06"},"towns":[{"code":"01692001001","name":"西十四条北１４丁目","lat":43.549198,"lng":144.950731},{"code":"01692001002","name":"西十四条北１３丁目","lat":43.548226,"lng":144.951683},{"code":"01692001003","name":"西十四条北１２丁目","lat":43.547407,"lng":144.952139},{"code":"01692001004","name":"西十四条北１１丁目","lat":43.546611,"lng":144.952988},{"code":"01692001005","name":"西十四条北１０丁目","lat":43.546199,"lng":144.954142},{"code":"01692001006","name":"西十四条北９丁目","lat":43.545704,"lng":144.954748},{"code":"01692001007","name":"西十四条北８丁目","lat":43.544924,"lng":144.95552},{"code":"01692001008","name":"西十四条北７丁目","lat":43.544398,"lng":144.956181},{"code":"01692001009","name":"西十四条北６丁目","lat":43.543845,"lng":144.956845},{"code":"01692001010","name":"西十四条北５丁目","lat":43.543242,"lng":144.957748},{"code":"01692001011","name":"西十四条北４丁目","lat":43.542693,"lng":144.958426},{"code":"01692001012","name":"西十四条北１５丁目","lat":43.550313,"lng":144.950157},{"code":"01692002001","name":"西十三条北１４丁目","lat":43.549288,"lng":144.951859},{"code":"01692002002","name":"西十三条北１３丁目","lat":43.548769,"lng":144.9525},{"code":"01692002003","name":"西十三条北１２丁目","lat":43.547794,"lng":144.952565},{"code":"01692002004","name":"西十三条北１１丁目","lat":43.547033,"lng":144.953545},{"code":"01692002005","name":"西十三条北１０丁目","lat":43.546774,"lng":144.955016},{"code":"01692002006","name":"西十三条北９丁目","lat":43.545996,"lng":144.955472},{"code":"01692002007","name":"西十三条北８丁目","lat":43.545367,"lng":144.956142},{"code":"01692002008","name":"西十三条北７丁目","lat":43.544842,"lng":144.956826},{"code":"01692002009","name":"西十三条北６丁目","lat":43.544279,"lng":144.957545},{"code":"01692002010","name":"西十三条北５丁目","lat":43.543688,"lng":144.95838},{"code":"01692002011","name":"西十三条北４丁目","lat":43.542942,"lng":144.959344},{"code":"01692003001","name":"西十二条北１４丁目","lat":43.549937,"lng":144.952348},{"code":"01692003002","name":"西十二条北１３丁目","lat":43.54924,"lng":144.953162},{"code":"01692003003","name":"西十二条北１２丁目","lat":43.548492,"lng":144.953625},{"code":"01692003004","name":"西十二条北１１丁目","lat":43.54765,"lng":144.95454},{"code":"01692003005","name":"西十二条北１０丁目","lat":43.547258,"lng":144.955752},{"code":"01692003006","name":"西十二条北９丁目","lat":43.546578,"lng":144.956332},{"code":"01692003007","name":"西十二条北８丁目","lat":43.545928,"lng":144.957001},{"code":"01692003008","name":"西十二条北７丁目","lat":43.545401,"lng":144.957681},{"code":"01692003009","name":"西十二条北６丁目","lat":43.544816,"lng":144.958391},{"code":"01692003010","name":"西十二条北５丁目","lat":43.544201,"lng":144.959202},{"code":"01692003011","name":"西十二条北４丁目","lat":43.543609,"lng":144.959995},{"code":"01692003012","name":"西十二条北３丁目","lat":43.543204,"lng":144.960721},{"code":"01692004013","name":"西十二条南７丁目","lat":43.537061,"lng":144.967316},{"code":"01692004014","name":"西十二条南８丁目","lat":43.536355,"lng":144.968199},{"code":"01692004015","name":"西十二条南９丁目","lat":43.535545,"lng":144.969211},{"code":"01692004016","name":"西十二条南１０丁目","lat":43.534704,"lng":144.97022},{"code":"01692004017","name":"西十二条南１１丁目","lat":43.534185,"lng":144.970989},{"code":"01692005001","name":"西十一条北１４丁目","lat":43.550459,"lng":144.953065},{"code":"01692005002","name":"西十一条北１３丁目","lat":43.549907,"lng":144.954146},{"code":"01692005003","name":"西十一条北１２丁目","lat":43.549191,"lng":144.954705},{"code":"01692005004","name":"西十一条北１１丁目","lat":43.548557,"lng":144.955545},{"code":"01692005005","name":"西十一条北１０丁目","lat":43.547918,"lng":144.956494},{"code":"01692005006","name":"西十一条北９丁目","lat":43.547263,"lng":144.957198},{"code":"01692005007","name":"西十一条北８丁目","lat":43.546785,"lng":144.957908},{"code":"01692005008","name":"西十一条北７丁目","lat":43.546074,"lng":144.958526},{"code":"01692005009","name":"西十一条北６丁目","lat":43.545231,"lng":144.959039},{"code":"01692005010","name":"西十一条北５丁目","lat":43.544604,"lng":144.959793},{"code":"01692005011","name":"西十一条北４丁目","lat":43.544179,"lng":144.960808},{"code":"01692005012","name":"西十一条北３丁目","lat":43.543604,"lng":144.961679},{"code":"01692006012","name":"西十一条南６丁目","lat":43.538735,"lng":144.967892},{"code":"01692006013","name":"西十一条南７丁目","lat":43.537648,"lng":144.968607},{"code":"01692006014","name":"西十一条南８丁目","lat":43.536915,"lng":144.96899},{"code":"01692006015","name":"西十一条南９丁目","lat":43.536352,"lng":144.970321},{"code":"01692006016","name":"西十一条南１０丁目","lat":43.535266,"lng":144.971086},{"code":"01692006017","name":"西十一条南１１丁目","lat":43.534614,"lng":144.97189},{"code":"01692007001","name":"西十条北１２丁目","lat":43.549861,"lng":144.955378},{"code":"01692007002","name":"西十条北１１丁目","lat":43.548832,"lng":144.956328},{"code":"01692007003","name":"西十条北１０丁目","lat":43.548422,"lng":144.957047},{"code":"01692007004","name":"西十条北９丁目","lat":43.547948,"lng":144.95794},{"code":"01692007005","name":"西十条北８丁目","lat":43.547373,"lng":144.958762},{"code":"01692007006","name":"西十条北７丁目","lat":43.546607,"lng":144.95925},{"code":"01692007007","name":"西十条北４丁目","lat":43.544661,"lng":144.961545},{"code":"01692007008","name":"西十条北３丁目","lat":43.544238,"lng":144.962421},{"code":"01692007009","name":"西十条北１丁目","lat":43.542765,"lng":144.963809},{"code":"01692008010","name":"西十条南５丁目","lat":43.539568,"lng":144.967579},{"code":"01692008011","name":"西十条南６丁目","lat":43.538939,"lng":144.96817},{"code":"01692008012","name":"西十条南７丁目","lat":43.53841,"lng":144.969132},{"code":"01692008013","name":"西十条南８丁目","lat":43.537797,"lng":144.969947},{"code":"01692008014","name":"西十条南９丁目","lat":43.537372,"lng":144.971317},{"code":"01692008015","name":"西十条南１０丁目","lat":43.535995,"lng":144.972815},{"code":"01692009001","name":"西九条北１１丁目","lat":43.549988,"lng":144.956707},{"code":"01692009002","name":"西九条北１０丁目","lat":43.549015,"lng":144.957935},{"code":"01692009003","name":"西九条北９丁目","lat":43.548378,"lng":144.95862},{"code":"01692009004","name":"西九条北８丁目","lat":43.547813,"lng":144.959425},{"code":"01692009005","name":"西九条北７丁目","lat":43.547163,"lng":144.960204},{"code":"01692009006","name":"西九条北４丁目","lat":43.545172,"lng":144.962301},{"code":"01692009007","name":"西九条北３丁目","lat":43.544701,"lng":144.963087},{"code":"01692009008","name":"西九条北１丁目","lat":43.544135,"lng":144.964391},{"code":"01692010009","name":"西九条南１丁目","lat":43.541597,"lng":144.965922},{"code":"01692010010","name":"西九条南３丁目","lat":43.54155,"lng":144.96771},{"code":"01692010011","name":"西九条南４丁目","lat":43.540906,"lng":144.967627},{"code":"01692010012","name":"西九条南５丁目","lat":43.539563,"lng":144.968304},{"code":"01692010013","name":"西九条南７丁目","lat":43.538947,"lng":144.96999},{"code":"01692010014","name":"西九条南８丁目","lat":43.538306,"lng":144.970797},{"code":"01692010015","name":"西九条南９丁目","lat":43.537938,"lng":144.972106},{"code":"01692010016","name":"西九条南１０丁目","lat":43.537272,"lng":144.97317},{"code":"01692010017","name":"西九条南１１丁目","lat":43.536476,"lng":144.974281},{"code":"01692011001","name":"西八条北１１丁目","lat":43.550499,"lng":144.957912},{"code":"01692011002","name":"西八条北１０丁目","lat":43.549597,"lng":144.958721},{"code":"01692011003","name":"西八条北９丁目","lat":43.548954,"lng":144.959462},{"code":"01692011004","name":"西八条北８丁目","lat":43.548326,"lng":144.960234},{"code":"01692011005","name":"西八条北７丁目","lat":43.547694,"lng":144.960973},{"code":"01692011006","name":"西八条北６丁目","lat":43.546379,"lng":144.960765},{"code":"01692011007","name":"西八条北５丁目","lat":43.545752,"lng":144.961542},{"code":"01692011008","name":"西八条北４丁目","lat":43.545699,"lng":144.963178},{"code":"01692011009","name":"西八条北３丁目","lat":43.545171,"lng":144.963929},{"code":"01692012010","name":"西八条南１丁目","lat":43.54358,"lng":144.967711},{"code":"01692012011","name":"西八条南２丁目","lat":43.54239,"lng":144.96762},{"code":"01692012012","name":"西八条南３丁目","lat":43.541915,"lng":144.968169},{"code":"01692012013","name":"西八条南４丁目","lat":43.541411,"lng":144.968802},{"code":"01692012014","name":"西八条南７丁目","lat":43.539617,"lng":144.971064},{"code":"01692012015","name":"西八条南８丁目","lat":43.538945,"lng":144.971794},{"code":"01692012016","name":"西八条南９丁目","lat":43.538315,"lng":144.972715},{"code":"01692012017","name":"西八条南１０丁目","lat":43.537624,"lng":144.973696},{"code":"01692012018","name":"西八条南１１丁目","lat":43.536842,"lng":144.974717},{"code":"01692013001","name":"西七条北１１丁目","lat":43.550918,"lng":144.958624},{"code":"01692013002","name":"西七条北１０丁目","lat":43.550161,"lng":144.959533},{"code":"01692013003","name":"西七条北９丁目","lat":43.549508,"lng":144.960313},{"code":"01692013004","name":"西七条北８丁目","lat":43.548935,"lng":144.961143},{"code":"01692013005","name":"西七条北７丁目","lat":43.548302,"lng":144.961867},{"code":"01692013006","name":"西七条北６丁目","lat":43.547662,"lng":144.962714},{"code":"01692013007","name":"西七条北５丁目","lat":43.547016,"lng":144.963421},{"code":"01692013008","name":"西七条北４丁目","lat":43.546367,"lng":144.963991},{"code":"01692013009","name":"西七条北３丁目","lat":43.545794,"lng":144.964805},{"code":"01692013010","name":"西七条北２丁目","lat":43.545366,"lng":144.965862},{"code":"01692013011","name":"西七条北１丁目","lat":43.544907,"lng":144.966342},{"code":"01692014012","name":"西七条南１丁目","lat":43.544202,"lng":144.967069},{"code":"01692014013","name":"西七条南２丁目","lat":43.543067,"lng":144.968371},{"code":"01692014014","name":"西七条南３丁目","lat":43.542454,"lng":144.969016},{"code":"01692014015","name":"西七条南４丁目","lat":43.541958,"lng":144.969633},{"code":"01692014016","name":"西七条南５丁目","lat":43.540563,"lng":144.969829},{"code":"01692014017","name":"西七条南７丁目","lat":43.540227,"lng":144.971977},{"code":"01692014018","name":"西七条南８丁目","lat":43.539473,"lng":144.972568},{"code":"01692014019","name":"西七条南９丁目","lat":43.538818,"lng":144.973489},{"code":"01692014020","name":"西七条南１０丁目","lat":43.538103,"lng":144.974398},{"code":"01692014021","name":"西七条南１１丁目","lat":43.53719,"lng":144.975229},{"code":"01692015001","name":"西六条北１１丁目","lat":43.551475,"lng":144.959463},{"code":"01692015002","name":"西六条北１０丁目","lat":43.550717,"lng":144.960392},{"code":"01692015003","name":"西六条北９丁目","lat":43.550076,"lng":144.961095},{"code":"01692015004","name":"西六条北８丁目","lat":43.549498,"lng":144.961947},{"code":"01692015005","name":"西六条北７丁目","lat":43.5489,"lng":144.962786},{"code":"01692015006","name":"西六条北６丁目","lat":43.548197,"lng":144.963477},{"code":"01692015007","name":"西六条北５丁目","lat":43.547558,"lng":144.96424},{"code":"01692015008","name":"西六条北４丁目","lat":43.546948,"lng":144.964992},{"code":"01692015009","name":"西六条北３丁目","lat":43.546343,"lng":144.965703},{"code":"01692015010","name":"西六条北２丁目","lat":43.54579,"lng":144.966544},{"code":"01692015011","name":"西六条北１丁目","lat":43.545335,"lng":144.967137},{"code":"01692016012","name":"西六条南２丁目","lat":43.54361,"lng":144.969191},{"code":"01692016013","name":"西六条南３丁目","lat":43.543058,"lng":144.969881},{"code":"01692016014","name":"西六条南４丁目","lat":43.542546,"lng":144.970582},{"code":"01692016015","name":"西六条南５丁目","lat":43.541803,"lng":144.97178},{"code":"01692016016","name":"西六条南７丁目","lat":43.540731,"lng":144.972765},{"code":"01692016017","name":"西六条南８丁目","lat":43.540012,"lng":144.97334},{"code":"01692016018","name":"西六条南９丁目","lat":43.53936,"lng":144.974354},{"code":"01692016019","name":"西六条南１０丁目","lat":43.538598,"lng":144.975116},{"code":"01692016020","name":"西六条南１１丁目","lat":43.53749,"lng":144.976029},{"code":"01692017001","name":"西五条北１１丁目","lat":43.551819,"lng":144.960018},{"code":"01692017002","name":"西五条北１０丁目","lat":43.551793,"lng":144.961216},{"code":"01692017003","name":"西五条北９丁目","lat":43.550574,"lng":144.96205},{"code":"01692017004","name":"西五条北８丁目","lat":43.55003,"lng":144.962764},{"code":"01692017005","name":"西五条北７丁目","lat":43.549399,"lng":144.963522},{"code":"01692017006","name":"西五条北６丁目","lat":43.548763,"lng":144.964338},{"code":"01692017007","name":"西五条北５丁目","lat":43.548115,"lng":144.965089},{"code":"01692017008","name":"西五条北４丁目","lat":43.54751,"lng":144.965858},{"code":"01692017009","name":"西五条北３丁目","lat":43.546937,"lng":144.966662},{"code":"01692017010","name":"西五条北２丁目","lat":43.546319,"lng":144.967396},{"code":"01692017011","name":"西五条北１丁目","lat":43.545819,"lng":144.968041},{"code":"01692018012","name":"西五条南１丁目","lat":43.545208,"lng":144.968978},{"code":"01692018013","name":"西五条南２丁目","lat":43.544308,"lng":144.970297},{"code":"01692018014","name":"西五条南３丁目","lat":43.543747,"lng":144.971002},{"code":"01692018015","name":"西五条南４丁目","lat":43.54326,"lng":144.971566},{"code":"01692018016","name":"西五条南５丁目","lat":43.542907,"lng":144.97236},{"code":"01692018017","name":"西五条南７丁目","lat":43.541132,"lng":144.973384},{"code":"01692018018","name":"西五条南８丁目","lat":43.540516,"lng":144.974197},{"code":"01692018019","name":"西五条南９丁目","lat":43.539854,"lng":144.975029},{"code":"01692018020","name":"西五条南１０丁目","lat":43.539072,"lng":144.975819},{"code":"01692018021","name":"西五条南１１丁目","lat":43.538117,"lng":144.976863},{"code":"01692019001","name":"西四条北１０丁目","lat":43.552104,"lng":144.962725},{"code":"01692019002","name":"西四条北９丁目","lat":43.55125,"lng":144.962693},{"code":"01692019003","name":"西四条北８丁目","lat":43.550627,"lng":144.963691},{"code":"01692019004","name":"西四条北７丁目","lat":43.549984,"lng":144.964439},{"code":"01692019005","name":"西四条北６丁目","lat":43.549344,"lng":144.96524},{"code":"01692019006","name":"西四条北５丁目","lat":43.548686,"lng":144.965987},{"code":"01692019007","name":"西四条北４丁目","lat":43.548052,"lng":144.966705},{"code":"01692019008","name":"西四条北３丁目","lat":43.547483,"lng":144.967557},{"code":"01692019009","name":"西四条北２丁目","lat":43.546881,"lng":144.968312},{"code":"01692019010","name":"西四条北１丁目","lat":43.546315,"lng":144.968988},{"code":"01692020011","name":"西四条南１丁目","lat":43.545594,"lng":144.970626},{"code":"01692020012","name":"西四条南２丁目","lat":43.544882,"lng":144.971216},{"code":"01692020013","name":"西四条南３丁目","lat":43.544477,"lng":144.972234},{"code":"01692020014","name":"西四条南５丁目","lat":43.543393,"lng":144.973113},{"code":"01692021001","name":"西三条北９丁目","lat":43.551826,"lng":144.963966},{"code":"01692021002","name":"西三条北８丁目","lat":43.55127,"lng":144.965423},{"code":"01692021003","name":"西三条北７丁目","lat":43.550605,"lng":144.965286},{"code":"01692021004","name":"西三条北６丁目","lat":43.549836,"lng":144.966038},{"code":"01692021005","name":"西三条北５丁目","lat":43.549295,"lng":144.966895},{"code":"01692021006","name":"西三条北４丁目","lat":43.548635,"lng":144.967629},{"code":"01692021007","name":"西三条北３丁目","lat":43.548001,"lng":144.968337},{"code":"01692021008","name":"西三条北２丁目","lat":43.54744,"lng":144.969177},{"code":"01692021009","name":"西三条北１丁目","lat":43.546799,"lng":144.969899},{"code":"01692022010","name":"西三条南１丁目","lat":43.546162,"lng":144.971166},{"code":"01692022011","name":"西三条南２丁目","lat":43.545258,"lng":144.971855},{"code":"01692022012","name":"西三条南３丁目","lat":43.544921,"lng":144.972369},{"code":"01692022013","name":"西三条南４丁目","lat":43.544108,"lng":144.972771},{"code":"01692022014","name":"西三条南５丁目","lat":43.543948,"lng":144.973941},{"code":"01692023001","name":"西二条北５丁目","lat":43.549597,"lng":144.968005},{"code":"01692023002","name":"西二条北４丁目","lat":43.550093,"lng":144.968332},{"code":"01692023003","name":"西二条北３丁目","lat":43.548607,"lng":144.969274},{"code":"01692023004","name":"西二条北２丁目","lat":43.548003,"lng":144.970049},{"code":"01692023005","name":"西二条北１丁目","lat":43.547318,"lng":144.970815},{"code":"01692024006","name":"西二条南１丁目","lat":43.546509,"lng":144.971865},{"code":"01692024007","name":"西二条南２丁目","lat":43.545782,"lng":144.972713},{"code":"01692024008","name":"西二条南３丁目","lat":43.545283,"lng":144.973348},{"code":"01692024009","name":"西二条南４丁目","lat":43.544641,"lng":144.974395},{"code":"01692024010","name":"西二条南６丁目","lat":43.5432,"lng":144.974679},{"code":"01692025002","name":"西一条北２丁目","lat":43.548532,"lng":144.970887},{"code":"01692025003","name":"西一条北１丁目","lat":43.54787,"lng":144.971686},{"code":"01692025006","name":"西一条北３丁目","lat":43.549142,"lng":144.970079},{"code":"01692026004","name":"西一条南１丁目","lat":43.54705,"lng":144.972784},{"code":"01692026005","name":"西一条南２丁目","lat":43.546322,"lng":144.97359},{"code":"01692026006","name":"西一条南３丁目","lat":43.545838,"lng":144.974191},{"code":"01692026007","name":"西一条南４丁目","lat":43.544995,"lng":144.975092},{"code":"01692027001","name":"大通北４丁目","lat":43.550327,"lng":144.970555},{"code":"01692027002","name":"大通北３丁目","lat":43.549698,"lng":144.970967},{"code":"01692027003","name":"大通北２丁目","lat":43.54907,"lng":144.97173},{"code":"01692027004","name":"大通北１丁目","lat":43.548386,"lng":144.972544},{"code":"01692028005","name":"大通南１丁目","lat":43.547696,"lng":144.973524},{"code":"01692028006","name":"大通南２丁目","lat":43.546999,"lng":144.974315},{"code":"01692028007","name":"大通南３丁目","lat":43.54641,"lng":144.975071},{"code":"01692028008","name":"大通南４丁目","lat":43.545674,"lng":144.976131},{"code":"01692029001","name":"東一条北４丁目","lat":43.550936,"lng":144.970296},{"code":"01692029002","name":"東一条北３丁目","lat":43.550358,"lng":144.971611},{"code":"01692029003","name":"東一条北２丁目","lat":43.549623,"lng":144.972574},{"code":"01692029004","name":"東一条北１丁目","lat":43.548877,"lng":144.973446},{"code":"01692030005","name":"東一条南１丁目","lat":43.54812,"lng":144.97425},{"code":"01692030006","name":"東一条南２丁目","lat":43.547444,"lng":144.975052},{"code":"01692030007","name":"東一条南３丁目","lat":43.547081,"lng":144.97613},{"code":"01692030008","name":"東一条南４丁目","lat":43.546643,"lng":144.976796},{"code":"01692030009","name":"東一条南５丁目","lat":43.546376,"lng":144.977456},{"code":"01692030010","name":"東一条南６丁目","lat":43.545131,"lng":144.977527},{"code":"01692030011","name":"東一条南７丁目","lat":43.54463,"lng":144.979292},{"code":"01692030012","name":"東一条南８丁目","lat":43.543722,"lng":144.9804},{"code":"01692030013","name":"東一条南９丁目","lat":43.542929,"lng":144.981295},{"code":"01692030014","name":"東一条南１０丁目","lat":43.542153,"lng":144.982338},{"code":"01692031001","name":"東二条北３丁目","lat":43.550893,"lng":144.971968},{"code":"01692031002","name":"東二条北２丁目","lat":43.55013,"lng":144.973644},{"code":"01692031003","name":"東二条北１丁目","lat":43.549489,"lng":144.974322},{"code":"01692032004","name":"東二条南１丁目","lat":43.548654,"lng":144.975372},{"code":"01692032005","name":"東二条南２丁目","lat":43.5481,"lng":144.975461},{"code":"01692032006","name":"東二条南３丁目","lat":43.54867,"lng":144.978025},{"code":"01692032007","name":"東二条南４丁目","lat":43.547271,"lng":144.977712},{"code":"01692032008","name":"東二条南５丁目","lat":43.546907,"lng":144.978517},{"code":"01692032009","name":"東二条南６丁目","lat":43.546037,"lng":144.978665},{"code":"01692032010","name":"東二条南７丁目","lat":43.544956,"lng":144.979961},{"code":"01692032011","name":"東二条南８丁目","lat":43.544141,"lng":144.981},{"code":"01692032012","name":"東二条南９丁目","lat":43.543267,"lng":144.981912},{"code":"01692032013","name":"東二条南１０丁目","lat":43.542564,"lng":144.98261},{"code":"01692032014","name":"東二条南１１丁目","lat":43.542023,"lng":144.983507},{"code":"01692033001","name":"東三条北３丁目","lat":43.551024,"lng":144.97314},{"code":"01692033002","name":"東三条北１丁目","lat":43.550061,"lng":144.975438},{"code":"01692034003","name":"東三条南１丁目","lat":43.549153,"lng":144.976439},{"code":"01692034004","name":"東三条南４丁目","lat":43.547958,"lng":144.978731},{"code":"01692034005","name":"東三条南５丁目","lat":43.547493,"lng":144.979397},{"code":"01692034006","name":"東三条南６丁目","lat":43.546674,"lng":144.979961},{"code":"01692034007","name":"東三条南７丁目","lat":43.545707,"lng":144.98071},{"code":"01692034008","name":"東三条南８丁目","lat":43.544848,"lng":144.98202},{"code":"01692034009","name":"東三条南９丁目","lat":43.543787,"lng":144.982811},{"code":"01692034010","name":"東三条南１０丁目","lat":43.543136,"lng":144.983512},{"code":"01692034011","name":"東三条南１１丁目","lat":43.54266,"lng":144.984243},{"code":"01692035001","name":"東四条北３丁目","lat":43.551604,"lng":144.974871},{"code":"01692035002","name":"東四条北２丁目","lat":43.551304,"lng":144.976349},{"code":"01692035003","name":"東四条北１丁目","lat":43.550775,"lng":144.976633},{"code":"01692036004","name":"東四条南１丁目","lat":43.549781,"lng":144.977507},{"code":"01692036005","name":"東四条南４丁目","lat":43.54845,"lng":144.979527},{"code":"01692036006","name":"東四条南５丁目","lat":43.547959,"lng":144.980087},{"code":"01692036007","name":"東四条南６丁目","lat":43.547388,"lng":144.980736},{"code":"01692036008","name":"東四条南７丁目","lat":43.546445,"lng":144.981935},{"code":"01692036009","name":"東四条南８丁目","lat":43.545556,"lng":144.983064},{"code":"01692036010","name":"東四条南９丁目","lat":43.544556,"lng":144.983691},{"code":"01692036011","name":"東四条南１０丁目","lat":43.543829,"lng":144.984581},{"code":"01692036012","name":"東四条南１１丁目","lat":43.543255,"lng":144.98527},{"code":"01692037001","name":"東五条北３丁目","lat":43.552625,"lng":144.976443},{"code":"01692037002","name":"東五条北２丁目","lat":43.552018,"lng":144.977107},{"code":"01692037003","name":"東五条北１丁目","lat":43.55143,"lng":144.977706},{"code":"01692038004","name":"東五条南１丁目","lat":43.550775,"lng":144.978328},{"code":"01692038005","name":"東五条南２丁目","lat":43.550237,"lng":144.978995},{"code":"01692038006","name":"東五条南３丁目","lat":43.549446,"lng":144.979961},{"code":"01692038007","name":"東五条南４丁目","lat":43.549009,"lng":144.980391},{"code":"01692038008","name":"東五条南５丁目","lat":43.54851,"lng":144.980953},{"code":"01692038009","name":"東五条南６丁目","lat":43.547721,"lng":144.981653},{"code":"01692038010","name":"東五条南７丁目","lat":43.546854,"lng":144.982529},{"code":"01692038011","name":"東五条南８丁目","lat":43.545952,"lng":144.983726},{"code":"01692038012","name":"東五条南９丁目","lat":43.545171,"lng":144.98465},{"code":"01692038013","name":"東五条南１０丁目","lat":43.544337,"lng":144.985347},{"code":"01692038014","name":"東五条南１１丁目","lat":43.543786,"lng":144.986086},{"code":"01692039001","name":"東六条北２丁目","lat":43.552398,"lng":144.977822},{"code":"01692039002","name":"東六条北１丁目","lat":43.551941,"lng":144.978393},{"code":"01692040003","name":"東六条南１丁目","lat":43.551109,"lng":144.979422},{"code":"01692040005","name":"東六条南３丁目","lat":43.54995,"lng":144.980686},{"code":"01692040006","name":"東六条南４丁目","lat":43.549557,"lng":144.981211},{"code":"01692040007","name":"東六条南５丁目","lat":43.549049,"lng":144.981785},{"code":"01692040008","name":"東六条南６丁目","lat":43.548399,"lng":144.982462},{"code":"01692040009","name":"東六条南７丁目","lat":43.547235,"lng":144.983106},{"code":"01692040010","name":"東六条南８丁目","lat":43.546307,"lng":144.984259},{"code":"01692040011","name":"東六条南９丁目","lat":43.545383,"lng":144.985455},{"code":"01692040012","name":"東六条南１０丁目","lat":43.544818,"lng":144.98612},{"code":"01692040013","name":"東六条南１１丁目","lat":43.544249,"lng":144.986796},{"code":"01692041001","name":"東七条北１１丁目","lat":43.559333,"lng":144.970021},{"code":"01692041002","name":"東七条北１０丁目","lat":43.558813,"lng":144.971041},{"code":"01692041003","name":"東七条北９丁目","lat":43.557804,"lng":144.972141},{"code":"01692041004","name":"東七条北８丁目","lat":43.55698,"lng":144.973426},{"code":"01692041005","name":"東七条北７丁目","lat":43.556404,"lng":144.974295},{"code":"01692041006","name":"東七条北６丁目","lat":43.556134,"lng":144.975002},{"code":"01692041007","name":"東七条北５丁目","lat":43.55549,"lng":144.975009},{"code":"01692041008","name":"東七条北４丁目","lat":43.554606,"lng":144.976563},{"code":"01692041009","name":"東七条北３丁目","lat":43.553947,"lng":144.978098},{"code":"01692041010","name":"東七条北２丁目","lat":43.553347,"lng":144.97885},{"code":"01692041011","name":"東七条北１丁目","lat":43.55255,"lng":144.97899},{"code":"01692042012","name":"東七条南１丁目","lat":43.551869,"lng":144.979844},{"code":"01692042013","name":"東七条南２丁目","lat":43.551239,"lng":144.980578},{"code":"01692042014","name":"東七条南３丁目","lat":43.550512,"lng":144.981484},{"code":"01692042015","name":"東七条南４丁目","lat":43.550121,"lng":144.982012},{"code":"01692042016","name":"東七条南５丁目","lat":43.549719,"lng":144.982417},{"code":"01692042017","name":"東七条南６丁目","lat":43.549096,"lng":144.983252},{"code":"01692042018","name":"東七条南７丁目","lat":43.548,"lng":144.98446},{"code":"01692042019","name":"東七条南８丁目","lat":43.547036,"lng":144.985515},{"code":"01692042020","name":"東七条南９丁目","lat":43.546049,"lng":144.986046},{"code":"01692042021","name":"東七条南１０丁目","lat":43.54538,"lng":144.986948},{"code":"01692042022","name":"東七条南１１丁目","lat":43.544823,"lng":144.98765},{"code":"01692043001","name":"東八条北１０丁目","lat":43.559336,"lng":144.971879},{"code":"01692043002","name":"東八条北９丁目","lat":43.558317,"lng":144.972938},{"code":"01692043003","name":"東八条北８丁目","lat":43.557618,"lng":144.974044},{"code":"01692043004","name":"東八条北７丁目","lat":43.556969,"lng":144.974734},{"code":"01692043005","name":"東八条北６丁目","lat":43.55649,"lng":144.975652},{"code":"01692043006","name":"東八条北５丁目","lat":43.555852,"lng":144.975782},{"code":"01692043007","name":"東八条北４丁目","lat":43.555218,"lng":144.976445},{"code":"01692043008","name":"東八条北１１丁目","lat":43.559768,"lng":144.970697},{"code":"01692044008","name":"東八条南１丁目","lat":43.55241,"lng":144.980848},{"code":"01692044009","name":"東八条南２丁目","lat":43.551671,"lng":144.981314},{"code":"01692044010","name":"東八条南３丁目","lat":43.551359,"lng":144.982079},{"code":"01692044011","name":"東八条南４丁目","lat":43.550674,"lng":144.982791},{"code":"01692044012","name":"東八条南５丁目","lat":43.550272,"lng":144.983252},{"code":"01692044013","name":"東八条南６丁目","lat":43.549613,"lng":144.984044},{"code":"01692044014","name":"東八条南９丁目","lat":43.546676,"lng":144.987068},{"code":"01692044015","name":"東八条南１０丁目","lat":43.545992,"lng":144.987879},{"code":"01692044016","name":"東八条南１１丁目","lat":43.545434,"lng":144.98859},{"code":"01692045001","name":"東九条北１１丁目","lat":43.560333,"lng":144.971575},{"code":"01692045002","name":"東九条北１０丁目","lat":43.559778,"lng":144.972535},{"code":"01692045003","name":"東九条北９丁目","lat":43.558816,"lng":144.973712},{"code":"01692045004","name":"東九条北８丁目","lat":43.557976,"lng":144.974568},{"code":"01692045005","name":"東九条北７丁目","lat":43.557334,"lng":144.975276},{"code":"01692045006","name":"東九条北６丁目","lat":43.55686,"lng":144.976283},{"code":"01692045007","name":"東九条北４丁目","lat":43.555261,"lng":144.977834},{"code":"01692045008","name":"東九条北３丁目","lat":43.554809,"lng":144.979717},{"code":"01692045009","name":"東九条北２丁目","lat":43.553736,"lng":144.980033},{"code":"01692045010","name":"東九条北１丁目","lat":43.553412,"lng":144.980937},{"code":"01692046011","name":"東九条南１丁目","lat":43.552492,"lng":144.981972},{"code":"01692046012","name":"東九条南３丁目","lat":43.551612,"lng":144.983122},{"code":"01692046013","name":"東九条南４丁目","lat":43.551235,"lng":144.983646},{"code":"01692046014","name":"東九条南５丁目","lat":43.550721,"lng":144.984204},{"code":"01692046015","name":"東九条南６丁目","lat":43.550055,"lng":144.985015},{"code":"01692046016","name":"東九条南７丁目","lat":43.548694,"lng":144.98557},{"code":"01692046017","name":"東九条南８丁目","lat":43.547741,"lng":144.986778},{"code":"01692046018","name":"東九条南９丁目","lat":43.547247,"lng":144.987958},{"code":"01692046019","name":"東九条南１０丁目","lat":43.546576,"lng":144.988673},{"code":"01692046020","name":"東九条南１１丁目","lat":43.545997,"lng":144.989474},{"code":"01692047001","name":"東十条北１１丁目","lat":43.560851,"lng":144.972383},{"code":"01692047002","name":"東十条北１０丁目","lat":43.560223,"lng":144.97319},{"code":"01692047003","name":"東十条北９丁目","lat":43.559208,"lng":144.974291},{"code":"01692047004","name":"東十条北８丁目","lat":43.558398,"lng":144.975522},{"code":"01692047005","name":"東十条北７丁目","lat":43.557751,"lng":144.976101},{"code":"01692047006","name":"東十条北６丁目","lat":43.557225,"lng":144.977017},{"code":"01692047007","name":"東十条北５丁目","lat":43.556468,"lng":144.97726},{"code":"01692047008","name":"東十条北４丁目","lat":43.555742,"lng":144.978922},{"code":"01692047009","name":"東十条北３丁目","lat":43.555357,"lng":144.980673},{"code":"01692047010","name":"東十条北２丁目","lat":43.554436,"lng":144.981294},{"code":"01692047011","name":"東十条北１丁目","lat":43.554038,"lng":144.982579},{"code":"01692048012","name":"東十条南１丁目","lat":43.553104,"lng":144.982601},{"code":"01692048013","name":"東十条南２丁目","lat":43.552439,"lng":144.982847},{"code":"01692048014","name":"東十条南３丁目","lat":43.552099,"lng":144.983645},{"code":"01692048015","name":"東十条南４丁目","lat":43.551653,"lng":144.98433},{"code":"01692048016","name":"東十条南５丁目","lat":43.551124,"lng":144.984784},{"code":"01692048017","name":"東十条南６丁目","lat":43.550481,"lng":144.985301},{"code":"01692048018","name":"東十条南７丁目","lat":43.549251,"lng":144.98658},{"code":"01692048019","name":"東十条南８丁目","lat":43.548413,"lng":144.987806},{"code":"01692049001","name":"東十一条北１１丁目","lat":43.561404,"lng":144.973223},{"code":"01692049002","name":"東十一条北１０丁目","lat":43.560793,"lng":144.97406},{"code":"01692049003","name":"東十一条北９丁目","lat":43.559767,"lng":144.975116},{"code":"01692049004","name":"東十一条北８丁目","lat":43.558935,"lng":144.976334},{"code":"01692049005","name":"東十一条北７丁目","lat":43.55828,"lng":144.977099},{"code":"01692049006","name":"東十一条北６丁目","lat":43.557676,"lng":144.977837},{"code":"01692049007","name":"東十一条北５丁目","lat":43.556967,"lng":144.978686},{"code":"01692049008","name":"東十一条北４丁目","lat":43.556404,"lng":144.980105},{"code":"01692049009","name":"東十一条北２丁目","lat":43.555696,"lng":144.982254},{"code":"01692049010","name":"東十一条北１丁目","lat":43.55455,"lng":144.983801},{"code":"01692050011","name":"東十一条南１丁目","lat":43.553214,"lng":144.98341},{"code":"01692050012","name":"東十一条南２丁目","lat":43.552696,"lng":144.983334},{"code":"01692050013","name":"東十一条南３丁目","lat":43.552522,"lng":144.984289},{"code":"01692050014","name":"東十一条南４丁目","lat":43.552032,"lng":144.984848},{"code":"01692050015","name":"東十一条南５丁目","lat":43.551552,"lng":144.985486},{"code":"01692050016","name":"東十一条南６丁目","lat":43.55082,"lng":144.986225},{"code":"01692050017","name":"東十一条南７丁目","lat":43.550301,"lng":144.987605},{"code":"01692050018","name":"東十一条南８丁目","lat":43.549451,"lng":144.988849},{"code":"01692050019","name":"東十一条南９丁目","lat":43.548054,"lng":144.98919},{"code":"01692050020","name":"東十一条南１０丁目","lat":43.547435,"lng":144.989995},{"code":"01692050021","name":"東十一条南１１丁目","lat":43.546822,"lng":144.990651},{"code":"01692051001","name":"東十二条北１１丁目","lat":43.561952,"lng":144.974022},{"code":"01692051002","name":"東十二条北１０丁目","lat":43.561323,"lng":144.974846},{"code":"01692051003","name":"東十二条北９丁目","lat":43.560364,"lng":144.976189},{"code":"01692051004","name":"東十二条北８丁目","lat":43.559516,"lng":144.977194},{"code":"01692051005","name":"東十二条北７丁目","lat":43.558895,"lng":144.977952},{"code":"01692051006","name":"東十二条北６丁目","lat":43.558242,"lng":144.978668},{"code":"01692051007","name":"東十二条北５丁目","lat":43.5572,"lng":144.979715},{"code":"01692052008","name":"東十二条南１丁目","lat":43.553764,"lng":144.984066},{"code":"01692052009","name":"東十二条南２丁目","lat":43.55327,"lng":144.984249},{"code":"01692052010","name":"東十二条南３丁目","lat":43.553143,"lng":144.985265},{"code":"01692052011","name":"東十二条南４丁目","lat":43.552763,"lng":144.986038},{"code":"01692052012","name":"東十二条南５丁目","lat":43.552267,"lng":144.986645},{"code":"01692052013","name":"東十二条南６丁目","lat":43.5516,"lng":144.987428},{"code":"01692052014","name":"東十二条南８丁目","lat":43.549428,"lng":144.989755},{"code":"01692052015","name":"東十二条南９丁目","lat":43.548886,"lng":144.990468},{"code":"01692052016","name":"東十二条南１０丁目","lat":43.5483,"lng":144.991293},{"code":"01692052017","name":"東十二条南１１丁目","lat":43.547703,"lng":144.991989},{"code":"01692053001","name":"東十三条北１１丁目","lat":43.562399,"lng":144.974746},{"code":"01692053002","name":"東十三条北１０丁目","lat":43.561757,"lng":144.975499},{"code":"01692053003","name":"東十三条北９丁目","lat":43.560956,"lng":144.976515},{"code":"01692053004","name":"東十三条北８丁目","lat":43.559946,"lng":144.977876},{"code":"01692053005","name":"東十三条北７丁目","lat":43.560696,"lng":144.979956},{"code":"01692053006","name":"東十三条北６丁目","lat":43.558755,"lng":144.979742},{"code":"01692053007","name":"東十三条北５丁目","lat":43.558094,"lng":144.980417},{"code":"01692053008","name":"東十三条北４丁目","lat":43.557454,"lng":144.981353},{"code":"01692053009","name":"東十三条北１丁目","lat":43.555488,"lng":144.98506},{"code":"01692054010","name":"東十三条南１丁目","lat":43.554247,"lng":144.985307},{"code":"01692054011","name":"東十三条南２丁目","lat":43.553964,"lng":144.986431},{"code":"01692054012","name":"東十三条南３丁目","lat":43.553545,"lng":144.98672},{"code":"01692054013","name":"東十三条南４丁目","lat":43.552925,"lng":144.987322},{"code":"01692054014","name":"東十三条南５丁目","lat":43.55264,"lng":144.98772},{"code":"01692054015","name":"東十三条南６丁目","lat":43.5522,"lng":144.988227},{"code":"01692054016","name":"東十三条南７丁目","lat":43.551002,"lng":144.988991},{"code":"01692054017","name":"東十三条南８丁目","lat":43.550053,"lng":144.9902},{"code":"01692054018","name":"東十三条南９丁目","lat":43.549489,"lng":144.991284},{"code":"01692054019","name":"東十三条南１０丁目","lat":43.54887,"lng":144.99215},{"code":"01692054020","name":"東十三条南１１丁目","lat":43.548293,"lng":144.992851},{"code":"01692055001","name":"東十四条北６丁目","lat":43.559293,"lng":144.980616},{"code":"01692055002","name":"東十四条北５丁目","lat":43.558642,"lng":144.981642},{"code":"01692055003","name":"東十四条北４丁目","lat":43.557853,"lng":144.982659},{"code":"01692055004","name":"東十四条北１丁目","lat":43.555639,"lng":144.986178},{"code":"01692056005","name":"東十四条南１丁目","lat":43.554963,"lng":144.986454},{"code":"01692056006","name":"東十四条南２丁目","lat":43.554413,"lng":144.987164},{"code":"01692056007","name":"東十四条南３丁目","lat":43.553988,"lng":144.987806},{"code":"01692056008","name":"東十四条南４丁目","lat":43.553437,"lng":144.98807},{"code":"01692056009","name":"東十四条南５丁目","lat":43.553161,"lng":144.988423},{"code":"01692056010","name":"東十四条南６丁目","lat":43.55263,"lng":144.988937},{"code":"01692056011","name":"東十四条南７丁目","lat":43.55172,"lng":144.990105},{"code":"01692056012","name":"東十四条南８丁目","lat":43.550738,"lng":144.991019},{"code":"01692056013","name":"東十四条南９丁目","lat":43.550023,"lng":144.992178},{"code":"01692056014","name":"東十四条南１０丁目","lat":43.549393,"lng":144.992974},{"code":"01692056015","name":"東十四条南１１丁目","lat":43.548816,"lng":144.993709},{"code":"01692057001","name":"東十五条北６丁目","lat":43.560027,"lng":144.981537},{"code":"01692057002","name":"東十五条北５丁目","lat":43.559158,"lng":144.98243},{"code":"01692057003","name":"東十五条北４丁目","lat":43.558145,"lng":144.983605},{"code":"01692057004","name":"東十五条北３丁目","lat":43.558431,"lng":144.987072},{"code":"01692057006","name":"東十五条北１丁目","lat":43.556082,"lng":144.986912},{"code":"01692058007","name":"東十五条南１丁目","lat":43.555494,"lng":144.987401},{"code":"01692058008","name":"東十五条南２丁目","lat":43.554891,"lng":144.987979},{"code":"01692058009","name":"東十五条南３丁目","lat":43.554539,"lng":144.988785},{"code":"01692058010","name":"東十五条南４丁目","lat":43.554139,"lng":144.989053},{"code":"01692058011","name":"東十五条南５丁目","lat":43.553587,"lng":144.989436},{"code":"01692058012","name":"東十五条南６丁目","lat":43.553158,"lng":144.98999},{"code":"01692058013","name":"東十五条南７丁目","lat":43.552344,"lng":144.990746},{"code":"01692058014","name":"東十五条南８丁目","lat":43.551258,"lng":144.992115},{"code":"01692058015","name":"東十五条南９丁目","lat":43.550591,"lng":144.993032},{"code":"01692058016","name":"東十五条南１０丁目","lat":43.549963,"lng":144.993853},{"code":"01692058017","name":"東十五条南１１丁目","lat":43.549427,"lng":144.994583},{"code":"01692059001","name":"東十六条北６丁目","lat":43.560499,"lng":144.982529},{"code":"01692059002","name":"東十六条北５丁目","lat":43.559513,"lng":144.982996},{"code":"01692059003","name":"東十六条北４丁目","lat":43.55871,"lng":144.984205},{"code":"01692059004","name":"東十六条北３丁目","lat":43.558337,"lng":144.985348},{"code":"01692059005","name":"東十六条北１丁目","lat":43.556512,"lng":144.98617},{"code":"01692060006","name":"東十六条南１丁目","lat":43.55594,"lng":144.988303},{"code":"01692060007","name":"東十六条南２丁目","lat":43.555327,"lng":144.988764},{"code":"01692060008","name":"東十六条南３丁目","lat":43.554988,"lng":144.98958},{"code":"01692060009","name":"東十六条南４丁目","lat":43.554448,"lng":144.989937},{"code":"01692060010","name":"東十六条南５丁目","lat":43.554345,"lng":144.990446},{"code":"01692060011","name":"東十六条南６丁目","lat":43.553806,"lng":144.990855},{"code":"01692060012","name":"東十六条南７丁目","lat":43.553101,"lng":144.991576},{"code":"01692060013","name":"東十六条南８丁目","lat":43.551761,"lng":144.993128},{"code":"01692060014","name":"東十六条南９丁目","lat":43.551147,"lng":144.993928},{"code":"01692060015","name":"東十六条南１０丁目","lat":43.55051,"lng":144.9947},{"code":"01692060016","name":"東十六条南１１丁目","lat":43.549986,"lng":144.995423},{"code":"01692061001","name":"東十七条北９丁目","lat":43.563047,"lng":144.980069},{"code":"01692061002","name":"東十七条北８丁目","lat":43.562372,"lng":144.981562},{"code":"01692061003","name":"東十七条北７丁目","lat":43.561729,"lng":144.982287},{"code":"01692061004","name":"東十七条北６丁目","lat":43.561065,"lng":144.983146},{"code":"01692061005","name":"東十七条北５丁目","lat":43.560013,"lng":144.98387},{"code":"01692061006","name":"東十七条北４丁目","lat":43.559467,"lng":144.984699},{"code":"01692061007","name":"東十七条北３丁目","lat":43.559112,"lng":144.985535},{"code":"01692061008","name":"東十七条北２丁目","lat":43.558582,"lng":144.986313},{"code":"01692061009","name":"東十七条北１丁目","lat":43.557276,"lng":144.98848},{"code":"01692062010","name":"東十七条南１丁目","lat":43.556308,"lng":144.988976},{"code":"01692062011","name":"東十七条南２丁目","lat":43.555809,"lng":144.989586},{"code":"01692062012","name":"東十七条南３丁目","lat":43.555515,"lng":144.990229},{"code":"01692062013","name":"東十七条南４丁目","lat":43.555037,"lng":144.990699},{"code":"01692062014","name":"東十七条南５丁目","lat":43.554795,"lng":144.991098},{"code":"01692062015","name":"東十七条南６丁目","lat":43.554466,"lng":144.99173},{"code":"01692062016","name":"東十七条南７丁目","lat":43.553618,"lng":144.992362},{"code":"01692062017","name":"東十七条南８丁目","lat":43.552294,"lng":144.993971},{"code":"01692062018","name":"東十七条南９丁目","lat":43.551697,"lng":144.99474},{"code":"01692062019","name":"東十七条南１０丁目","lat":43.551057,"lng":144.995557},{"code":"01692062020","name":"東十七条南１１丁目","lat":43.550474,"lng":144.996233},{"code":"01692063001","name":"東十八条北１０丁目","lat":43.564222,"lng":144.981016},{"code":"01692063002","name":"東十八条北９丁目","lat":43.563608,"lng":144.981777},{"code":"01692063003","name":"東十八条北８丁目","lat":43.562999,"lng":144.982512},{"code":"01692063004","name":"東十八条北７丁目","lat":43.562364,"lng":144.983324},{"code":"01692063005","name":"東十八条北４丁目","lat":43.560142,"lng":144.985302},{"code":"01692063006","name":"東十八条北３丁目","lat":43.559701,"lng":144.985954},{"code":"01692063007","name":"東十八条北２丁目","lat":43.559353,"lng":144.98678},{"code":"01692063008","name":"東十八条北１丁目","lat":43.557403,"lng":144.989308},{"code":"01692063009","name":"東十八条北６丁目","lat":43.561641,"lng":144.983646},{"code":"01692064009","name":"東十八条南１丁目","lat":43.556822,"lng":144.989832},{"code":"01692064010","name":"東十八条南２丁目","lat":43.556364,"lng":144.990414},{"code":"01692064011","name":"東十八条南３丁目","lat":43.555944,"lng":144.990839},{"code":"01692064012","name":"東十八条南４丁目","lat":43.555519,"lng":144.991256},{"code":"01692064013","name":"東十八条南５丁目","lat":43.555323,"lng":144.991902},{"code":"01692064014","name":"東十八条南６丁目","lat":43.554949,"lng":144.99249},{"code":"01692064016","name":"東十八条南８丁目","lat":43.552791,"lng":144.994748},{"code":"01692064017","name":"東十八条南９丁目","lat":43.552202,"lng":144.995505},{"code":"01692064018","name":"東十八条南１０丁目","lat":43.551537,"lng":144.996267},{"code":"01692064019","name":"東十八条南１１丁目","lat":43.550981,"lng":144.997033},{"code":"01692065001","name":"東十九条北１０丁目","lat":43.566144,"lng":144.980518},{"code":"01692065002","name":"東十九条北９丁目","lat":43.565231,"lng":144.981717},{"code":"01692065003","name":"東十九条北８丁目","lat":43.564034,"lng":144.983237},{"code":"01692065004","name":"東十九条北７丁目","lat":43.56312,"lng":144.984431},{"code":"01692065006","name":"東十九条北５丁目","lat":43.561547,"lng":144.98455},{"code":"01692065007","name":"東十九条北４丁目","lat":43.560868,"lng":144.986301},{"code":"01692065008","name":"東十九条北３丁目","lat":43.560288,"lng":144.986807},{"code":"01692065010","name":"東十九条北１丁目","lat":43.557739,"lng":144.98977},{"code":"01692065011","name":"東十九条北２丁目","lat":43.559663,"lng":144.98782},{"code":"01692066011","name":"東十九条南１丁目","lat":43.557371,"lng":144.990769},{"code":"01692066012","name":"東十九条南２丁目","lat":43.556956,"lng":144.991322},{"code":"01692066013","name":"東十九条南３丁目","lat":43.556601,"lng":144.991742},{"code":"01692066014","name":"東十九条南４丁目","lat":43.555971,"lng":144.992097},{"code":"01692066015","name":"東十九条南５丁目","lat":43.556141,"lng":144.992744},{"code":"01692066016","name":"東十九条南６丁目","lat":43.555523,"lng":144.993283},{"code":"01692066017","name":"東十九条南７丁目","lat":43.553308,"lng":144.993279},{"code":"01692066018","name":"東十九条南８丁目","lat":43.554186,"lng":144.9948},{"code":"01692066019","name":"東十九条南９丁目","lat":43.552757,"lng":144.996306},{"code":"01692066020","name":"東十九条南１０丁目","lat":43.552071,"lng":144.997377},{"code":"01692066021","name":"東十九条南１１丁目","lat":43.551432,"lng":144.997708},{"code":"01692067001","name":"東二十条北８丁目","lat":43.5666,"lng":144.98245},{"code":"01692067002","name":"東二十条北７丁目","lat":43.564899,"lng":144.984517},{"code":"01692067003","name":"東二十条北５丁目","lat":43.561964,"lng":144.986674},{"code":"01692067004","name":"東二十条北４丁目","lat":43.561589,"lng":144.987199},{"code":"01692067005","name":"東二十条北３丁目","lat":43.560976,"lng":144.987796},{"code":"01692067006","name":"東二十条北２丁目","lat":43.560127,"lng":144.988406},{"code":"01692067007","name":"東二十条北１丁目","lat":43.558357,"lng":144.991089},{"code":"01692068008","name":"東二十条南１丁目","lat":43.557857,"lng":144.991647},{"code":"01692068009","name":"東二十条南２丁目","lat":43.557455,"lng":144.992082},{"code":"01692068010","name":"東二十条南３丁目","lat":43.557193,"lng":144.992703},{"code":"01692068011","name":"東二十条南５丁目","lat":43.556616,"lng":144.993308},{"code":"01692068012","name":"東二十条南６丁目","lat":43.555972,"lng":144.994056},{"code":"01692068013","name":"東二十条南８丁目","lat":43.555251,"lng":144.994967},{"code":"01692068014","name":"東二十条南９丁目","lat":43.553427,"lng":144.997034},{"code":"01692068015","name":"東二十条南１０丁目","lat":43.55248,"lng":144.998234},{"code":"01692069002","name":"東二十一条北５丁目","lat":43.562591,"lng":144.986077},{"code":"01692069003","name":"東二十一条北４丁目","lat":43.562506,"lng":144.988092},{"code":"01692069004","name":"東二十一条北３丁目","lat":43.561523,"lng":144.988535},{"code":"01692069005","name":"東二十一条北１丁目","lat":43.559135,"lng":144.992012},{"code":"01692070006","name":"東二十一条南１丁目","lat":43.55827,"lng":144.99231},{"code":"01692070007","name":"東二十一条南２丁目","lat":43.557887,"lng":144.992722},{"code":"01692070008","name":"東二十一条南３丁目","lat":43.557502,"lng":144.992898},{"code":"01692070009","name":"東二十一条南５丁目","lat":43.557114,"lng":144.994067},{"code":"01692070010","name":"東二十一条南６丁目","lat":43.55649,"lng":144.994908},{"code":"01692070011","name":"東二十一条南８丁目","lat":43.554763,"lng":144.996181},{"code":"01692070012","name":"東二十一条南９丁目","lat":43.554016,"lng":144.997965},{"code":"01692070013","name":"東二十一条南１０丁目","lat":43.553085,"lng":144.998881},{"code":"01692071001","name":"東二十二条北６丁目","lat":43.563942,"lng":144.987281},{"code":"01692071002","name":"東二十二条北５丁目","lat":43.563296,"lng":144.987656},{"code":"01692071003","name":"東二十二条北４丁目","lat":43.562739,"lng":144.98888},{"code":"01692071004","name":"東二十二条北３丁目","lat":43.561908,"lng":144.989649},{"code":"01692071005","name":"東二十二条北２丁目","lat":43.560076,"lng":144.990825},{"code":"01692071006","name":"東二十二条北１丁目","lat":43.559846,"lng":144.992397},{"code":"01692072007","name":"東二十二条南１丁目","lat":43.558615,"lng":144.993437},{"code":"01692072008","name":"東二十二条南２丁目","lat":43.558381,"lng":144.993158},{"code":"01692072009","name":"東二十二条南３丁目","lat":43.557303,"lng":144.993234},{"code":"01692072010","name":"東二十二条南４丁目","lat":43.557843,"lng":144.993925},{"code":"01692072011","name":"東二十二条南５丁目","lat":43.557695,"lng":144.994945},{"code":"01692072012","name":"東二十二条南６丁目","lat":43.557061,"lng":144.995793},{"code":"01692072013","name":"東二十二条南８丁目","lat":43.555714,"lng":144.997053},{"code":"01692072014","name":"東二十二条南９丁目","lat":43.554496,"lng":144.998742},{"code":"01692072015","name":"東二十二条南１０丁目","lat":43.553715,"lng":144.999404},{"code":"01692073001","name":"東二十三条北２丁目","lat":43.56146,"lng":144.992107},{"code":"01692073002","name":"東二十三条北１丁目","lat":43.560206,"lng":144.993333},{"code":"01692073003","name":"東二十三条北６丁目","lat":43.564454,"lng":144.988299},{"code":"01692073004","name":"東二十三条北５丁目","lat":43.563905,"lng":144.989002},{"code":"01692073005","name":"東二十三条北４丁目","lat":43.563306,"lng":144.989557},{"code":"01692073006","name":"東二十三条北３丁目","lat":43.562462,"lng":144.990522},{"code":"01692074003","name":"東二十三条南１丁目","lat":43.559026,"lng":144.993971},{"code":"01692074005","name":"東二十三条南３丁目","lat":43.559009,"lng":144.99465},{"code":"01692074006","name":"東二十三条南４丁目","lat":43.558507,"lng":144.995037},{"code":"01692074007","name":"東二十三条南５丁目","lat":43.558346,"lng":144.995881},{"code":"01692074008","name":"東二十三条南６丁目","lat":43.557609,"lng":144.996612},{"code":"01692075002","name":"東二十四条北１丁目","lat":43.561012,"lng":144.993967},{"code":"01692075003","name":"東二十四条北６丁目","lat":43.565226,"lng":144.989057},{"code":"01692075004","name":"東二十四条北５丁目","lat":43.564581,"lng":144.989728},{"code":"01692075005","name":"東二十四条北４丁目","lat":43.563904,"lng":144.990391},{"code":"01692075006","name":"東二十四条北３丁目","lat":43.563186,"lng":144.991277},{"code":"01692075010","name":"東二十四条北２丁目","lat":43.562117,"lng":144.992794},{"code":"01692076003","name":"東二十四条南３丁目","lat":43.559721,"lng":144.995337},{"code":"01692076004","name":"東二十四条南４丁目","lat":43.559211,"lng":144.996032},{"code":"01692076005","name":"東二十四条南５丁目","lat":43.55876,"lng":144.996766},{"code":"01692076006","name":"東二十四条南６丁目","lat":43.55817,"lng":144.997487},{"code":"01692077001","name":"東二十五条北２丁目","lat":43.56297,"lng":144.993442},{"code":"01692077002","name":"東二十五条北１丁目","lat":43.561441,"lng":144.994973},{"code":"01692077003","name":"東二十五条北６丁目","lat":43.565349,"lng":144.989922},{"code":"01692077004","name":"東二十五条北５丁目","lat":43.564824,"lng":144.990365},{"code":"01692077005","name":"東二十五条北４丁目","lat":43.563873,"lng":144.9915},{"code":"01692078003","name":"東二十五条南１丁目","lat":43.560405,"lng":144.995819},{"code":"01692078004","name":"東二十五条南２丁目","lat":43.560783,"lng":144.996549},{"code":"01692078005","name":"東二十五条南３丁目","lat":43.560104,"lng":144.996302},{"code":"01692078006","name":"東二十五条南４丁目","lat":43.559951,"lng":144.997109},{"code":"01692078007","name":"東二十五条南５丁目","lat":43.559475,"lng":144.997564},{"code":"01692078008","name":"東二十五条南６丁目","lat":43.558936,"lng":144.998437},{"code":"01692079001","name":"東二十六条北２丁目","lat":43.563039,"lng":144.99461},{"code":"01692079003","name":"東二十六条北１丁目","lat":43.562365,"lng":144.995923},{"code":"01692080003","name":"東二十六条南１丁目","lat":43.561075,"lng":144.997193},{"code":"01692080004","name":"東二十六条南２丁目","lat":43.56031,"lng":144.9982},{"code":"01692080005","name":"東二十六条南３丁目","lat":43.559447,"lng":144.999194},{"code":"01692081001","name":"東二十七条北２丁目","lat":43.564646,"lng":144.997336},{"code":"01692081002","name":"東二十七条北１丁目","lat":43.563,"lng":144.996911},{"code":"01692082003","name":"東二十七条南１丁目","lat":43.561738,"lng":144.99788},{"code":"01692082004","name":"東二十七条南２丁目","lat":43.560732,"lng":144.998839},{"code":"01692082005","name":"東二十七条南３丁目","lat":43.559863,"lng":144.999864},{"code":"01692083001","name":"東二十八条北１丁目","lat":43.563294,"lng":144.997811},{"code":"01692083003","name":"東二十八条北６丁目","lat":43.566324,"lng":144.991571},{"code":"01692083004","name":"東二十八条北５丁目","lat":43.565079,"lng":144.994023},{"code":"01692084002","name":"東二十八条南１丁目","lat":43.562335,"lng":144.998662},{"code":"01692084003","name":"東二十八条南２丁目","lat":43.561252,"lng":144.999623},{"code":"01692084004","name":"東二十八条南３丁目","lat":43.560388,"lng":145.000733},{"code":"01692085001","name":"東二十九条北１丁目","lat":43.56377,"lng":144.999069},{"code":"01692085006","name":"東二十九条北６丁目","lat":43.567526,"lng":144.993589},{"code":"01692085007","name":"東二十九条北７丁目","lat":43.568546,"lng":144.992174},{"code":"01692086002","name":"東二十九条南１丁目","lat":43.562775,"lng":144.999817},{"code":"01692086003","name":"東二十九条南２丁目","lat":43.561951,"lng":145.000651},{"code":"01692086004","name":"東二十九条南３丁目","lat":43.561004,"lng":145.001637},{"code":"01692087001","name":"東三十条北１丁目","lat":43.564216,"lng":145.000351},{"code":"01692087006","name":"東三十条北６丁目","lat":43.568263,"lng":144.994636},{"code":"01692087007","name":"東三十条北７丁目","lat":43.569682,"lng":144.993112},{"code":"01692088003","name":"東三十条南１丁目","lat":43.56316,"lng":145.001293},{"code":"01692088004","name":"東三十条南２丁目","lat":43.562204,"lng":145.002086},{"code":"01692088005","name":"東三十条南３丁目","lat":43.561557,"lng":145.002859},{"code":"01692089001","name":"東三十一条北１丁目","lat":43.564345,"lng":145.001514},{"code":"01692089002","name":"東三十一条北２丁目","lat":43.564941,"lng":145.000744},{"code":"01692089006","name":"東三十一条北６丁目","lat":43.570025,"lng":144.995831},{"code":"01692089007","name":"東三十一条北７丁目","lat":43.5701,"lng":144.993929},{"code":"01692089008","name":"東三十一条北８丁目","lat":43.570728,"lng":144.993206},{"code":"01692090003","name":"東三十一条南１丁目","lat":43.563486,"lng":145.002563},{"code":"01692090004","name":"東三十一条南２丁目","lat":43.562405,"lng":145.003898},{"code":"01692091001","name":"東三十二条北１丁目","lat":43.564847,"lng":145.002459},{"code":"01692091002","name":"東三十二条北２丁目","lat":43.565497,"lng":145.001591},{"code":"01692091003","name":"東三十二条北３丁目","lat":43.565823,"lng":145.000415},{"code":"01692091004","name":"東三十二条北４丁目","lat":43.566856,"lng":144.999855},{"code":"01692091005","name":"東三十二条北５丁目","lat":43.568322,"lng":144.998203},{"code":"01692091007","name":"東三十二条北７丁目","lat":43.57015,"lng":144.995153},{"code":"01692091008","name":"東三十二条北８丁目","lat":43.571833,"lng":144.993784},{"code":"01692092006","name":"東三十二条南１丁目","lat":43.563979,"lng":145.003546},{"code":"01692092007","name":"東三十二条南２丁目","lat":43.563003,"lng":145.004844},{"code":"01692093001","name":"東三十三条北５丁目","lat":43.568949,"lng":144.999593},{"code":"01692093002","name":"東三十三条北４丁目","lat":43.567771,"lng":145.000866},{"code":"01692093003","name":"東三十三条北３丁目","lat":43.566665,"lng":145.001744},{"code":"01692093004","name":"東三十三条北２丁目","lat":43.566044,"lng":145.002456},{"code":"01692093005","name":"東三十三条北１丁目","lat":43.565329,"lng":145.003361},{"code":"01692094006","name":"東三十三条南１丁目","lat":43.564451,"lng":145.004437},{"code":"01692094007","name":"東三十三条南２丁目","lat":43.563528,"lng":145.005633},{"code":"01692095001","name":"東三十四条北３丁目","lat":43.567239,"lng":145.00253},{"code":"01692095002","name":"東三十四条北２丁目","lat":43.56664,"lng":145.003363},{"code":"01692095003","name":"東三十四条北１丁目","lat":43.565865,"lng":145.004336},{"code":"01692096004","name":"東三十四条南１丁目","lat":43.564939,"lng":145.005302},{"code":"01692096005","name":"東三十四条南２丁目","lat":43.564045,"lng":145.006423},{"code":"01692097001","name":"東三十五条北６丁目","lat":43.570946,"lng":144.999184},{"code":"01692097002","name":"東三十五条北５丁目","lat":43.569791,"lng":145.000571},{"code":"01692097003","name":"東三十五条北４丁目","lat":43.568585,"lng":145.002129},{"code":"01692097004","name":"東三十五条北３丁目","lat":43.56787,"lng":145.003393},{"code":"01692097005","name":"東三十五条北２丁目","lat":43.567231,"lng":145.004173},{"code":"01692097006","name":"東三十五条北１丁目","lat":43.566387,"lng":145.005226},{"code":"01692098007","name":"東三十五条南１丁目","lat":43.565452,"lng":145.006266},{"code":"01692098008","name":"東三十五条南２丁目","lat":43.564572,"lng":145.007266},{"code":"01692099001","name":"東三十六条北６丁目","lat":43.571574,"lng":145.000183},{"code":"01692099002","name":"東三十六条北５丁目","lat":43.570445,"lng":145.001563},{"code":"01692099003","name":"東三十六条北４丁目","lat":43.569248,"lng":145.003128},{"code":"01692099004","name":"東三十六条北３丁目","lat":43.568348,"lng":145.004232},{"code":"01692099005","name":"東三十六条北２丁目","lat":43.567747,"lng":145.005069},{"code":"01692099006","name":"東三十六条北１丁目","lat":43.566826,"lng":145.006192},{"code":"01692100007","name":"東三十六条南１丁目","lat":43.565969,"lng":145.007162},{"code":"01692100008","name":"東三十六条南２丁目","lat":43.565164,"lng":145.008116},{"code":"01692101001","name":"東三十七条北４丁目","lat":43.569966,"lng":145.004238},{"code":"01692101002","name":"東三十七条北３丁目","lat":43.568834,"lng":145.00532},{"code":"01692101003","name":"東三十七条北２丁目","lat":43.568035,"lng":145.00614},{"code":"01692101004","name":"東三十七条北１丁目","lat":43.567268,"lng":145.007138},{"code":"01692101005","name":"東三十七条北５丁目","lat":43.571183,"lng":145.002739},{"code":"016921020","name":"東三十七条南","lat":43.56607,"lng":145.008576},{"code":"01692103001","name":"東三十八条北３丁目","lat":43.569288,"lng":145.006047},{"code":"01692103002","name":"東三十八条北２丁目","lat":43.568586,"lng":145.007005},{"code":"01692103003","name":"東三十八条北１丁目","lat":43.56777,"lng":145.008039},{"code":"01692104004","name":"東三十八条南１丁目","lat":43.566743,"lng":145.009234},{"code":"01692104005","name":"東三十八条南２丁目","lat":43.566129,"lng":145.01027},{"code":"01692105001","name":"東三十九条北４丁目","lat":43.570776,"lng":145.005475},{"code":"01692105002","name":"東三十九条北３丁目","lat":43.569755,"lng":145.006768},{"code":"01692105003","name":"東三十九条北２丁目","lat":43.569113,"lng":145.007848},{"code":"01692105004","name":"東三十九条北１丁目","lat":43.568244,"lng":145.009021},{"code":"01692105005","name":"東三十九条北５丁目","lat":43.571993,"lng":145.00396},{"code":"01692105006","name":"東三十九条北６丁目","lat":43.572835,"lng":145.00294},{"code":"01692106005","name":"東三十九条南１丁目","lat":43.567621,"lng":145.010064},{"code":"01692106006","name":"東三十九条南２丁目","lat":43.567061,"lng":145.011057},{"code":"016921070","name":"東四十条北","lat":43.568868,"lng":145.010083},{"code":"016921080","name":"東四十条南","lat":43.567892,"lng":145.011853},{"code":"016921090","name":"東四十一条北","lat":43.569497,"lng":145.011029},{"code":"016921100","name":"東四十一条南","lat":43.568642,"lng":145.012283},{"code":"016921110","name":"東四十二条北","lat":43.569963,"lng":145.011648},{"code":"016921120","name":"東四十二条南","lat":43.5687,"lng":145.013023},{"code":"01692113001","name":"丸山１丁目","lat":43.552588,"lng":144.965539},{"code":"01692113002","name":"丸山２丁目","lat":43.554993,"lng":144.9693},{"code":"01692113003","name":"丸山３丁目","lat":43.560835,"lng":144.966286},{"code":"01692113004","name":"丸山４丁目","lat":43.558928,"lng":144.961144},{"code":"01692114001","name":"西町１丁目","lat":43.555708,"lng":144.961514},{"code":"01692114002","name":"西町２丁目","lat":43.554996,"lng":144.959489},{"code":"01692114003","name":"西町３丁目","lat":43.555321,"lng":144.957158},{"code":"01692114004","name":"西町４丁目","lat":43.552532,"lng":144.957418},{"code":"01692114005","name":"西町５丁目","lat":43.55458,"lng":144.954493},{"code":"01692114006","name":"西町６丁目","lat":43.554509,"lng":144.951255},{"code":"01692114007","name":"西町７丁目","lat":43.552925,"lng":144.952086},{"code":"01692114008","name":"西町８丁目","lat":43.551606,"lng":144.954178},{"code":"01692115001","name":"川西１丁目","lat":43.554768,"lng":144.948996},{"code":"01692115002","name":"川西２丁目","lat":43.553942,"lng":144.947205},{"code":"01692115003","name":"川西３丁目","lat":43.553365,"lng":144.945497},{"code":"01692115004","name":"川西４丁目","lat":43.55179,"lng":144.949058},{"code":"01692115005","name":"川西５丁目","lat":43.553858,"lng":144.943352},{"code":"01692115006","name":"川西６丁目","lat":43.550994,"lng":144.945116},{"code":"01692115007","name":"川西７丁目","lat":43.55074,"lng":144.938658},{"code":"01692115008","name":"川西８丁目","lat":43.549237,"lng":144.941346},{"code":"01692116001","name":"桜ケ丘１丁目","lat":43.541382,"lng":144.977497},{"code":"01692116002","name":"桜ケ丘２丁目","lat":43.541571,"lng":144.980995},{"code":"01692116003","name":"桜ケ丘３丁目","lat":43.53935,"lng":144.981586},{"code":"01692116004","name":"桜ケ丘４丁目","lat":43.538196,"lng":144.982016},{"code":"01692117001","name":"並美ケ丘１丁目","lat":43.539962,"lng":144.963682},{"code":"01692117002","name":"並美ケ丘２丁目","lat":43.540464,"lng":144.959903},{"code":"01692117003","name":"並美ケ丘３丁目","lat":43.53709,"lng":144.962522},{"code":"01692117004","name":"並美ケ丘４丁目","lat":43.538071,"lng":144.965328},{"code":"01692118101","name":"緑町北１丁目","lat":43.535823,"lng":144.956775},{"code":"01692118102","name":"緑町北２丁目","lat":43.53343,"lng":144.951539},{"code":"01692118103","name":"緑町北３丁目","lat":43.53122,"lng":144.947449},{"code":"01692118104","name":"緑町北４丁目","lat":43.536772,"lng":144.953777},{"code":"01692118105","name":"緑町北５丁目","lat":43.534538,"lng":144.951849},{"code":"016921190","name":"字俵橋","lat":43.588925,"lng":145.042608},{"code":"016921200","name":"字武佐","lat":43.642518,"lng":144.919442},{"code":"016921210","name":"字開陽","lat":43.630344,"lng":144.862193},{"code":"016921220","name":"字俣落","lat":43.61473,"lng":144.799247},{"code":"016921230","name":"字西竹","lat":43.549879,"lng":144.802907},{"code":"016921240","name":"字養老牛","lat":43.589211,"lng":144.674416},{"code":"016921250","name":"字上標津","lat":43.509161,"lng":144.75956},{"code":"016921260","name":"字計根別","lat":43.49512,"lng":144.827018},{"code":"016921270","name":"字当幌","lat":43.498968,"lng":144.888344},{"code":"016921280","name":"字豊岡","lat":43.48255,"lng":144.944366},{"code":"016921290","name":"字協和","lat":43.504265,"lng":144.998436},{"code":"01692130001","name":"緑町南１丁目","lat":43.533756,"lng":144.959357},{"code":"01692130002","name":"緑町南２丁目","lat":43.532182,"lng":144.953205},{"code":"01692130003","name":"緑町南３丁目","lat":43.529324,"lng":144.946645},{"code":"016921310","name":"北中","lat":43.575906,"lng":144.960738},{"code":"016921320","name":"東中","lat":43.572296,"lng":144.981573},{"code":"016921330","name":"俵中","lat":43.549617,"lng":145.016418},{"code":"016921340","name":"旭ケ丘","lat":43.54181,"lng":144.99957},{"code":"016921350","name":"共立","lat":43.529741,"lng":144.988911},{"code":"016921360","name":"南町","lat":43.533668,"lng":144.975047},{"code":"016921370","name":"南中","lat":43.519418,"lng":144.964591},{"code":"016921380","name":"東当幌","lat":43.513783,"lng":144.922647},{"code":"016921390","name":"緑ケ丘","lat":43.538404,"lng":144.942639},{"code":"016921400","name":"青葉台","lat":43.538527,"lng":144.906333},{"code":"016921410","name":"りんどう町","lat":43.556079,"lng":144.931064},{"code":"016921420","name":"字当幌本通","lat":43.511639,"lng":144.915215},{"code":"01692143001","name":"北町１丁目","lat":43.561935,"lng":144.971482},{"code":"01692143002","name":"北町２丁目","lat":43.563931,"lng":144.969652}]}
