{"municipality":"03203","name":"大船渡市","prefecture":"岩手県","source":{"dataset":"frogcat/japan-small-area","census":"平成27年国勢調査 小地域（e-Stat 統計LOD）","license":"MIT（リポジトリ）／政府統計の総合窓口(e-Stat)の利用規約（元データ・出典表記必要）","fetched":"2026-07-06"},"towns":[{"code":"03203001001","name":"盛町字沢川","lat":39.075605,"lng":141.693981},{"code":"03203001002","name":"盛町字舘下","lat":39.08411,"lng":141.707271},{"code":"03203001003","name":"盛町字内ノ目","lat":39.083204,"lng":141.711233},{"code":"03203001004","name":"盛町字宇津野沢","lat":39.080182,"lng":141.706267},{"code":"03203001005","name":"盛町字馬場","lat":39.081998,"lng":141.713094},{"code":"03203001006","name":"盛町字中道下","lat":39.080735,"lng":141.7165},{"code":"03203001007","name":"盛町字下舘下","lat":39.077142,"lng":141.711863},{"code":"03203001008","name":"盛町字御山下","lat":39.077932,"lng":141.707541},{"code":"03203001009","name":"盛町字権現堂","lat":39.085273,"lng":141.695688},{"code":"03203001010","name":"盛町字柿ノ木沢","lat":39.086339,"lng":141.704574},{"code":"03203001011","name":"盛町字木町","lat":39.089212,"lng":141.707598},{"code":"03203001012","name":"盛町字町","lat":39.087013,"lng":141.70844},{"code":"03203001013","name":"盛町字東町","lat":39.088691,"lng":141.711179},{"code":"03203001014","name":"盛町字東町","lat":39.084672,"lng":141.714578},{"code":"03203001015","name":"盛町字東町裏","lat":39.086482,"lng":141.71016},{"code":"03203002001","name":"大船渡町字下平","lat":39.043618,"lng":141.719586},{"code":"03203002002","name":"大船渡町字砂子前","lat":39.040402,"lng":141.719336},{"code":"03203002003","name":"大船渡町字下船渡","lat":39.035934,"lng":141.715749},{"code":"03203002004","name":"大船渡町字宮ノ前","lat":39.038716,"lng":141.717318},{"code":"03203002005","name":"大船渡町字丸森","lat":39.03105,"lng":141.712245},{"code":"03203002006","name":"大船渡町字野々田","lat":39.059714,"lng":141.721501},{"code":"03203002007","name":"大船渡町字笹崎","lat":39.056439,"lng":141.716833},{"code":"03203002008","name":"大船渡町字永沢","lat":39.050496,"lng":141.71945},{"code":"03203002009","name":"大船渡町字猪頭","lat":39.047251,"lng":141.701294},{"code":"03203002010","name":"大船渡町字上平","lat":39.046845,"lng":141.718555},{"code":"03203002012","name":"大船渡町字富沢","lat":39.071839,"lng":141.711713},{"code":"03203002013","name":"大船渡町字地ノ森","lat":39.074111,"lng":141.715739},{"code":"03203002014","name":"大船渡町字赤沢","lat":39.067276,"lng":141.713585},{"code":"03203002015","name":"大船渡町字山馬越","lat":39.062587,"lng":141.695969},{"code":"03203002016","name":"大船渡町字新田","lat":39.069427,"lng":141.718248},{"code":"03203002017","name":"大船渡町字砂森","lat":39.071697,"lng":141.722191},{"code":"03203002018","name":"大船渡町字台","lat":39.066526,"lng":141.720114},{"code":"03203002019","name":"大船渡町字上山","lat":39.064445,"lng":141.714998},{"code":"03203002020","name":"大船渡町字茶屋前","lat":39.063066,"lng":141.721363},{"code":"03203002021","name":"大船渡町字明神前","lat":39.061214,"lng":141.712721},{"code":"03203003001","name":"末崎町字神坂","lat":39.014604,"lng":141.717283},{"code":"03203003002","name":"末崎町字山岸","lat":39.007004,"lng":141.727041},{"code":"03203003003","name":"末崎町字門之浜","lat":39.001014,"lng":141.720838},{"code":"03203003004","name":"末崎町字中森","lat":38.995673,"lng":141.734239},{"code":"03203003005","name":"末崎町字山根","lat":38.996331,"lng":141.729388},{"code":"03203003006","name":"末崎町字小中井","lat":38.996526,"lng":141.724168},{"code":"03203003007","name":"末崎町字西舘","lat":38.992118,"lng":141.724789},{"code":"03203003008","name":"末崎町字泊里","lat":38.99063,"lng":141.7339},{"code":"03203003009","name":"末崎町字大豆沢","lat":38.991616,"lng":141.738607},{"code":"03203003010","name":"末崎町字中野","lat":39.011208,"lng":141.712628},{"code":"03203003011","name":"末崎町字上山","lat":39.005817,"lng":141.705575},{"code":"03203003012","name":"末崎町字平林","lat":39.006704,"lng":141.713033},{"code":"03203003013","name":"末崎町字小田","lat":39.028448,"lng":141.696047},{"code":"03203003014","name":"末崎町字大田","lat":39.000785,"lng":141.713157},{"code":"03203003015","name":"末崎町字鶴巻","lat":39.000245,"lng":141.716185},{"code":"03203003016","name":"末崎町字高清水","lat":38.998228,"lng":141.710765},{"code":"03203003017","name":"末崎町字作沢","lat":38.993746,"lng":141.709204},{"code":"03203003018","name":"末崎町字船河原","lat":39.027573,"lng":141.70593},{"code":"03203003019","name":"末崎町字石浜","lat":39.025177,"lng":141.699973},{"code":"03203003020","name":"末崎町字峰岸","lat":39.020847,"lng":141.709849},{"code":"03203003021","name":"末崎町字内田","lat":39.018472,"lng":141.710417},{"code":"03203003022","name":"末崎町字細浦","lat":39.015535,"lng":141.710792},{"code":"03203003023","name":"末崎町字小細浦","lat":39.012265,"lng":141.709881},{"code":"03203004001","name":"赤崎町字諏訪前","lat":39.084687,"lng":141.718675},{"code":"03203004002","name":"赤崎町字中井","lat":39.089889,"lng":141.725957},{"code":"03203004003","name":"赤崎町字沢田","lat":39.080533,"lng":141.756911},{"code":"03203004004","name":"赤崎町字佐野","lat":39.082251,"lng":141.728311},{"code":"03203004005","name":"赤崎町字石橋前","lat":39.075577,"lng":141.72436},{"code":"03203004006","name":"赤崎町字跡浜","lat":39.07315,"lng":141.732243},{"code":"03203004007","name":"赤崎町字後ノ入","lat":39.077443,"lng":141.748091},{"code":"03203004008","name":"赤崎町字大洞","lat":39.068658,"lng":141.744602},{"code":"03203004009","name":"赤崎町字生形","lat":39.066382,"lng":141.739},{"code":"03203004010","name":"赤崎町字山口","lat":39.062225,"lng":141.74272},{"code":"03203004011","name":"赤崎町字大立","lat":39.047349,"lng":141.757237},{"code":"03203004012","name":"赤崎町字永浜","lat":39.050595,"lng":141.746786},{"code":"03203004013","name":"赤崎町字清水","lat":39.041868,"lng":141.741842},{"code":"03203004014","name":"赤崎町字蛸ノ浦","lat":39.034826,"lng":141.737896},{"code":"03203004015","name":"赤崎町字鳥沢","lat":39.028078,"lng":141.741058},{"code":"03203004016","name":"赤崎町字長崎","lat":39.023071,"lng":141.752981},{"code":"03203004017","name":"赤崎町字外口","lat":39.023998,"lng":141.758522},{"code":"03203004018","name":"赤崎町字合足","lat":39.036574,"lng":141.764738},{"code":"03203004019","name":"赤崎町字宮野","lat":39.092493,"lng":141.728434},{"code":"03203005001","name":"猪川町字久名畑","lat":39.082666,"lng":141.663581},{"code":"03203005002","name":"猪川町字大野","lat":39.092032,"lng":141.676004},{"code":"03203005003","name":"猪川町字千刈","lat":39.100655,"lng":141.695237},{"code":"03203005004","name":"猪川町字前田","lat":39.10336,"lng":141.699627},{"code":"03203005005","name":"猪川町字下権現堂","lat":39.094186,"lng":141.704824},{"code":"03203005006","name":"猪川町字轆轤石","lat":39.095392,"lng":141.711752},{"code":"03203005007","name":"猪川町字冨岡","lat":39.100686,"lng":141.721896},{"code":"03203005008","name":"猪川町字今出","lat":39.10072,"lng":141.743251},{"code":"03203005009","name":"猪川町字長谷堂","lat":39.097056,"lng":141.723724},{"code":"03203005010","name":"猪川町字長洞","lat":39.094885,"lng":141.71625},{"code":"03203005011","name":"猪川町字中井沢","lat":39.092689,"lng":141.718973},{"code":"03203005012","name":"猪川町字善蔵敷","lat":39.094038,"lng":141.731126},{"code":"03203006001","name":"立根町字小林","lat":39.127578,"lng":141.716456},{"code":"03203006002","name":"立根町字猫足","lat":39.114115,"lng":141.714483},{"code":"03203006003","name":"立根町字関谷","lat":39.113353,"lng":141.718149},{"code":"03203006004","name":"立根町字田谷","lat":39.117999,"lng":141.724147},{"code":"03203006005","name":"立根町字上ノ台","lat":39.112151,"lng":141.720537},{"code":"03203006006","name":"立根町字川原","lat":39.110594,"lng":141.723469},{"code":"03203006007","name":"立根町字久保","lat":39.110587,"lng":141.711068},{"code":"03203006008","name":"立根町字桑原","lat":39.105311,"lng":141.709803},{"code":"03203006009","name":"立根町字中野","lat":39.107875,"lng":141.714897},{"code":"03203006010","name":"立根町字堀之内","lat":39.103469,"lng":141.711608},{"code":"03203006011","name":"立根町字堰口","lat":39.101033,"lng":141.706115},{"code":"03203006012","name":"立根町字宮田","lat":39.101175,"lng":141.713911},{"code":"03203006013","name":"立根町字下欠","lat":39.10411,"lng":141.719284},{"code":"03203006014","name":"立根町字向田","lat":39.10699,"lng":141.718054},{"code":"03203006015","name":"立根町字舞良","lat":39.125611,"lng":141.718652},{"code":"03203006016","name":"立根町字野尻","lat":39.126358,"lng":141.724005},{"code":"03203006017","name":"立根町字萱中","lat":39.125564,"lng":141.730608},{"code":"03203006018","name":"立根町字平田","lat":39.120647,"lng":141.71826},{"code":"03203006019","name":"立根町字細野","lat":39.12777,"lng":141.746665},{"code":"03203006020","name":"立根町字釜石沢","lat":39.107972,"lng":141.701786},{"code":"03203007001","name":"日頃市町字長岩","lat":39.131661,"lng":141.634939},{"code":"03203007002","name":"日頃市町字田代屋敷","lat":39.148684,"lng":141.664228},{"code":"03203007003","name":"日頃市町字中宿","lat":39.145057,"lng":141.683392},{"code":"03203007004","name":"日頃市町字下甲子","lat":39.166823,"lng":141.702565},{"code":"03203007005","name":"日頃市町字大迎","lat":39.138763,"lng":141.691832},{"code":"03203007006","name":"日頃市町字舟野","lat":39.130335,"lng":141.692012},{"code":"03203007007","name":"日頃市町字下宿","lat":39.129761,"lng":141.681709},{"code":"03203007008","name":"日頃市町字関谷","lat":39.131087,"lng":141.669254},{"code":"03203007009","name":"日頃市町字坂本沢","lat":39.130725,"lng":141.651871},{"code":"03203007010","name":"日頃市町字大森","lat":39.10978,"lng":141.648221},{"code":"03203007011","name":"日頃市町字川内","lat":39.118998,"lng":141.673833},{"code":"03203007012","name":"日頃市町字中板用","lat":39.110817,"lng":141.673787},{"code":"03203007013","name":"日頃市町字沼川","lat":39.103252,"lng":141.677852},{"code":"03203007014","name":"日頃市町字長安寺","lat":39.113519,"lng":141.689016},{"code":"03203007015","name":"日頃市町字藤折","lat":39.120237,"lng":141.692775},{"code":"03203007016","name":"日頃市町字中小通","lat":39.125285,"lng":141.701627},{"code":"03203008015","name":"三陸町越喜来字甫嶺","lat":39.085123,"lng":141.805223},{"code":"03203008016","name":"三陸町越喜来字甫嶺","lat":39.085043,"lng":141.789606},{"code":"03203008017","name":"三陸町越喜来字西上甫嶺","lat":39.103723,"lng":141.77778},{"code":"03203008018","name":"三陸町越喜来字泊","lat":39.112341,"lng":141.795312},{"code":"03203008019","name":"三陸町越喜来字肥ノ田","lat":39.115449,"lng":141.80977},{"code":"03203008020","name":"三陸町越喜来字小出","lat":39.136513,"lng":141.780384},{"code":"03203008021","name":"三陸町越喜来字小出","lat":39.126517,"lng":141.820872},{"code":"03203008022","name":"三陸町越喜来字杉下","lat":39.115433,"lng":141.832796},{"code":"03203008023","name":"三陸町越喜来字大平","lat":39.112856,"lng":141.853997},{"code":"03203008024","name":"三陸町越喜来字烏頭","lat":39.105803,"lng":141.884884},{"code":"03203009000","name":"三陸町綾里字岩崎","lat":39.044868,"lng":141.783526},{"code":"03203009001","name":"三陸町綾里字小路","lat":39.033956,"lng":141.778688},{"code":"03203009002","name":"三陸町綾里字石浜","lat":39.04014,"lng":141.788042},{"code":"03203009003","name":"三陸町綾里字田浜上","lat":39.031956,"lng":141.815687},{"code":"03203009004","name":"三陸町綾里字港","lat":39.043808,"lng":141.794684},{"code":"03203009005","name":"三陸町綾里字岩崎","lat":39.04512,"lng":141.796358},{"code":"03203009006","name":"三陸町綾里字岩崎","lat":39.045642,"lng":141.801301},{"code":"03203009007","name":"三陸町綾里字岩崎","lat":39.049192,"lng":141.792879},{"code":"03203009008","name":"三陸町綾里字野形","lat":39.062303,"lng":141.779763},{"code":"03203009009","name":"三陸町綾里字宮野","lat":39.060076,"lng":141.79847},{"code":"03203009010","name":"三陸町綾里字大畑野","lat":39.0412,"lng":141.825866},{"code":"03203009011","name":"三陸町綾里字白浜","lat":39.062606,"lng":141.83047},{"code":"03203009013","name":"三陸町綾里字砂子浜","lat":39.069644,"lng":141.849772},{"code":"03203009014","name":"三陸町綾里字小石浜","lat":39.073938,"lng":141.815799},{"code":"03203010025","name":"三陸町吉浜字増館","lat":39.129241,"lng":141.852726},{"code":"03203010026","name":"三陸町吉浜字平根","lat":39.161069,"lng":141.783223},{"code":"03203010027","name":"三陸町吉浜字中井","lat":39.138849,"lng":141.828429},{"code":"03203010028","name":"三陸町吉浜字上野","lat":39.148436,"lng":141.835288},{"code":"03203010029","name":"三陸町吉浜字上野","lat":39.153837,"lng":141.830366},{"code":"03203010030","name":"三陸町吉浜字上野","lat":39.167385,"lng":141.817925},{"code":"03203010031","name":"三陸町吉浜字扇洞","lat":39.166787,"lng":141.839521},{"code":"03203010032","name":"三陸町吉浜字根白","lat":39.166585,"lng":141.856249},{"code":"03203010033","name":"三陸町吉浜字根白","lat":39.161081,"lng":141.868668},{"code":"03203010034","name":"三陸町吉浜字千歳","lat":39.167172,"lng":141.894578}]}
