{"municipality":"03507","name":"九戸郡洋野町","prefecture":"岩手県","source":{"dataset":"frogcat/japan-small-area","census":"平成27年国勢調査 小地域（e-Stat 統計LOD）","license":"MIT（リポジトリ）／政府統計の総合窓口(e-Stat)の利用規約（元データ・出典表記必要）","fetched":"2026-07-06"},"towns":[{"code":"03507001001","name":"中野第４地割","lat":40.289182,"lng":141.765585},{"code":"03507001002","name":"中野第１地割","lat":40.286432,"lng":141.724803},{"code":"03507001003","name":"中野第２地割","lat":40.303971,"lng":141.763626},{"code":"035070040","name":"有家","lat":40.312678,"lng":141.741246},{"code":"035070050","name":"小子内","lat":40.328772,"lng":141.737833},{"code":"03507100001","name":"種市第１地割","lat":40.337847,"lng":141.739722},{"code":"03507100002","name":"種市第２地割","lat":40.346378,"lng":141.753614},{"code":"03507100003","name":"種市第４地割","lat":40.347874,"lng":141.721655},{"code":"03507100004","name":"種市第８地割","lat":40.360051,"lng":141.714464},{"code":"03507100005","name":"種市第１１地割","lat":40.368789,"lng":141.702636},{"code":"03507100006","name":"種市第１７地割","lat":40.388485,"lng":141.709527},{"code":"03507100007","name":"種市第１８地割","lat":40.40305,"lng":141.718938},{"code":"03507100008","name":"種市第１８地割","lat":40.401856,"lng":141.713827},{"code":"03507100009","name":"種市第２４地割","lat":40.399045,"lng":141.698042},{"code":"03507100010","name":"種市第２２地割","lat":40.407189,"lng":141.713754},{"code":"03507100011","name":"種市第２３地割","lat":40.407587,"lng":141.718538},{"code":"03507100012","name":"種市第２３地割","lat":40.410343,"lng":141.716146},{"code":"03507100013","name":"種市第２３地割","lat":40.410306,"lng":141.718559},{"code":"03507100014","name":"種市第２３地割","lat":40.412282,"lng":141.716857},{"code":"03507100015","name":"種市第２３地割","lat":40.409984,"lng":141.713038},{"code":"03507100016","name":"種市第２３地割","lat":40.416309,"lng":141.713353},{"code":"03507100017","name":"種市第２４地割","lat":40.409417,"lng":141.701027},{"code":"03507100018","name":"種市第３２地割","lat":40.413467,"lng":141.696114},{"code":"03507100019","name":"種市第３８地割","lat":40.424538,"lng":141.687783},{"code":"03507100020","name":"種市第４２地割","lat":40.441043,"lng":141.680965},{"code":"03507100021","name":"種市第４４地割","lat":40.418688,"lng":141.64562},{"code":"03507100022","name":"種市第４６地割","lat":40.404132,"lng":141.667478},{"code":"03507100023","name":"種市第５７地割","lat":40.393313,"lng":141.642037},{"code":"03507100024","name":"種市第６１地割","lat":40.397133,"lng":141.603298},{"code":"03507100025","name":"種市第６５地割","lat":40.37381,"lng":141.611353},{"code":"03507100026","name":"種市第７２地割","lat":40.364213,"lng":141.640094},{"code":"03507100027","name":"種市第７４地割","lat":40.348244,"lng":141.653236},{"code":"03507100028","name":"種市第２１地割","lat":40.379805,"lng":141.675714},{"code":"035071010","name":"大野","lat":40.298391,"lng":141.643477},{"code":"035071020","name":"阿子木","lat":40.268579,"lng":141.712183},{"code":"035071030","name":"帯島","lat":40.25161,"lng":141.687616},{"code":"035071040","name":"水沢","lat":40.234615,"lng":141.638361},{"code":"035071050","name":"上舘","lat":40.338889,"lng":141.603173}]}
