{"municipality":"04105","name":"仙台市泉区","prefecture":"宮城県","source":{"dataset":"frogcat/japan-small-area","census":"平成27年国勢調査 小地域（e-Stat 統計LOD）","license":"MIT（リポジトリ）／政府統計の総合窓口(e-Stat)の利用規約（元データ・出典表記必要）","fetched":"2026-07-06"},"towns":[{"code":"04105002001","name":"明通１丁目","lat":38.348524,"lng":140.851113},{"code":"04105002002","name":"明通２丁目","lat":38.354065,"lng":140.845652},{"code":"04105002003","name":"明通３丁目","lat":38.356719,"lng":140.855308},{"code":"04105002004","name":"明通４丁目","lat":38.353497,"lng":140.863044},{"code":"04105003001","name":"旭丘堤１丁目","lat":38.299366,"lng":140.889955},{"code":"04105003002","name":"旭丘堤２丁目","lat":38.303086,"lng":140.889452},{"code":"04105004001","name":"泉ケ丘１丁目","lat":38.351636,"lng":140.871046},{"code":"04105004002","name":"泉ケ丘２丁目","lat":38.354507,"lng":140.868189},{"code":"04105004003","name":"泉ケ丘３丁目","lat":38.358075,"lng":140.870426},{"code":"04105004004","name":"泉ケ丘４丁目","lat":38.358302,"lng":140.866914},{"code":"04105004005","name":"泉ケ丘５丁目","lat":38.359417,"lng":140.863537},{"code":"041050050","name":"市名坂","lat":38.316806,"lng":140.900188},{"code":"041050060","name":"永和台","lat":38.329699,"lng":140.905131},{"code":"041050070","name":"小角","lat":38.331439,"lng":140.807756},{"code":"041050081","name":"泉中央南","lat":38.32029,"lng":140.870986},{"code":"041050082","name":"上谷刈","lat":38.317221,"lng":140.855476},{"code":"04105009001","name":"加茂１丁目","lat":38.312708,"lng":140.862941},{"code":"04105009002","name":"加茂２丁目","lat":38.315855,"lng":140.85796},{"code":"04105009003","name":"加茂３丁目","lat":38.316636,"lng":140.850327},{"code":"04105009004","name":"加茂４丁目","lat":38.313091,"lng":140.851876},{"code":"04105009005","name":"加茂５丁目","lat":38.316235,"lng":140.846285},{"code":"041050100","name":"北高森","lat":38.345805,"lng":140.859516},{"code":"04105011001","name":"北中山１丁目","lat":38.318203,"lng":140.823139},{"code":"04105011002","name":"北中山２丁目","lat":38.317763,"lng":140.816779},{"code":"04105011003","name":"北中山３丁目","lat":38.316429,"lng":140.811279},{"code":"04105011004","name":"北中山４丁目","lat":38.31278,"lng":140.808921},{"code":"04105012001","name":"黒松１丁目","lat":38.303953,"lng":140.883671},{"code":"04105012002","name":"黒松２丁目","lat":38.308327,"lng":140.882793},{"code":"04105012003","name":"黒松３丁目","lat":38.306928,"lng":140.886367},{"code":"04105013001","name":"向陽台１丁目","lat":38.335557,"lng":140.891526},{"code":"04105013002","name":"向陽台２丁目","lat":38.339375,"lng":140.892966},{"code":"04105013003","name":"向陽台３丁目","lat":38.339829,"lng":140.897757},{"code":"04105013004","name":"向陽台４丁目","lat":38.337777,"lng":140.898281},{"code":"04105013005","name":"向陽台５丁目","lat":38.33564,"lng":140.899626},{"code":"041050140","name":"実沢","lat":38.320506,"lng":140.819846},{"code":"04105015001","name":"将監１丁目","lat":38.329496,"lng":140.886589},{"code":"04105015002","name":"将監２丁目","lat":38.330652,"lng":140.882167},{"code":"04105015003","name":"将監３丁目","lat":38.333141,"lng":140.884097},{"code":"04105015004","name":"将監４丁目","lat":38.335891,"lng":140.883518},{"code":"04105015005","name":"将監５丁目","lat":38.339451,"lng":140.878231},{"code":"04105015006","name":"将監６丁目","lat":38.33755,"lng":140.877794},{"code":"04105015007","name":"将監７丁目","lat":38.335635,"lng":140.877519},{"code":"04105015008","name":"将監８丁目","lat":38.332817,"lng":140.876776},{"code":"04105015009","name":"将監９丁目","lat":38.331783,"lng":140.872407},{"code":"04105015010","name":"将監１０丁目","lat":38.334594,"lng":140.870001},{"code":"04105015011","name":"将監１１丁目","lat":38.338507,"lng":140.872388},{"code":"04105015012","name":"将監１２丁目","lat":38.340227,"lng":140.872716},{"code":"04105015013","name":"将監１３丁目","lat":38.338375,"lng":140.867975},{"code":"04105016001","name":"松陵１丁目","lat":38.32235,"lng":140.912099},{"code":"04105016002","name":"松陵２丁目","lat":38.328389,"lng":140.910135},{"code":"04105016003","name":"松陵３丁目","lat":38.332553,"lng":140.909648},{"code":"04105016004","name":"松陵４丁目","lat":38.333072,"lng":140.916273},{"code":"04105016005","name":"松陵５丁目","lat":38.328231,"lng":140.915381},{"code":"04105017001","name":"住吉台西１丁目","lat":38.326999,"lng":140.782367},{"code":"04105017002","name":"住吉台西２丁目","lat":38.329307,"lng":140.777921},{"code":"04105017003","name":"住吉台西３丁目","lat":38.330448,"lng":140.773263},{"code":"04105017004","name":"住吉台西４丁目","lat":38.331441,"lng":140.780668},{"code":"04105018001","name":"住吉台東１丁目","lat":38.32638,"lng":140.786926},{"code":"04105018002","name":"住吉台東２丁目","lat":38.328907,"lng":140.786047},{"code":"04105018003","name":"住吉台東３丁目","lat":38.331767,"lng":140.786175},{"code":"04105018004","name":"住吉台東４丁目","lat":38.33181,"lng":140.790475},{"code":"04105018005","name":"住吉台東５丁目","lat":38.328945,"lng":140.79056},{"code":"041050190","name":"高玉町","lat":38.316943,"lng":140.893831},{"code":"04105020001","name":"高森１丁目","lat":38.336963,"lng":140.841771},{"code":"04105020002","name":"高森２丁目","lat":38.34119,"lng":140.841886},{"code":"04105020003","name":"高森３丁目","lat":38.341635,"lng":140.846755},{"code":"04105020004","name":"高森４丁目","lat":38.335459,"lng":140.847364},{"code":"04105020005","name":"高森５丁目","lat":38.33656,"lng":140.851268},{"code":"04105020006","name":"高森６丁目","lat":38.341624,"lng":140.851466},{"code":"04105020007","name":"高森７丁目","lat":38.341799,"lng":140.856798},{"code":"04105020008","name":"高森８丁目","lat":38.336588,"lng":140.854601},{"code":"04105021001","name":"長命ケ丘１丁目","lat":38.317475,"lng":140.839594},{"code":"04105021002","name":"長命ケ丘２丁目","lat":38.313015,"lng":140.842131},{"code":"04105021003","name":"長命ケ丘３丁目","lat":38.309309,"lng":140.837285},{"code":"04105021004","name":"長命ケ丘４丁目","lat":38.312349,"lng":140.836938},{"code":"04105021005","name":"長命ケ丘５丁目","lat":38.314334,"lng":140.834641},{"code":"04105021006","name":"長命ケ丘６丁目","lat":38.313975,"lng":140.830681},{"code":"041050220","name":"長命ケ丘東","lat":38.313335,"lng":140.843773},{"code":"04105023001","name":"鶴が丘１丁目","lat":38.317818,"lng":140.926063},{"code":"04105023002","name":"鶴が丘２丁目","lat":38.320637,"lng":140.916529},{"code":"04105023003","name":"鶴が丘３丁目","lat":38.32273,"lng":140.920665},{"code":"04105023004","name":"鶴が丘４丁目","lat":38.326555,"lng":140.920807},{"code":"04105024001","name":"寺岡１丁目","lat":38.337813,"lng":140.836862},{"code":"04105024002","name":"寺岡２丁目","lat":38.337565,"lng":140.830767},{"code":"04105024003","name":"寺岡３丁目","lat":38.339697,"lng":140.824422},{"code":"04105024004","name":"寺岡４丁目","lat":38.342825,"lng":140.822803},{"code":"04105024005","name":"寺岡５丁目","lat":38.342798,"lng":140.829047},{"code":"04105024006","name":"寺岡６丁目","lat":38.342706,"lng":140.835064},{"code":"041050250","name":"七北田","lat":38.333298,"lng":140.876783},{"code":"04105026001","name":"南光台１丁目","lat":38.291045,"lng":140.895278},{"code":"04105026002","name":"南光台２丁目","lat":38.293371,"lng":140.893987},{"code":"04105026003","name":"南光台３丁目","lat":38.295888,"lng":140.893013},{"code":"04105026004","name":"南光台４丁目","lat":38.299023,"lng":140.894214},{"code":"04105026005","name":"南光台５丁目","lat":38.303634,"lng":140.894296},{"code":"04105026006","name":"南光台６丁目","lat":38.304206,"lng":140.897938},{"code":"04105026007","name":"南光台７丁目","lat":38.300795,"lng":140.901505},{"code":"04105027001","name":"南光台東１丁目","lat":38.298471,"lng":140.907224},{"code":"04105027002","name":"南光台東２丁目","lat":38.298858,"lng":140.913426},{"code":"04105027003","name":"南光台東３丁目","lat":38.302106,"lng":140.916448},{"code":"04105028001","name":"南光台南１丁目","lat":38.296417,"lng":140.900111},{"code":"04105028002","name":"南光台南２丁目","lat":38.294542,"lng":140.902092},{"code":"04105028003","name":"南光台南３丁目","lat":38.29427,"lng":140.905618},{"code":"041050290","name":"西田中","lat":38.334522,"lng":140.758462},{"code":"04105030001","name":"虹の丘１丁目","lat":38.306141,"lng":140.873906},{"code":"04105030002","name":"虹の丘２丁目","lat":38.305961,"lng":140.868608},{"code":"04105030003","name":"虹の丘３丁目","lat":38.302137,"lng":140.868174},{"code":"04105030004","name":"虹の丘４丁目","lat":38.303825,"lng":140.865215},{"code":"041050310","name":"根白石","lat":38.350621,"lng":140.80565},{"code":"041050320","name":"野村","lat":38.32667,"lng":140.857278},{"code":"041050330","name":"東黒松","lat":38.307206,"lng":140.890683},{"code":"041050340","name":"福岡","lat":38.380797,"lng":140.737847},{"code":"041050350","name":"古内","lat":38.321779,"lng":140.844631},{"code":"041050360","name":"朴沢","lat":38.387422,"lng":140.780299},{"code":"041050370","name":"歩坂町","lat":38.323219,"lng":140.908391},{"code":"041050380","name":"松森","lat":38.313421,"lng":140.917107},{"code":"04105039001","name":"館１丁目","lat":38.31033,"lng":140.795485},{"code":"04105039002","name":"館２丁目","lat":38.314631,"lng":140.795035},{"code":"04105039003","name":"館３丁目","lat":38.319365,"lng":140.796622},{"code":"04105039004","name":"館４丁目","lat":38.323068,"lng":140.800815},{"code":"04105039005","name":"館５丁目","lat":38.319686,"lng":140.802801},{"code":"04105039006","name":"館６丁目","lat":38.316976,"lng":140.800177},{"code":"04105039007","name":"館７丁目","lat":38.312076,"lng":140.79993},{"code":"04105040001","name":"山の寺１丁目","lat":38.329703,"lng":140.897219},{"code":"04105040002","name":"山の寺２丁目","lat":38.333039,"lng":140.894929},{"code":"04105040003","name":"山の寺３丁目","lat":38.334381,"lng":140.903533},{"code":"041050410","name":"友愛町","lat":38.314332,"lng":140.894627},{"code":"04105042001","name":"泉中央１丁目","lat":38.322839,"lng":140.878753},{"code":"04105042002","name":"泉中央２丁目","lat":38.327554,"lng":140.879797},{"code":"04105042003","name":"泉中央３丁目","lat":38.325307,"lng":140.885957},{"code":"04105042004","name":"泉中央４丁目","lat":38.321551,"lng":140.885165},{"code":"04105043001","name":"桂１丁目","lat":38.334773,"lng":140.863915},{"code":"04105043002","name":"桂２丁目","lat":38.336845,"lng":140.858884},{"code":"04105043003","name":"桂３丁目","lat":38.34079,"lng":140.863407},{"code":"04105043004","name":"桂４丁目","lat":38.342502,"lng":140.867476},{"code":"04105044001","name":"天神沢１丁目","lat":38.323784,"lng":140.898245},{"code":"04105044002","name":"天神沢２丁目","lat":38.327811,"lng":140.901699},{"code":"041050450","name":"本田町","lat":38.321569,"lng":140.903173},{"code":"04105046001","name":"八乙女１丁目","lat":38.311515,"lng":140.892039},{"code":"04105046002","name":"八乙女２丁目","lat":38.309682,"lng":140.89151},{"code":"04105046003","name":"八乙女３丁目","lat":38.309017,"lng":140.895968},{"code":"04105046004","name":"八乙女４丁目","lat":38.311345,"lng":140.89716},{"code":"041050480","name":"みずほ台","lat":38.311787,"lng":140.875138},{"code":"04105049001","name":"紫山１丁目","lat":38.348718,"lng":140.832857},{"code":"04105049002","name":"紫山２丁目","lat":38.346358,"lng":140.829507},{"code":"04105049003","name":"紫山３丁目","lat":38.345925,"lng":140.824},{"code":"04105049004","name":"紫山４丁目","lat":38.348803,"lng":140.820366},{"code":"04105049005","name":"紫山５丁目","lat":38.352447,"lng":140.82404},{"code":"04105050001","name":"明石南１丁目","lat":38.339026,"lng":140.889677},{"code":"04105050002","name":"明石南２丁目","lat":38.342722,"lng":140.890349},{"code":"04105050003","name":"明石南３丁目","lat":38.341199,"lng":140.886985},{"code":"04105050004","name":"明石南４丁目","lat":38.345927,"lng":140.886768},{"code":"04105050005","name":"明石南５丁目","lat":38.342967,"lng":140.884559},{"code":"04105050006","name":"明石南６丁目","lat":38.346226,"lng":140.88256},{"code":"04105051001","name":"八乙女中央１丁目","lat":38.312207,"lng":140.883299},{"code":"04105051002","name":"八乙女中央２丁目","lat":38.316456,"lng":140.88257},{"code":"04105051003","name":"八乙女中央３丁目","lat":38.314889,"lng":140.886797},{"code":"04105051004","name":"八乙女中央４丁目","lat":38.312547,"lng":140.889004},{"code":"04105051005","name":"八乙女中央５丁目","lat":38.310139,"lng":140.886669},{"code":"04105052001","name":"上谷刈１丁目","lat":38.316199,"lng":140.87709},{"code":"04105052002","name":"上谷刈２丁目","lat":38.317446,"lng":140.872063},{"code":"04105052003","name":"上谷刈３丁目","lat":38.318013,"lng":140.868731},{"code":"04105052004","name":"上谷刈４丁目","lat":38.314942,"lng":140.87172},{"code":"04105052005","name":"上谷刈５丁目","lat":38.313512,"lng":140.872931},{"code":"04105052006","name":"上谷刈６丁目","lat":38.314061,"lng":140.879648},{"code":"04105053001","name":"南中山１丁目","lat":38.301147,"lng":140.828175},{"code":"04105053002","name":"南中山２丁目","lat":38.308117,"lng":140.827846},{"code":"04105053003","name":"南中山３丁目","lat":38.312988,"lng":140.825718},{"code":"04105053004","name":"南中山４丁目","lat":38.313208,"lng":140.819874},{"code":"04105053005","name":"南中山５丁目","lat":38.309892,"lng":140.812892},{"code":"04105053006","name":"南中山６丁目","lat":38.310248,"lng":140.82111},{"code":"04105054001","name":"将監殿１丁目","lat":38.34004,"lng":140.881695},{"code":"04105054002","name":"将監殿２丁目","lat":38.344906,"lng":140.875895},{"code":"04105054003","name":"将監殿３丁目","lat":38.341581,"lng":140.878502},{"code":"04105054004","name":"将監殿４丁目","lat":38.341817,"lng":140.873434},{"code":"04105054005","name":"将監殿５丁目","lat":38.344344,"lng":140.872765},{"code":"04105055001","name":"大沢１丁目","lat":38.348452,"lng":140.880102},{"code":"04105055002","name":"大沢２丁目","lat":38.351457,"lng":140.875928},{"code":"04105055003","name":"大沢３丁目","lat":38.355842,"lng":140.875315}]}
