{"municipality":"04203","name":"塩竈市","prefecture":"宮城県","source":{"dataset":"frogcat/japan-small-area","census":"平成27年国勢調査 小地域（e-Stat 統計LOD）","license":"MIT（リポジトリ）／政府統計の総合窓口(e-Stat)の利用規約（元データ・出典表記必要）","fetched":"2026-07-06"},"towns":[{"code":"042030010","name":"海岸通","lat":38.318261,"lng":141.023328},{"code":"042030020","name":"尾島町","lat":38.315801,"lng":141.024333},{"code":"042030030","name":"旭町","lat":38.313692,"lng":141.021215},{"code":"04203004001","name":"港町１丁目","lat":38.318762,"lng":141.03081},{"code":"04203004002","name":"港町２丁目","lat":38.316941,"lng":141.030481},{"code":"042030050","name":"中の島","lat":38.314793,"lng":141.031119},{"code":"04203006001","name":"貞山通１丁目","lat":38.317064,"lng":141.041001},{"code":"04203006002","name":"貞山通２丁目","lat":38.314791,"lng":141.038992},{"code":"04203006003","name":"貞山通３丁目","lat":38.311793,"lng":141.036743},{"code":"04203007001","name":"舟入１丁目","lat":38.31236,"lng":141.030356},{"code":"04203007002","name":"舟入２丁目","lat":38.309904,"lng":141.031082},{"code":"042030080","name":"牛生町","lat":38.307284,"lng":141.031784},{"code":"042030090","name":"芦畔町","lat":38.304504,"lng":141.032379},{"code":"042030100","name":"新富町","lat":38.312214,"lng":141.025507},{"code":"042030120","name":"花立町","lat":38.308765,"lng":141.021466},{"code":"042030130","name":"東玉川町","lat":38.309772,"lng":141.010334},{"code":"042030140","name":"白萩町","lat":38.31048,"lng":141.012734},{"code":"042030150","name":"香津町","lat":38.312019,"lng":141.014887},{"code":"042030160","name":"佐浦町","lat":38.310986,"lng":141.01643},{"code":"042030170","name":"桜ヶ丘","lat":38.308932,"lng":141.014816},{"code":"042030180","name":"野田","lat":38.307274,"lng":141.010882},{"code":"042030190","name":"南錦町","lat":38.305729,"lng":141.011921},{"code":"042030200","name":"錦町","lat":38.309611,"lng":141.018194},{"code":"042030210","name":"赤坂","lat":38.315288,"lng":141.00835},{"code":"042030220","name":"石堂","lat":38.312781,"lng":141.011545},{"code":"042030230","name":"泉ケ岡","lat":38.315224,"lng":141.013468},{"code":"042030240","name":"本町","lat":38.316381,"lng":141.017924},{"code":"042030250","name":"南町","lat":38.314043,"lng":141.017477},{"code":"042030260","name":"西玉川町","lat":38.311773,"lng":141.00192},{"code":"042030270","name":"白菊町","lat":38.314388,"lng":141.00365},{"code":"04203028001","name":"玉川１丁目","lat":38.308567,"lng":141.005228},{"code":"04203028002","name":"玉川２丁目","lat":38.310034,"lng":141.0073},{"code":"04203028003","name":"玉川３丁目","lat":38.312222,"lng":141.006364},{"code":"042030290","name":"袖野田町","lat":38.306437,"lng":141.003533},{"code":"042030300","name":"向ケ丘","lat":38.317297,"lng":141.001808},{"code":"042030310","name":"大日向町","lat":38.314244,"lng":140.997756},{"code":"042030320","name":"母子沢町","lat":38.310598,"lng":140.999177},{"code":"042030330","name":"泉沢町","lat":38.323931,"lng":141.00725},{"code":"042030340","name":"栄町","lat":38.322008,"lng":141.004874},{"code":"042030350","name":"月見ケ丘","lat":38.320306,"lng":141.002836},{"code":"042030360","name":"権現堂","lat":38.318666,"lng":141.006745},{"code":"042030370","name":"後楽町","lat":38.327274,"lng":141.00176},{"code":"04203038001","name":"清水沢１丁目","lat":38.327348,"lng":141.008733},{"code":"04203038002","name":"清水沢２丁目","lat":38.328074,"lng":141.00506},{"code":"04203038003","name":"清水沢３丁目","lat":38.330838,"lng":141.008325},{"code":"04203038004","name":"清水沢４丁目","lat":38.334207,"lng":141.008508},{"code":"042030390","name":"一森山","lat":38.320528,"lng":141.011921},{"code":"042030400","name":"みのが丘","lat":38.321433,"lng":141.015449},{"code":"042030410","name":"宮町","lat":38.318442,"lng":141.017711},{"code":"042030420","name":"西町","lat":38.317549,"lng":141.011639},{"code":"042030430","name":"今宮町","lat":38.326723,"lng":141.012658},{"code":"042030440","name":"長沢町","lat":38.325944,"lng":141.014646},{"code":"042030450","name":"梅の宮","lat":38.327092,"lng":141.018046},{"code":"042030460","name":"小松崎","lat":38.323467,"lng":141.018704},{"code":"042030470","name":"字伊保石","lat":38.340558,"lng":141.018717},{"code":"042030480","name":"字庚塚","lat":38.332847,"lng":141.01847},{"code":"042030490","name":"字長沢","lat":38.329504,"lng":141.012619},{"code":"042030500","name":"字石田","lat":38.338599,"lng":141.029918},{"code":"042030510","name":"青葉ケ丘","lat":38.336842,"lng":141.030733},{"code":"04203052001","name":"越の浦１丁目","lat":38.335624,"lng":141.033111},{"code":"04203052002","name":"越の浦２丁目","lat":38.334969,"lng":141.030599},{"code":"042030530","name":"字越ノ浦","lat":38.337164,"lng":141.038161},{"code":"04203054001","name":"松陽台１丁目","lat":38.330762,"lng":141.02669},{"code":"04203054002","name":"松陽台２丁目","lat":38.331223,"lng":141.021391},{"code":"04203054003","name":"松陽台３丁目","lat":38.329385,"lng":141.021985},{"code":"04203055001","name":"楓町１丁目","lat":38.329352,"lng":141.030476},{"code":"04203055002","name":"楓町２丁目","lat":38.331537,"lng":141.029632},{"code":"04203055003","name":"楓町３丁目","lat":38.332214,"lng":141.031595},{"code":"04203056001","name":"藤倉１丁目","lat":38.326594,"lng":141.023928},{"code":"04203056002","name":"藤倉２丁目","lat":38.32711,"lng":141.027353},{"code":"04203056003","name":"藤倉３丁目","lat":38.326826,"lng":141.031661},{"code":"04203057001","name":"北浜１丁目","lat":38.320771,"lng":141.023377},{"code":"04203057002","name":"北浜２丁目","lat":38.321186,"lng":141.020763},{"code":"04203057003","name":"北浜３丁目","lat":38.324103,"lng":141.023468},{"code":"04203057004","name":"北浜４丁目","lat":38.323526,"lng":141.029738},{"code":"04203058001","name":"杉の入１丁目","lat":38.329846,"lng":141.034604},{"code":"04203058002","name":"杉の入２丁目","lat":38.3327,"lng":141.033534},{"code":"04203058003","name":"杉の入３丁目","lat":38.334036,"lng":141.036012},{"code":"04203058004","name":"杉の入４丁目","lat":38.333774,"lng":141.038392},{"code":"04203059001","name":"新浜町１丁目","lat":38.326343,"lng":141.040268},{"code":"04203059002","name":"新浜町２丁目","lat":38.330976,"lng":141.041118},{"code":"04203059003","name":"新浜町３丁目","lat":38.332192,"lng":141.047824},{"code":"042030600","name":"字杉の入裏","lat":38.335844,"lng":141.043872},{"code":"042030610","name":"浦戸桂島","lat":38.334032,"lng":141.090223},{"code":"042030620","name":"浦戸石浜","lat":38.331447,"lng":141.101696},{"code":"042030630","name":"浦戸野々島","lat":38.338335,"lng":141.111165},{"code":"042030640","name":"浦戸寒風沢","lat":38.334784,"lng":141.124171},{"code":"042030650","name":"浦戸朴島","lat":38.350091,"lng":141.118856},{"code":"04203066001","name":"千賀の台１丁目","lat":38.336811,"lng":141.020937},{"code":"04203066002","name":"千賀の台２丁目","lat":38.33814,"lng":141.019208},{"code":"04203066003","name":"千賀の台３丁目","lat":38.339278,"lng":141.020444}]}
