{"municipality":"04212","name":"登米市","prefecture":"宮城県","source":{"dataset":"frogcat/japan-small-area","census":"平成27年国勢調査 小地域（e-Stat 統計LOD）","license":"MIT（リポジトリ）／政府統計の総合窓口(e-Stat)の利用規約（元データ・出典表記必要）","fetched":"2026-07-06"},"towns":[{"code":"04212001000","name":"佐沼字下田中","lat":38.68722,"lng":141.1924},{"code":"04212001005","name":"佐沼字南駒木袋","lat":38.6843,"lng":141.212677},{"code":"04212001006","name":"佐沼字光ケ丘","lat":38.688947,"lng":141.211747},{"code":"04212001007","name":"佐沼字錦","lat":38.69223,"lng":141.208717},{"code":"04212001008","name":"佐沼字錦","lat":38.68789,"lng":141.20055},{"code":"04212001009","name":"佐沼字鉄砲丁","lat":38.691396,"lng":141.202153},{"code":"04212001010","name":"佐沼字東佐沼","lat":38.690608,"lng":141.198213},{"code":"04212001011","name":"佐沼字菜園","lat":38.695277,"lng":141.199848},{"code":"04212001012","name":"佐沼字梅ノ木１丁目","lat":38.695337,"lng":141.205789},{"code":"04212001013","name":"佐沼字大網","lat":38.67867,"lng":141.201246},{"code":"04212001014","name":"佐沼字大網","lat":38.680172,"lng":141.193083},{"code":"04212001015","name":"佐沼字南佐沼２丁目","lat":38.682682,"lng":141.188219},{"code":"04212001016","name":"佐沼字中江３丁目","lat":38.685324,"lng":141.192334},{"code":"04212001017","name":"佐沼字西佐沼","lat":38.684944,"lng":141.19673},{"code":"04212001018","name":"佐沼字西佐沼","lat":38.683214,"lng":141.199968},{"code":"04212001019","name":"佐沼字西佐沼","lat":38.687733,"lng":141.197241},{"code":"04212001020","name":"佐沼字小金丁","lat":38.6872,"lng":141.195762},{"code":"04212001021","name":"佐沼字下田中","lat":38.687244,"lng":141.193894},{"code":"04212001022","name":"佐沼字天神前","lat":38.689298,"lng":141.19237},{"code":"04212001023","name":"佐沼字天神前","lat":38.690861,"lng":141.194928},{"code":"04212001024","name":"佐沼字内町","lat":38.694338,"lng":141.195062},{"code":"04212001025","name":"佐沼字西館下","lat":38.697721,"lng":141.190814},{"code":"04212001052","name":"佐沼字沼向","lat":38.691349,"lng":141.187577},{"code":"04212001053","name":"佐沼字萩洗１丁目","lat":38.687763,"lng":141.18298},{"code":"04212001054","name":"佐沼字大網","lat":38.677014,"lng":141.196976},{"code":"04212001055","name":"佐沼字光ケ丘","lat":38.684497,"lng":141.203246},{"code":"04212002000","name":"新田","lat":38.710172,"lng":141.114496},{"code":"04212002037","name":"新田字東坂戸","lat":38.719828,"lng":141.135046},{"code":"04212002038","name":"新田字狼ノ欠","lat":38.708597,"lng":141.123154},{"code":"04212002039","name":"新田字倉崎","lat":38.714658,"lng":141.145241},{"code":"04212002040","name":"新田字山ノ神","lat":38.707999,"lng":141.136962},{"code":"04212002041","name":"新田字小友","lat":38.698046,"lng":141.121699},{"code":"04212002042","name":"新田字山居","lat":38.700989,"lng":141.113346},{"code":"04212002043","name":"新田字彦道","lat":38.705946,"lng":141.108412},{"code":"04212002044","name":"新田字大沢","lat":38.699753,"lng":141.084451},{"code":"04212002045","name":"新田字菱ノ倉","lat":38.692628,"lng":141.092795},{"code":"04212002046","name":"新田字上太田切","lat":38.686377,"lng":141.086268},{"code":"04212002047","name":"新田字日向","lat":38.676761,"lng":141.087529},{"code":"04212002048","name":"新田字駒林","lat":38.660166,"lng":141.088848},{"code":"04212002049","name":"新田字北立戸","lat":38.679672,"lng":141.115831},{"code":"04212002050","name":"新田字上葉ノ木沢","lat":38.680692,"lng":141.061745},{"code":"04212003000","name":"北方","lat":38.696769,"lng":141.137467},{"code":"04212003026","name":"北方字上ノ台","lat":38.682602,"lng":141.139097},{"code":"04212003027","name":"北方字兵糧","lat":38.689707,"lng":141.148941},{"code":"04212003028","name":"北方字来田","lat":38.697517,"lng":141.156893},{"code":"04212003029","name":"北方字大洞","lat":38.68979,"lng":141.165855},{"code":"04212003030","name":"北方字高見","lat":38.695017,"lng":141.179413},{"code":"04212003031","name":"北方字中沢","lat":38.704426,"lng":141.179304},{"code":"04212003032","name":"北方字早稲田","lat":38.70709,"lng":141.160739},{"code":"04212003033","name":"北方字新泥内","lat":38.719005,"lng":141.18334},{"code":"04212003034","name":"北方字仮屋","lat":38.716355,"lng":141.162942},{"code":"04212003035","name":"北方字新一番江","lat":38.726339,"lng":141.165943},{"code":"04212003036","name":"北方字飯土井","lat":38.722952,"lng":141.150812},{"code":"04212004001","name":"森字東表","lat":38.664427,"lng":141.224695},{"code":"04212004002","name":"森字金堀","lat":38.668712,"lng":141.209862},{"code":"04212004003","name":"森字八幡浦","lat":38.676827,"lng":141.218038},{"code":"04212004004","name":"森字上野","lat":38.68342,"lng":141.221879},{"code":"04212005001","name":"寺池上町","lat":38.658889,"lng":141.280317},{"code":"04212005002","name":"寺池桜小路","lat":38.655703,"lng":141.278745},{"code":"04212005003","name":"寺池桜小路","lat":38.652877,"lng":141.280566},{"code":"04212005004","name":"寺池桜小路","lat":38.653307,"lng":141.279039},{"code":"04212005005","name":"寺池桜小路","lat":38.651736,"lng":141.278277},{"code":"04212005006","name":"寺池前舟橋","lat":38.653506,"lng":141.277648},{"code":"04212005007","name":"寺池前舟橋","lat":38.653106,"lng":141.276201},{"code":"04212005008","name":"寺池前舟橋","lat":38.655211,"lng":141.274755},{"code":"04212005009","name":"寺池前舟橋","lat":38.656467,"lng":141.267751},{"code":"04212005010","name":"寺池鉄砲町","lat":38.648099,"lng":141.269488},{"code":"04212005011","name":"寺池金沢山","lat":38.646674,"lng":141.271535},{"code":"04212005012","name":"寺池鉄砲町","lat":38.648204,"lng":141.273473},{"code":"04212005013","name":"寺池鉄砲町","lat":38.649425,"lng":141.276576},{"code":"04212005014","name":"寺池金谷","lat":38.649914,"lng":141.280644},{"code":"04212005015","name":"寺池道場","lat":38.646124,"lng":141.280454},{"code":"04212005016","name":"寺池中町","lat":38.65101,"lng":141.281839},{"code":"04212005017","name":"寺池九日町","lat":38.651967,"lng":141.283238},{"code":"04212005018","name":"寺池桜小路","lat":38.654366,"lng":141.28262},{"code":"04212005019","name":"寺池三日町","lat":38.654244,"lng":141.284344},{"code":"04212005020","name":"寺池荒町","lat":38.655636,"lng":141.285371},{"code":"04212005021","name":"寺池荒町","lat":38.656024,"lng":141.28402},{"code":"04212005022","name":"寺池上町","lat":38.657838,"lng":141.285317},{"code":"04212005023","name":"寺池上町","lat":38.66237,"lng":141.284755},{"code":"04212005026","name":"寺池辺室山","lat":38.659635,"lng":141.274206},{"code":"04212005027","name":"寺池渋江","lat":38.660704,"lng":141.267308},{"code":"04212005040","name":"寺池金沢山","lat":38.647807,"lng":141.269368},{"code":"04212005041","name":"寺池道場","lat":38.63592,"lng":141.278207},{"code":"04212005042","name":"寺池上町","lat":38.661842,"lng":141.278921},{"code":"04212006028","name":"小島西岡谷地","lat":38.664355,"lng":141.258322},{"code":"04212006029","name":"小島上大谷地","lat":38.664395,"lng":141.252358},{"code":"04212006030","name":"小島木戸崎","lat":38.649724,"lng":141.258724},{"code":"04212006031","name":"小島東針田","lat":38.640144,"lng":141.261122},{"code":"04212006032","name":"小島西針田","lat":38.645525,"lng":141.253169},{"code":"04212006041","name":"小島東針田","lat":38.632505,"lng":141.26305},{"code":"04212006043","name":"小島木戸崎","lat":38.656794,"lng":141.248771},{"code":"04212007024","name":"日野渡蛭沢","lat":38.668418,"lng":141.280034},{"code":"04212007025","name":"日野渡南田","lat":38.667253,"lng":141.266938},{"code":"04212008033","name":"大字日根牛山田","lat":38.661166,"lng":141.290005},{"code":"04212008034","name":"大字日根牛浦小路","lat":38.651547,"lng":141.294789},{"code":"04212008035","name":"大字日根牛五郎峯","lat":38.645484,"lng":141.29333},{"code":"04212008036","name":"大字日根牛峯畑","lat":38.634809,"lng":141.296223},{"code":"04212008037","name":"大字日根牛北沢","lat":38.66604,"lng":141.303044},{"code":"04212008038","name":"大字日根牛入谷","lat":38.655882,"lng":141.306526},{"code":"04212008039","name":"大字日根牛下羽沢","lat":38.674736,"lng":141.344082},{"code":"04212008044","name":"大字日根牛下羽沢","lat":38.651571,"lng":141.324876},{"code":"04212009001","name":"米川字町裏","lat":38.772608,"lng":141.323791},{"code":"04212009002","name":"米川字町","lat":38.761134,"lng":141.319359},{"code":"04212009003","name":"米川字西綱木","lat":38.796425,"lng":141.32304},{"code":"04212009004","name":"米川字中島","lat":38.775077,"lng":141.340467},{"code":"04212009005","name":"米川字北上沢","lat":38.781674,"lng":141.357335},{"code":"04212009006","name":"米川字東上沢","lat":38.778996,"lng":141.390993},{"code":"04212009007","name":"米川字飯土井","lat":38.74371,"lng":141.320127},{"code":"04212009008","name":"米川字城の内","lat":38.750582,"lng":141.333632},{"code":"04212009009","name":"米川字軽米","lat":38.74355,"lng":141.350041},{"code":"04212009010","name":"米川字合ノ木","lat":38.741834,"lng":141.384435},{"code":"04212010001","name":"錦織字大舟渡","lat":38.727251,"lng":141.273176},{"code":"04212010002","name":"錦織字内ノ目","lat":38.737922,"lng":141.278429},{"code":"04212010003","name":"錦織字石倉","lat":38.717008,"lng":141.276888},{"code":"04212010004","name":"錦織字石沢","lat":38.732912,"lng":141.28817},{"code":"04212010005","name":"錦織字岩ノ沢","lat":38.763164,"lng":141.283903},{"code":"04212010006","name":"錦織","lat":38.775897,"lng":141.289387},{"code":"04212011001","name":"米谷字根郭","lat":38.711376,"lng":141.293395},{"code":"04212011002","name":"米谷字元町","lat":38.705336,"lng":141.28844},{"code":"04212011003","name":"米谷字越路","lat":38.703734,"lng":141.297751},{"code":"04212011004","name":"米谷字寺沢","lat":38.68491,"lng":141.29369},{"code":"04212011005","name":"米谷字山崎","lat":38.688724,"lng":141.31128},{"code":"04212011006","name":"米谷字福平","lat":38.708783,"lng":141.325117},{"code":"04212011007","name":"米谷字相川","lat":38.714002,"lng":141.343249},{"code":"04212011008","name":"米谷字根廻","lat":38.726391,"lng":141.302101},{"code":"04212011009","name":"米谷字新大沢","lat":38.743584,"lng":141.300922},{"code":"04212012001","name":"石森字蓬田","lat":38.711236,"lng":141.224868},{"code":"04212012002","name":"石森字野元","lat":38.703546,"lng":141.226616},{"code":"04212012003","name":"石森字駒牽","lat":38.707418,"lng":141.220397},{"code":"04212012004","name":"石森字本町","lat":38.692495,"lng":141.226599},{"code":"04212012005","name":"石森字前田","lat":38.720885,"lng":141.214162},{"code":"04212012006","name":"石森字町","lat":38.722914,"lng":141.204523},{"code":"04212012007","name":"石森字前田","lat":38.725197,"lng":141.214897},{"code":"04212012008","name":"石森字白地","lat":38.735724,"lng":141.209054},{"code":"04212012009","name":"石森字二ツ木","lat":38.727576,"lng":141.225015},{"code":"04212012010","name":"石森字中田","lat":38.736614,"lng":141.224435},{"code":"04212012011","name":"石森字長根","lat":38.744847,"lng":141.220804},{"code":"04212012012","name":"石森字熊野堂","lat":38.710607,"lng":141.196934},{"code":"04212012013","name":"石森字川原毛","lat":38.708799,"lng":141.213114},{"code":"04212012014","name":"石森字高鼻","lat":38.705341,"lng":141.204615},{"code":"04212012015","name":"石森字舘","lat":38.693553,"lng":141.221017},{"code":"04212012016","name":"石森字室木","lat":38.716817,"lng":141.20953},{"code":"04212012017","name":"石森字室木","lat":38.718473,"lng":141.218964},{"code":"04212012018","name":"石森字加賀野一丁目","lat":38.703988,"lng":141.214919},{"code":"04212012019","name":"石森字加賀野二丁目","lat":38.70146,"lng":141.211518},{"code":"04212012020","name":"石森字表","lat":38.698795,"lng":141.210034},{"code":"04212013018","name":"宝江黒沼字蓬原","lat":38.703829,"lng":141.238992},{"code":"04212013019","name":"宝江黒沼字大海崎","lat":38.710112,"lng":141.242104},{"code":"04212013020","name":"宝江黒沼字東","lat":38.703302,"lng":141.25053},{"code":"04212013021","name":"宝江黒沼字町","lat":38.694756,"lng":141.248396},{"code":"04212013022","name":"宝江新井田字舘","lat":38.688705,"lng":141.246817},{"code":"04212013023","name":"宝江新井田字加賀野境","lat":38.693879,"lng":141.236678},{"code":"04212013024","name":"宝江新井田字荒谷","lat":38.684723,"lng":141.234445},{"code":"04212013025","name":"宝江新井田字中斉","lat":38.68166,"lng":141.244579},{"code":"04212013026","name":"宝江新井田字上待井","lat":38.677467,"lng":141.254333},{"code":"04212013027","name":"宝江新井田字弥平構","lat":38.669907,"lng":141.242447},{"code":"04212014028","name":"上沼字弥勒寺山崎","lat":38.730029,"lng":141.262627},{"code":"04212014029","name":"上沼字弥勒寺倉沼","lat":38.73784,"lng":141.264551},{"code":"04212014030","name":"上沼字金谷","lat":38.726784,"lng":141.238516},{"code":"04212014031","name":"上沼字金谷","lat":38.735422,"lng":141.255537},{"code":"04212014032","name":"上沼字長根","lat":38.744486,"lng":141.255196},{"code":"04212014033","name":"上沼字長崎","lat":38.748016,"lng":141.245314},{"code":"04212014034","name":"上沼字小塚前","lat":38.743931,"lng":141.271556},{"code":"04212014035","name":"上沼字小塚前","lat":38.749171,"lng":141.268328},{"code":"04212014036","name":"上沼字新本宮","lat":38.754083,"lng":141.273617},{"code":"04212014037","name":"上沼字大泉門畑","lat":38.765856,"lng":141.263484},{"code":"04212014038","name":"上沼字境前","lat":38.727049,"lng":141.256189},{"code":"04212014039","name":"上沼字要害","lat":38.722894,"lng":141.251081},{"code":"04212014040","name":"上沼字舘","lat":38.71832,"lng":141.241247},{"code":"04212014041","name":"上沼字大柳","lat":38.712694,"lng":141.232735},{"code":"04212014042","name":"上沼字谷地前","lat":38.714693,"lng":141.250154},{"code":"04212015043","name":"浅水字中川面","lat":38.717263,"lng":141.261123},{"code":"04212015044","name":"浅水字中川面","lat":38.708647,"lng":141.261706},{"code":"04212015045","name":"浅水字荒神堂","lat":38.703088,"lng":141.266502},{"code":"04212015046","name":"浅水字小島","lat":38.688935,"lng":141.265915},{"code":"04212015047","name":"浅水字浅部玉山","lat":38.677646,"lng":141.276835},{"code":"04212015048","name":"浅水字嶺形","lat":38.688102,"lng":141.28275},{"code":"04212015049","name":"浅水字嶺鍛冶屋","lat":38.700095,"lng":141.275174},{"code":"04212015050","name":"浅水字長谷山","lat":38.699606,"lng":141.284095},{"code":"04212015051","name":"浅水字嶺鍛冶屋","lat":38.712909,"lng":141.28617},{"code":"04212016001","name":"新田町","lat":38.581196,"lng":141.254067},{"code":"04212016002","name":"土手下","lat":38.586766,"lng":141.254504},{"code":"04212016003","name":"東待井下","lat":38.587332,"lng":141.248212},{"code":"04212016004","name":"横町","lat":38.582436,"lng":141.244119},{"code":"04212016005","name":"新田町","lat":38.580186,"lng":141.246455},{"code":"04212016006","name":"七ッ塚","lat":38.577775,"lng":141.245682},{"code":"04212016007","name":"新田町","lat":38.576242,"lng":141.237084},{"code":"04212016008","name":"二ッ屋","lat":38.569594,"lng":141.228389},{"code":"04212016009","name":"二ッ屋","lat":38.570753,"lng":141.217719},{"code":"04212016010","name":"上谷地","lat":38.579658,"lng":141.202462},{"code":"04212016011","name":"内畑","lat":38.595675,"lng":141.20561},{"code":"04212016012","name":"大曲","lat":38.5881,"lng":141.22483},{"code":"04212016013","name":"久寿田","lat":38.601562,"lng":141.23871},{"code":"04212016014","name":"鳥越","lat":38.599942,"lng":141.250571},{"code":"04212016015","name":"大沢","lat":38.616867,"lng":141.255442},{"code":"04212016016","name":"蕉木","lat":38.598782,"lng":141.259178},{"code":"04212016017","name":"長根浦","lat":38.589506,"lng":141.261803},{"code":"04212016018","name":"竹ノ沢","lat":38.610203,"lng":141.268092},{"code":"04212017018","name":"山根","lat":38.623566,"lng":141.276253},{"code":"04212017019","name":"白鳥","lat":38.607403,"lng":141.285847},{"code":"04212017020","name":"迫","lat":38.616299,"lng":141.286643},{"code":"04212019001","name":"字桜岡狐崎","lat":38.611193,"lng":141.227013},{"code":"04212019002","name":"字桜岡東流新田","lat":38.605039,"lng":141.227606},{"code":"04212019003","name":"字桜岡中新田","lat":38.60285,"lng":141.21724},{"code":"04212019004","name":"字桜岡新田","lat":38.609513,"lng":141.210815},{"code":"04212019005","name":"字桜岡鈴根","lat":38.62108,"lng":141.215},{"code":"04212019006","name":"字桜岡江浪","lat":38.62999,"lng":141.210807},{"code":"04212019007","name":"字善王寺稲生荷","lat":38.637095,"lng":141.212103},{"code":"04212019008","name":"字桜岡大又","lat":38.630888,"lng":141.225734},{"code":"04212019009","name":"字桜岡今泉","lat":38.626611,"lng":141.220808},{"code":"04212019010","name":"字桜岡貝待井","lat":38.620632,"lng":141.23418},{"code":"04212020011","name":"字善王寺末田","lat":38.630765,"lng":141.244679},{"code":"04212020012","name":"字善王寺和道","lat":38.64117,"lng":141.245335},{"code":"04212020013","name":"字善王寺小待井","lat":38.646959,"lng":141.231292},{"code":"04212020014","name":"字善王寺朝来下","lat":38.637477,"lng":141.224651},{"code":"04212020015","name":"字田畑西","lat":38.647475,"lng":141.217494},{"code":"04212020016","name":"字水門","lat":38.655868,"lng":141.215578},{"code":"04212021017","name":"西野字藤渡戸","lat":38.638957,"lng":141.203262},{"code":"04212021018","name":"西野字下小路","lat":38.630363,"lng":141.203206},{"code":"04212021019","name":"西野字平埣","lat":38.607199,"lng":141.197127},{"code":"04212021020","name":"西野字十日町","lat":38.622092,"lng":141.202382},{"code":"04212021021","name":"西野字中町","lat":38.624367,"lng":141.195802},{"code":"04212021022","name":"西野字中町","lat":38.62555,"lng":141.194352},{"code":"04212021023","name":"西野字見通","lat":38.630753,"lng":141.185593},{"code":"04212021024","name":"西野字西筒","lat":38.63942,"lng":141.172957},{"code":"04212021025","name":"西野字西小路","lat":38.635481,"lng":141.195263},{"code":"04212022026","name":"中津山字筒場内","lat":38.614614,"lng":141.179625},{"code":"04212022027","name":"中津山字羽場","lat":38.620357,"lng":141.166974},{"code":"04212022028","name":"中津山字清水","lat":38.623163,"lng":141.156172},{"code":"04212022029","name":"中津山字粟ケ崎","lat":38.631894,"lng":141.155024},{"code":"04212022030","name":"中津山字下待井","lat":38.635576,"lng":141.148221},{"code":"04212022031","name":"中津山字明神前","lat":38.628522,"lng":141.165509},{"code":"04212022032","name":"中津山字上納","lat":38.621134,"lng":141.181224},{"code":"04212022033","name":"中津山字筒場埣","lat":38.605835,"lng":141.175078},{"code":"04212022034","name":"中津山字猪込","lat":38.612441,"lng":141.155902},{"code":"04212022035","name":"中津山字斎藤","lat":38.62291,"lng":141.138063},{"code":"04212022036","name":"中津山字西千貫","lat":38.641062,"lng":141.135961},{"code":"04212023001","name":"北郷字中沢","lat":38.761518,"lng":141.180737},{"code":"04212023002","name":"北郷字長根","lat":38.762814,"lng":141.18685},{"code":"04212023003","name":"北郷字長根","lat":38.75597,"lng":141.184823},{"code":"04212023008","name":"北郷字芦倉","lat":38.768286,"lng":141.166092},{"code":"04212023009","name":"北郷字西門","lat":38.77009,"lng":141.161721},{"code":"04212023010","name":"北郷字赤谷","lat":38.773156,"lng":141.182882},{"code":"04212023011","name":"北郷字赤谷","lat":38.772423,"lng":141.168132},{"code":"04212023012","name":"南郷字小谷地前","lat":38.777254,"lng":141.160288},{"code":"04212023013","name":"北郷字橋向","lat":38.777441,"lng":141.177285},{"code":"04212023014","name":"北郷字丸谷地","lat":38.770807,"lng":141.189134},{"code":"04212023017","name":"東郷字加慶","lat":38.745411,"lng":141.193709},{"code":"04212023020","name":"北郷字遠沢","lat":38.766296,"lng":141.175214},{"code":"04212024003","name":"南郷字矢作","lat":38.752747,"lng":141.181402},{"code":"04212024004","name":"南郷字愛宕","lat":38.749862,"lng":141.17222},{"code":"04212024005","name":"南郷字前新田","lat":38.740446,"lng":141.164756},{"code":"04212024006","name":"南郷字とど台","lat":38.752132,"lng":141.161153},{"code":"04212024007","name":"南郷字田上","lat":38.76004,"lng":141.162799},{"code":"04212024008","name":"南郷字新田","lat":38.76581,"lng":141.166319},{"code":"04212024009","name":"南郷字西門沖","lat":38.767068,"lng":141.157289},{"code":"04212024020","name":"南郷字芦倉","lat":38.763828,"lng":141.172872},{"code":"04212025002","name":"東郷字苦木","lat":38.757943,"lng":141.19293},{"code":"04212025015","name":"東郷字千貫巻","lat":38.7661,"lng":141.199166},{"code":"04212025016","name":"北郷字長根","lat":38.752014,"lng":141.192484},{"code":"04212025017","name":"東郷字大根沢","lat":38.744132,"lng":141.182818},{"code":"04212025018","name":"東郷字平町","lat":38.740881,"lng":141.199841},{"code":"04212025019","name":"東郷字登戸","lat":38.730853,"lng":141.189985},{"code":"04212025021","name":"東郷字黒山","lat":38.754328,"lng":141.203684},{"code":"042120260","name":"峯","lat":38.674816,"lng":141.185546},{"code":"042120270","name":"板倉","lat":38.678434,"lng":141.173792},{"code":"042120280","name":"沢田屋敷","lat":38.671526,"lng":141.162016},{"code":"042120290","name":"青島屋敷","lat":38.671271,"lng":141.1518},{"code":"042120300","name":"原屋敷","lat":38.663968,"lng":141.175032},{"code":"042120310","name":"鴻ノ木","lat":38.668631,"lng":141.197549},{"code":"042120320","name":"宿畑","lat":38.666733,"lng":141.185353},{"code":"042120330","name":"細川","lat":38.660602,"lng":141.181236},{"code":"042120340","name":"堀切","lat":38.660091,"lng":141.19036},{"code":"042120350","name":"堂地","lat":38.655957,"lng":141.202993},{"code":"042120360","name":"瀬川","lat":38.647992,"lng":141.199269},{"code":"042120370","name":"館浦","lat":38.653268,"lng":141.184024},{"code":"042120380","name":"内鰐丸","lat":38.65513,"lng":141.170747},{"code":"042120390","name":"梶沼","lat":38.645843,"lng":141.183332},{"code":"042120400","name":"田中浦","lat":38.646984,"lng":141.165904},{"code":"042120410","name":"大袋","lat":38.648667,"lng":141.150363},{"code":"042120420","name":"西山成前","lat":38.660282,"lng":141.163817},{"code":"042120430","name":"堤田","lat":38.657254,"lng":141.122087},{"code":"042120440","name":"銭金壇","lat":38.653733,"lng":141.115011},{"code":"042120450","name":"中ノ口","lat":38.659396,"lng":141.10236},{"code":"042120460","name":"沼崎","lat":38.647013,"lng":141.098712},{"code":"042120470","name":"太田","lat":38.643131,"lng":141.120762},{"code":"042120480","name":"大埣","lat":38.630104,"lng":141.120098},{"code":"042120490","name":"高石","lat":38.657697,"lng":141.153808},{"code":"042120500","name":"高石","lat":38.658676,"lng":141.14493},{"code":"042120510","name":"長根","lat":38.659687,"lng":141.136566},{"code":"042120520","name":"大上","lat":38.66353,"lng":141.127167},{"code":"042120530","name":"実沢","lat":38.670235,"lng":141.118548},{"code":"042120540","name":"中須崎","lat":38.670547,"lng":141.138054},{"code":"04212055001","name":"柳津字黄牛新岩前","lat":38.604767,"lng":141.324176},{"code":"04212055002","name":"柳津字大柳津","lat":38.586238,"lng":141.305077},{"code":"04212055003","name":"柳津字茶臼","lat":38.585324,"lng":141.294802},{"code":"04212055004","name":"柳津字町","lat":38.603757,"lng":141.29999},{"code":"04212055005","name":"柳津字町","lat":38.605991,"lng":141.301339},{"code":"04212055006","name":"柳津字形沼","lat":38.608912,"lng":141.302689},{"code":"04212055007","name":"柳津字本町","lat":38.612651,"lng":141.299291},{"code":"04212055010","name":"柳津字黄牛比良","lat":38.616566,"lng":141.300717},{"code":"04212055011","name":"柳津字黄牛田高畑","lat":38.612257,"lng":141.308098},{"code":"04212055013","name":"柳津字舘石","lat":38.604363,"lng":141.325251},{"code":"04212055014","name":"柳津字黄牛宇名","lat":38.630206,"lng":141.325893},{"code":"04212055015","name":"柳津字黄牛比良","lat":38.621326,"lng":141.297258},{"code":"04212056001","name":"横山字地志貝","lat":38.629274,"lng":141.367371},{"code":"04212056016","name":"横山字野尻","lat":38.601759,"lng":141.374591},{"code":"04212056017","name":"横山字地志貝","lat":38.615544,"lng":141.360083},{"code":"04212056018","name":"横山字水沢","lat":38.622699,"lng":141.35597},{"code":"04212056019","name":"横山字伊貝","lat":38.620936,"lng":141.32955},{"code":"04212056020","name":"横山字久保","lat":38.627574,"lng":141.349897},{"code":"04212056021","name":"横山字山梨子板","lat":38.630978,"lng":141.339195},{"code":"04212056022","name":"横山字上の山","lat":38.635713,"lng":141.357015},{"code":"04212056023","name":"横山字上鴻巣","lat":38.632641,"lng":141.35809},{"code":"04212056025","name":"横山字黒沢","lat":38.640348,"lng":141.369452},{"code":"04212056026","name":"横山字宮田","lat":38.630625,"lng":141.380451},{"code":"04212056027","name":"横山字青木","lat":38.630923,"lng":141.349929}]}
