{"municipality":"04324","name":"柴田郡川崎町","prefecture":"宮城県","source":{"dataset":"frogcat/japan-small-area","census":"平成27年国勢調査 小地域（e-Stat 統計LOD）","license":"MIT（リポジトリ）／政府統計の総合窓口(e-Stat)の利用規約（元データ・出典表記必要）","fetched":"2026-07-06"},"towns":[{"code":"04324001001","name":"大字前川字北原","lat":38.180039,"lng":140.643662},{"code":"04324001002","name":"大字前川字本町","lat":38.176533,"lng":140.633149},{"code":"04324001003","name":"大字前川字中町","lat":38.172088,"lng":140.64946},{"code":"04324001004","name":"大字前川字大向","lat":38.151206,"lng":140.623279},{"code":"04324001005","name":"大字前川字後沢山","lat":38.162467,"lng":140.582615},{"code":"04324001006","name":"青根温泉青根温泉字手代塚山","lat":38.152064,"lng":140.512153},{"code":"04324002007","name":"大字本砂金字三方倉山","lat":38.246698,"lng":140.610587},{"code":"04324002008","name":"大字本砂金字安達","lat":38.221312,"lng":140.660125},{"code":"04324003009","name":"大字小野字大平山","lat":38.214463,"lng":140.688326},{"code":"04324003010","name":"大字小野字熊野山","lat":38.189254,"lng":140.674269},{"code":"04324004011","name":"大字川内字大原前","lat":38.195042,"lng":140.635476},{"code":"04324004012","name":"大字川内字向原","lat":38.206817,"lng":140.660712},{"code":"04324004013","name":"大字川内字腰田","lat":38.218786,"lng":140.61468},{"code":"04324005014","name":"大字今宿","lat":38.213432,"lng":140.514908},{"code":"04324005015","name":"大字今宿字叺畑","lat":38.211099,"lng":140.562637},{"code":"04324005016","name":"大字今宿字シシナゴ","lat":38.196109,"lng":140.59334},{"code":"04324005017","name":"大字今宿字青根道上","lat":38.18132,"lng":140.580833},{"code":"04324006018","name":"大字支倉字赤沢山","lat":38.200992,"lng":140.716902},{"code":"04324006019","name":"大字支倉字大石田","lat":38.17766,"lng":140.726443},{"code":"04324006020","name":"大字支倉字塩沢","lat":38.162894,"lng":140.708689},{"code":"04324006021","name":"大字支倉字五石造","lat":38.179564,"lng":140.685346},{"code":"043240070","name":"支倉台","lat":38.200895,"lng":140.736201}]}
