{"municipality":"04423","name":"黒川郡富谷町","prefecture":"宮城県","source":{"dataset":"frogcat/japan-small-area","census":"平成27年国勢調査 小地域（e-Stat 統計LOD）","license":"MIT（リポジトリ）／政府統計の総合窓口(e-Stat)の利用規約（元データ・出典表記必要）","fetched":"2026-07-06"},"towns":[{"code":"04423001001","name":"富ケ丘１丁目","lat":38.361527,"lng":140.871128},{"code":"04423001002","name":"富ケ丘２丁目","lat":38.363049,"lng":140.866356},{"code":"04423001003","name":"富ケ丘３丁目","lat":38.368086,"lng":140.863534},{"code":"04423001004","name":"富ケ丘４丁目","lat":38.367821,"lng":140.866785},{"code":"04423002001","name":"鷹乃杜１丁目","lat":38.364765,"lng":140.869981},{"code":"04423002002","name":"鷹乃杜２丁目","lat":38.366292,"lng":140.871035},{"code":"04423002003","name":"鷹乃杜３丁目","lat":38.368304,"lng":140.870628},{"code":"04423002004","name":"鷹乃杜４丁目","lat":38.369974,"lng":140.871966},{"code":"04423003001","name":"富谷字源内","lat":38.378567,"lng":140.872183},{"code":"04423003002","name":"富谷字仏所","lat":38.401029,"lng":140.879562},{"code":"04423003003","name":"富谷字一枚沖","lat":38.397518,"lng":140.877731},{"code":"04423003004","name":"富谷字町","lat":38.397599,"lng":140.886483},{"code":"04423003005","name":"富谷字湯船沢","lat":38.391941,"lng":140.883562},{"code":"04423003006","name":"富谷字日渡","lat":38.395932,"lng":140.87947},{"code":"04423003007","name":"富谷字栃木沢","lat":38.388007,"lng":140.879074},{"code":"04423003008","name":"富谷字原下","lat":38.39954,"lng":140.890679},{"code":"04423003009","name":"富谷字狸屋敷","lat":38.400034,"lng":140.895818},{"code":"04423003010","name":"富谷字西沢","lat":38.403114,"lng":140.892414},{"code":"04423003011","name":"富谷字清水沢","lat":38.396169,"lng":140.888941},{"code":"04423003012","name":"富谷字宮ノ沢","lat":38.394981,"lng":140.890941},{"code":"04423003013","name":"富谷字清水仲","lat":38.397125,"lng":140.894936},{"code":"04423003014","name":"富谷字奈良木沢上","lat":38.403612,"lng":140.902557},{"code":"04423003015","name":"富谷字原前北","lat":38.395012,"lng":140.905381},{"code":"04423003016","name":"富谷字根崎沢","lat":38.390865,"lng":140.889901},{"code":"04423003017","name":"富谷字桜田","lat":38.396829,"lng":140.901316},{"code":"04423003018","name":"富谷字唐竹沢","lat":38.37189,"lng":140.861359},{"code":"044230080","name":"一ノ関","lat":38.40797,"lng":140.872927},{"code":"044230090","name":"二ノ関","lat":38.419041,"lng":140.879484},{"code":"044230100","name":"三ノ関","lat":38.413958,"lng":140.895074},{"code":"04423011001","name":"太子堂１丁目","lat":38.411976,"lng":140.892311},{"code":"04423011002","name":"太子堂２丁目","lat":38.414325,"lng":140.892522},{"code":"044230120","name":"志戸田","lat":38.426815,"lng":140.892253},{"code":"044230130","name":"穀田","lat":38.38015,"lng":140.890541},{"code":"044230140","name":"大童","lat":38.398347,"lng":140.914047},{"code":"044230150","name":"今泉","lat":38.391184,"lng":140.926518},{"code":"044230160","name":"大亀","lat":38.367493,"lng":140.92918},{"code":"044230170","name":"石積","lat":38.359715,"lng":140.920104},{"code":"044230180","name":"明石","lat":38.357771,"lng":140.883347},{"code":"044230184","name":"明石","lat":38.348061,"lng":140.91116},{"code":"044230190","name":"西成田","lat":38.37946,"lng":140.904641},{"code":"04423020001","name":"東向陽台１丁目","lat":38.340488,"lng":140.905484},{"code":"04423020002","name":"東向陽台２丁目","lat":38.339113,"lng":140.903253},{"code":"04423020003","name":"東向陽台３丁目","lat":38.342843,"lng":140.89627},{"code":"04423021001","name":"あけの平１丁目","lat":38.381116,"lng":140.875468},{"code":"04423021002","name":"あけの平２丁目","lat":38.377968,"lng":140.877217},{"code":"04423021003","name":"あけの平３丁目","lat":38.374818,"lng":140.878478},{"code":"04423022001","name":"ひより台１丁目","lat":38.405258,"lng":140.884437},{"code":"04423022002","name":"ひより台２丁目","lat":38.404347,"lng":140.887938},{"code":"04423023001","name":"日吉台１丁目","lat":38.373414,"lng":140.865319},{"code":"04423023002","name":"日吉台２丁目","lat":38.376938,"lng":140.864847},{"code":"04423023003","name":"日吉台３丁目","lat":38.379946,"lng":140.867554},{"code":"04423024001","name":"明石台１丁目","lat":38.344304,"lng":140.898699},{"code":"04423024002","name":"明石台２丁目","lat":38.345759,"lng":140.892557},{"code":"04423024003","name":"明石台３丁目","lat":38.348115,"lng":140.888035},{"code":"04423024004","name":"明石台４丁目","lat":38.350345,"lng":140.885171},{"code":"04423024005","name":"明石台５丁目","lat":38.351584,"lng":140.890393},{"code":"04423024006","name":"明石台６丁目","lat":38.349247,"lng":140.894764},{"code":"04423024007","name":"明石台７丁目","lat":38.348476,"lng":140.899229},{"code":"04423024008","name":"明石台８丁目","lat":38.343709,"lng":140.903156},{"code":"04423024009","name":"明石台９丁目","lat":38.352218,"lng":140.897832},{"code":"04423026001","name":"成田１丁目","lat":38.36383,"lng":140.891865},{"code":"04423026002","name":"成田２丁目","lat":38.366337,"lng":140.887611},{"code":"04423026003","name":"成田３丁目","lat":38.366957,"lng":140.896595},{"code":"04423026004","name":"成田４丁目","lat":38.36184,"lng":140.895995},{"code":"04423026005","name":"成田５丁目","lat":38.36259,"lng":140.899901},{"code":"04423026006","name":"成田６丁目","lat":38.364196,"lng":140.902734},{"code":"04423026007","name":"成田７丁目","lat":38.358028,"lng":140.897788},{"code":"04423026008","name":"成田８丁目","lat":38.357872,"lng":140.893309},{"code":"04423026009","name":"成田９丁目","lat":38.35814,"lng":140.88684},{"code":"04423027001","name":"とちの木１丁目","lat":38.388647,"lng":140.883137},{"code":"04423027002","name":"とちの木２丁目","lat":38.386814,"lng":140.882643},{"code":"04423028001","name":"上桜木１丁目","lat":38.359942,"lng":140.876895},{"code":"04423028002","name":"上桜木２丁目","lat":38.360238,"lng":140.880352},{"code":"04423029001","name":"杜乃橋１丁目","lat":38.383556,"lng":140.87051},{"code":"04423029002","name":"杜乃橋２丁目","lat":38.387619,"lng":140.872224},{"code":"04423030001","name":"大清水１丁目","lat":38.368395,"lng":140.875725},{"code":"04423030002","name":"大清水２丁目","lat":38.366734,"lng":140.880727}]}
