{"municipality":"06202","name":"米沢市","prefecture":"山形県","source":{"dataset":"frogcat/japan-small-area","census":"平成27年国勢調査 小地域（e-Stat 統計LOD）","license":"MIT（リポジトリ）／政府統計の総合窓口(e-Stat)の利用規約（元データ・出典表記必要）","fetched":"2026-07-06"},"towns":[{"code":"06202001001","name":"駅前１丁目","lat":37.909545,"lng":140.128393},{"code":"06202001002","name":"駅前２丁目","lat":37.909849,"lng":140.121861},{"code":"06202001003","name":"駅前３丁目","lat":37.91169,"lng":140.12494},{"code":"06202001004","name":"駅前４丁目","lat":37.91257,"lng":140.120556},{"code":"06202002001","name":"下花沢１丁目","lat":37.905691,"lng":140.131559},{"code":"06202002002","name":"下花沢２丁目","lat":37.910643,"lng":140.131173},{"code":"06202002003","name":"下花沢３丁目","lat":37.916724,"lng":140.128451},{"code":"06202003001","name":"通町１丁目","lat":37.885221,"lng":140.1339},{"code":"06202003002","name":"通町２丁目","lat":37.886486,"lng":140.127969},{"code":"06202003003","name":"通町３丁目","lat":37.889817,"lng":140.132505},{"code":"06202003004","name":"通町４丁目","lat":37.890072,"lng":140.127318},{"code":"06202003005","name":"通町５丁目","lat":37.894082,"lng":140.130714},{"code":"06202003006","name":"通町６丁目","lat":37.893284,"lng":140.124436},{"code":"06202003007","name":"通町７丁目","lat":37.89812,"lng":140.129345},{"code":"06202003008","name":"通町８丁目","lat":37.898779,"lng":140.123513},{"code":"062020040","name":"花沢町","lat":37.915811,"lng":140.123598},{"code":"06202005001","name":"東１丁目","lat":37.90269,"lng":140.12761},{"code":"06202005002","name":"東２丁目","lat":37.90483,"lng":140.123365},{"code":"06202005003","name":"東３丁目","lat":37.907615,"lng":140.126225},{"code":"06202006001","name":"東大通１丁目","lat":37.888418,"lng":140.136747},{"code":"06202006002","name":"東大通２丁目","lat":37.893589,"lng":140.135296},{"code":"06202006003","name":"東大通３丁目","lat":37.900627,"lng":140.132585},{"code":"062020070","name":"花沢町","lat":37.921877,"lng":140.123664},{"code":"062020080","name":"大字花沢","lat":37.925346,"lng":140.12711},{"code":"062020090","name":"相生町","lat":37.906235,"lng":140.118273},{"code":"062020100","name":"吾妻町","lat":37.892752,"lng":140.119696},{"code":"06202011001","name":"泉町１丁目","lat":37.891897,"lng":140.106478},{"code":"06202011002","name":"泉町２丁目","lat":37.893171,"lng":140.102995},{"code":"06202012001","name":"大町１丁目","lat":37.904034,"lng":140.112584},{"code":"06202012002","name":"大町２丁目","lat":37.906198,"lng":140.113209},{"code":"06202012003","name":"大町３丁目","lat":37.908597,"lng":140.113887},{"code":"06202012004","name":"大町４丁目","lat":37.910507,"lng":140.115768},{"code":"06202012005","name":"大町５丁目","lat":37.913022,"lng":140.114408},{"code":"06202013001","name":"太田町１丁目","lat":37.894751,"lng":140.115684},{"code":"06202013002","name":"太田町２丁目","lat":37.898815,"lng":140.114915},{"code":"06202013003","name":"太田町３丁目","lat":37.89779,"lng":140.111633},{"code":"06202013004","name":"太田町４丁目","lat":37.893588,"lng":140.110608},{"code":"06202013005","name":"太田町５丁目","lat":37.892284,"lng":140.115001},{"code":"06202014001","name":"城南１丁目","lat":37.90599,"lng":140.104822},{"code":"06202014002","name":"城南２丁目","lat":37.903057,"lng":140.105761},{"code":"06202014003","name":"城南３丁目","lat":37.904009,"lng":140.102698},{"code":"06202014004","name":"城南４丁目","lat":37.900035,"lng":140.104693},{"code":"06202014005","name":"城南５丁目","lat":37.897243,"lng":140.103063},{"code":"06202015001","name":"福田町１丁目","lat":37.899168,"lng":140.118555},{"code":"06202015002","name":"福田町２丁目","lat":37.902757,"lng":140.118598},{"code":"06202016001","name":"本町１丁目","lat":37.898535,"lng":140.108382},{"code":"06202016002","name":"本町２丁目","lat":37.902093,"lng":140.109144},{"code":"06202016003","name":"本町３丁目","lat":37.901786,"lng":140.112784},{"code":"06202017001","name":"松が岬１丁目","lat":37.907081,"lng":140.100715},{"code":"06202017002","name":"松が岬２丁目","lat":37.909859,"lng":140.100633},{"code":"06202017003","name":"松が岬３丁目","lat":37.912567,"lng":140.101817},{"code":"06202018001","name":"丸の内１丁目","lat":37.908993,"lng":140.105271},{"code":"06202018002","name":"丸の内２丁目","lat":37.911917,"lng":140.10594},{"code":"06202019001","name":"門東町１丁目","lat":37.905824,"lng":140.109299},{"code":"06202019002","name":"門東町２丁目","lat":37.909251,"lng":140.110132},{"code":"06202019003","name":"門東町３丁目","lat":37.911334,"lng":140.110635},{"code":"062020200","name":"堀川町","lat":37.905342,"lng":140.09821},{"code":"06202021001","name":"林泉寺１丁目","lat":37.900298,"lng":140.100727},{"code":"06202021002","name":"林泉寺２丁目","lat":37.902354,"lng":140.097931},{"code":"06202021003","name":"林泉寺３丁目","lat":37.898627,"lng":140.098329},{"code":"062020220","name":"木場町","lat":37.917245,"lng":140.093801},{"code":"06202023001","name":"御廟１丁目","lat":37.913988,"lng":140.09179},{"code":"06202023002","name":"御廟２丁目","lat":37.909864,"lng":140.092078},{"code":"06202023003","name":"御廟３丁目","lat":37.905505,"lng":140.094045},{"code":"062020240","name":"信夫町","lat":37.920333,"lng":140.098172},{"code":"06202025001","name":"城西１丁目","lat":37.909243,"lng":140.096758},{"code":"06202025002","name":"城西２丁目","lat":37.914282,"lng":140.100811},{"code":"06202025003","name":"城西３丁目","lat":37.91389,"lng":140.097817},{"code":"06202025004","name":"城西４丁目","lat":37.914359,"lng":140.094753},{"code":"06202026001","name":"舘山１丁目","lat":37.91082,"lng":140.077829},{"code":"06202026002","name":"舘山２丁目","lat":37.914598,"lng":140.076787},{"code":"06202026003","name":"舘山３丁目","lat":37.914545,"lng":140.071738},{"code":"06202026004","name":"舘山４丁目","lat":37.912734,"lng":140.071354},{"code":"06202026005","name":"舘山５丁目","lat":37.909939,"lng":140.070019},{"code":"06202026006","name":"舘山６丁目","lat":37.91019,"lng":140.065857},{"code":"062020270","name":"徳町","lat":37.923582,"lng":140.101072},{"code":"062020280","name":"直江町","lat":37.915206,"lng":140.087971},{"code":"06202029001","name":"成島町１丁目","lat":37.918999,"lng":140.090005},{"code":"06202029002","name":"成島町２丁目","lat":37.920819,"lng":140.086002},{"code":"06202029003","name":"成島町３丁目","lat":37.921859,"lng":140.092236},{"code":"06202030001","name":"西大通１丁目","lat":37.917738,"lng":140.10086},{"code":"06202030002","name":"西大通２丁目","lat":37.917927,"lng":140.097129},{"code":"062020310","name":"吹屋敷町","lat":37.915758,"lng":140.082063},{"code":"06202032001","name":"矢来１丁目","lat":37.909339,"lng":140.085081},{"code":"06202032002","name":"矢来２丁目","lat":37.91124,"lng":140.084881},{"code":"06202032003","name":"矢来３丁目","lat":37.913137,"lng":140.08444},{"code":"062020330","name":"桜木町","lat":37.913988,"lng":140.117448},{"code":"06202034001","name":"春日１丁目","lat":37.92257,"lng":140.112582},{"code":"06202034002","name":"春日２丁目","lat":37.924183,"lng":140.109496},{"code":"06202034003","name":"春日３丁目","lat":37.927174,"lng":140.112943},{"code":"06202034004","name":"春日４丁目","lat":37.931055,"lng":140.117735},{"code":"06202034005","name":"春日５丁目","lat":37.931577,"lng":140.114336},{"code":"06202035001","name":"城北１丁目","lat":37.914298,"lng":140.104773},{"code":"06202035002","name":"城北２丁目","lat":37.916503,"lng":140.104883},{"code":"06202036001","name":"中央１丁目","lat":37.913572,"lng":140.111266},{"code":"06202036002","name":"中央２丁目","lat":37.914047,"lng":140.107865},{"code":"06202036003","name":"中央３丁目","lat":37.916651,"lng":140.112088},{"code":"06202036004","name":"中央４丁目","lat":37.917149,"lng":140.108565},{"code":"06202036005","name":"中央５丁目","lat":37.919633,"lng":140.111238},{"code":"06202036006","name":"中央６丁目","lat":37.918519,"lng":140.104589},{"code":"06202036007","name":"中央７丁目","lat":37.92097,"lng":140.106014},{"code":"06202037001","name":"金池１丁目","lat":37.91711,"lng":140.115665},{"code":"06202037002","name":"金池２丁目","lat":37.918963,"lng":140.115266},{"code":"06202037003","name":"金池３丁目","lat":37.920684,"lng":140.115587},{"code":"06202037004","name":"金池４丁目","lat":37.919169,"lng":140.118197},{"code":"06202037005","name":"金池５丁目","lat":37.923373,"lng":140.117205},{"code":"06202037006","name":"金池６丁目","lat":37.926181,"lng":140.115339},{"code":"06202037007","name":"金池７丁目","lat":37.927125,"lng":140.118893},{"code":"06202037008","name":"金池８丁目","lat":37.92968,"lng":140.119377},{"code":"062020380","name":"川井小路","lat":37.91482,"lng":140.115775},{"code":"062020390","name":"鍛冶町","lat":37.915492,"lng":140.114878},{"code":"062020400","name":"栄町","lat":37.916116,"lng":140.115117},{"code":"062020410","name":"立町","lat":37.914734,"lng":140.114236},{"code":"062020420","name":"大字塩野","lat":37.924868,"lng":140.092955},{"code":"062020430","name":"遠山町","lat":37.90479,"lng":140.085615},{"code":"062020440","name":"古志田町","lat":37.897519,"lng":140.089319},{"code":"062020450","name":"笹野町","lat":37.890729,"lng":140.096785},{"code":"062020460","name":"杉の目町","lat":37.888087,"lng":140.104447},{"code":"062020470","name":"万世町刈安","lat":37.86712,"lng":140.22387},{"code":"062020480","name":"万世町梓山","lat":37.889025,"lng":140.185148},{"code":"062020490","name":"万世町桑山","lat":37.898148,"lng":140.15406},{"code":"062020500","name":"万世町牛森","lat":37.905555,"lng":140.16041},{"code":"062020510","name":"万世町堂森","lat":37.908817,"lng":140.151645},{"code":"062020520","name":"万世町金谷","lat":37.904883,"lng":140.144884},{"code":"062020530","name":"万世町片子","lat":37.900549,"lng":140.139064},{"code":"062020540","name":"八幡原","lat":37.912815,"lng":140.158241},{"code":"062020550","name":"舘山矢子町","lat":37.914294,"lng":140.058122},{"code":"062020560","name":"広幡町成島","lat":37.934208,"lng":140.07968},{"code":"062020570","name":"広幡町小山田","lat":37.948469,"lng":140.086911},{"code":"062020580","name":"広幡町上小菅","lat":37.949044,"lng":140.074203},{"code":"062020590","name":"大字下小菅","lat":37.962524,"lng":140.071852},{"code":"062020600","name":"六郷町西藤泉","lat":37.952507,"lng":140.096784},{"code":"062020610","name":"六郷町西江股","lat":37.96838,"lng":140.09956},{"code":"062020620","name":"六郷町轟","lat":37.960933,"lng":140.093626},{"code":"062020630","name":"六郷町一漆","lat":37.963657,"lng":140.085784},{"code":"062020640","name":"六郷町桐原","lat":37.971652,"lng":140.089352},{"code":"062020650","name":"六郷町長橋","lat":37.970793,"lng":140.078338},{"code":"062020660","name":"塩井町塩野","lat":37.932685,"lng":140.097471},{"code":"062020670","name":"塩井町宮井","lat":37.940876,"lng":140.110851},{"code":"062020680","name":"中田町","lat":37.941862,"lng":140.123842},{"code":"062020690","name":"窪田町窪田","lat":37.963021,"lng":140.13172},{"code":"062020700","name":"窪田町矢野目","lat":37.973436,"lng":140.121608},{"code":"062020710","name":"窪田町東江股","lat":37.969,"lng":140.109317},{"code":"062020720","name":"窪田町藤泉","lat":37.952868,"lng":140.105388},{"code":"062020730","name":"窪田町小瀬","lat":37.952026,"lng":140.114455},{"code":"062020740","name":"大字舘山","lat":37.913717,"lng":140.065484},{"code":"062020750","name":"赤芝町","lat":37.89889,"lng":140.059152},{"code":"062020760","name":"小野川町","lat":37.870829,"lng":140.058855},{"code":"062020770","name":"大字簗沢","lat":37.877986,"lng":140.044545},{"code":"062020780","name":"大字口田沢","lat":37.899917,"lng":140.025021},{"code":"062020790","name":"大字神原","lat":37.891052,"lng":140.002259},{"code":"062020800","name":"大字入田沢","lat":37.858979,"lng":139.99155},{"code":"062020810","name":"万世町立沢","lat":37.881893,"lng":140.144986},{"code":"062020820","name":"大字板谷","lat":37.828558,"lng":140.117545},{"code":"062020830","name":"大字大沢","lat":37.829867,"lng":140.210761},{"code":"062020840","name":"大字大小屋","lat":37.839334,"lng":140.190087},{"code":"062020850","name":"大字関根","lat":37.862952,"lng":140.148212},{"code":"062020860","name":"大字三沢","lat":37.876487,"lng":140.143665},{"code":"062020870","name":"大字赤崩","lat":37.857034,"lng":140.12902},{"code":"062020881","name":"アルカディア","lat":37.913159,"lng":140.143157},{"code":"062020882","name":"大字川井","lat":37.924865,"lng":140.139854},{"code":"062020890","name":"大字竹井","lat":37.925246,"lng":140.155307},{"code":"062020900","name":"大字木和田","lat":37.921203,"lng":140.162434},{"code":"062020910","name":"大字長手","lat":37.937237,"lng":140.167548},{"code":"062020920","name":"大字上新田","lat":37.943901,"lng":140.137625},{"code":"062020930","name":"大字下新田","lat":37.960986,"lng":140.146821},{"code":"062020940","name":"大字浅川","lat":37.950584,"lng":140.151863},{"code":"062020950","name":"諸仏町","lat":37.882528,"lng":140.103972},{"code":"062020960","name":"大字芳泉町","lat":37.88184,"lng":140.120599},{"code":"062020970","name":"大字南原石垣町","lat":37.867227,"lng":140.11645},{"code":"062020980","name":"大字南原横堀町","lat":37.872086,"lng":140.111089},{"code":"062020990","name":"大字南原新町","lat":37.869323,"lng":140.108405},{"code":"062021000","name":"大字南原笹野町","lat":37.874175,"lng":140.105941},{"code":"062021010","name":"大字南原猪苗代町","lat":37.870263,"lng":140.104716},{"code":"062021020","name":"大字笹野","lat":37.878726,"lng":140.108622},{"code":"062021030","name":"大字李山","lat":37.857094,"lng":140.110134},{"code":"062021040","name":"大字大平","lat":37.828547,"lng":140.133063},{"code":"062021050","name":"大字立石","lat":37.847325,"lng":140.082121},{"code":"062021060","name":"大字関町","lat":37.838631,"lng":140.080479},{"code":"062021070","name":"大字関","lat":37.820991,"lng":140.100923},{"code":"062021080","name":"大字綱木","lat":37.815956,"lng":140.069281},{"code":"062021090","name":"笹野本町","lat":37.878031,"lng":140.09807},{"code":"062021100","name":"徳町","lat":37.925813,"lng":140.101967},{"code":"062021110","name":"広幡町京塚","lat":37.945811,"lng":140.073945},{"code":"062021120","name":"東大通","lat":37.898468,"lng":140.133881},{"code":"062021130","name":"大字福田","lat":37.888403,"lng":140.110323},{"code":"062021140","name":"太田町","lat":37.888859,"lng":140.114907},{"code":"062021150","name":"泉町","lat":37.892098,"lng":140.101014},{"code":"062021160","name":"大字舘山","lat":37.92013,"lng":140.077151},{"code":"062021170","name":"八幡原","lat":37.912506,"lng":140.174625},{"code":"062021180","name":"八幡原","lat":37.906002,"lng":140.177048},{"code":"062021190","name":"八幡原","lat":37.904452,"lng":140.167916},{"code":"062021200","name":"八幡原","lat":37.905289,"lng":140.162931},{"code":"062021210","name":"直江石堤","lat":37.872204,"lng":140.120278}]}
