{"municipality":"06212","name":"尾花沢市","prefecture":"山形県","source":{"dataset":"frogcat/japan-small-area","census":"平成27年国勢調査 小地域（e-Stat 統計LOD）","license":"MIT（リポジトリ）／政府統計の総合窓口(e-Stat)の利用規約（元データ・出典表記必要）","fetched":"2026-07-06"},"towns":[{"code":"06212001005","name":"大字尾花沢上町４","lat":38.595485,"lng":140.388025},{"code":"06212001006","name":"大字尾花沢上町５","lat":38.602319,"lng":140.398622},{"code":"06212001008","name":"大字尾花沢梺町２","lat":38.604919,"lng":140.399567},{"code":"06212001009","name":"大字尾花沢梺町３","lat":38.608412,"lng":140.393825},{"code":"06212001012","name":"大字尾花沢北町","lat":38.614616,"lng":140.41525},{"code":"06212001015","name":"大字尾花沢新町東","lat":38.601221,"lng":140.418017},{"code":"06212001018","name":"大字尾花沢新町５","lat":38.609614,"lng":140.421688},{"code":"06212001019","name":"大字尾花沢荒楯","lat":38.591943,"lng":140.414164},{"code":"062120020","name":"大字朧気","lat":38.59103,"lng":140.401075},{"code":"06212003025","name":"大字五十沢横内","lat":38.578818,"lng":140.41132},{"code":"06212003026","name":"大字五十沢五十沢","lat":38.565895,"lng":140.422619},{"code":"06212004027","name":"大字牛房野田沢","lat":38.635377,"lng":140.419321},{"code":"06212004028","name":"大字牛房野牛房野１","lat":38.648574,"lng":140.433632},{"code":"06212004029","name":"大字牛房野牛房野２","lat":38.650499,"lng":140.450601},{"code":"06212005020","name":"大字二藤袋二藤袋１","lat":38.61459,"lng":140.43208},{"code":"06212005021","name":"大字二藤袋二藤袋２","lat":38.60789,"lng":140.443908},{"code":"06212005022","name":"大字二藤袋東原","lat":38.600915,"lng":140.435971},{"code":"06212005023","name":"大字二藤袋玉ノ原","lat":38.59606,"lng":140.455726},{"code":"06212006030","name":"大字荻袋和合","lat":38.625343,"lng":140.407359},{"code":"06212006031","name":"大字荻袋荻袋１","lat":38.616194,"lng":140.391452},{"code":"06212006032","name":"大字荻袋荻袋２","lat":38.618028,"lng":140.384019},{"code":"06212006033","name":"大字荻袋荻袋３","lat":38.623358,"lng":140.383165},{"code":"06212006034","name":"大字荻袋荻袋開拓","lat":38.631796,"lng":140.398233},{"code":"06212006035","name":"大字荻袋新生園","lat":38.623362,"lng":140.404523},{"code":"06212007036","name":"大字寺内寺内１","lat":38.656091,"lng":140.410513},{"code":"06212007037","name":"大字寺内寺内２","lat":38.648751,"lng":140.411781},{"code":"06212007038","name":"大字寺内寺内３","lat":38.642659,"lng":140.402441},{"code":"06212007039","name":"大字寺内西原１","lat":38.663698,"lng":140.396661},{"code":"06212007040","name":"大字寺内西原２","lat":38.647794,"lng":140.390336},{"code":"062120080","name":"大字南沢","lat":38.672667,"lng":140.389947},{"code":"06212009042","name":"大字野黒沢野黒沢１","lat":38.633661,"lng":140.380092},{"code":"06212009043","name":"大字野黒沢野黒沢２","lat":38.640464,"lng":140.376973},{"code":"06212010044","name":"大字芦沢芦沢１","lat":38.645829,"lng":140.372504},{"code":"06212010045","name":"大字芦沢芦沢２","lat":38.647003,"lng":140.362837},{"code":"06212010046","name":"大字芦沢芦沢駅前","lat":38.657286,"lng":140.370698},{"code":"06212011047","name":"大字名木沢名木沢１","lat":38.65731,"lng":140.350783},{"code":"06212011048","name":"大字名木沢名木沢２","lat":38.668113,"lng":140.34984},{"code":"06212011049","name":"大字名木沢名木沢３","lat":38.662239,"lng":140.340501},{"code":"06212011050","name":"大字名木沢上ノ原","lat":38.655581,"lng":140.355744},{"code":"06212011051","name":"大字名木沢大海平","lat":38.670489,"lng":140.363088},{"code":"06212011052","name":"大字名木沢西野々","lat":38.657171,"lng":140.336129},{"code":"06212011053","name":"大字名木沢西野々下台","lat":38.651846,"lng":140.331861},{"code":"06212011054","name":"大字名木沢木友","lat":38.673479,"lng":140.338238},{"code":"062120120","name":"大字毒沢","lat":38.666624,"lng":140.323406},{"code":"06212013056","name":"大字丹生安久戸","lat":38.624376,"lng":140.425208},{"code":"06212013057","name":"大字丹生丹生１","lat":38.629404,"lng":140.465508},{"code":"06212013058","name":"大字丹生丹生２","lat":38.635452,"lng":140.443148},{"code":"06212013059","name":"大字丹生丹生３","lat":38.63803,"lng":140.460282},{"code":"06212014060","name":"大字正厳正厳１","lat":38.621532,"lng":140.450175},{"code":"06212014061","name":"大字正厳正厳２","lat":38.619993,"lng":140.439344},{"code":"06212014062","name":"大字正厳正厳３","lat":38.617251,"lng":140.446866},{"code":"06212014063","name":"大字正厳上の宿","lat":38.619168,"lng":140.460616},{"code":"062120150","name":"大字行沢","lat":38.615743,"lng":140.485525},{"code":"062120160","name":"大字中島","lat":38.622698,"lng":140.493971},{"code":"062120170","name":"大字押切","lat":38.628075,"lng":140.487382},{"code":"06212018067","name":"大字高橋高橋","lat":38.634446,"lng":140.483454},{"code":"06212018068","name":"大字高橋中刈","lat":38.643355,"lng":140.500641},{"code":"06212019069","name":"大字富山矢越","lat":38.643473,"lng":140.482566},{"code":"06212019070","name":"大字富山関谷","lat":38.647853,"lng":140.493013},{"code":"062120200","name":"大字市野々","lat":38.657272,"lng":140.499523},{"code":"062120210","name":"大字岩谷沢","lat":38.661948,"lng":140.501035},{"code":"06212022073","name":"大字北郷北郷","lat":38.610356,"lng":140.460295},{"code":"06212022074","name":"大字北郷坂本","lat":38.609611,"lng":140.473762},{"code":"062120230","name":"大字鶴巻田","lat":38.601578,"lng":140.484589},{"code":"062120240","name":"大字母袋","lat":38.599025,"lng":140.501634},{"code":"06212025077","name":"大字原田下原田","lat":38.602251,"lng":140.466734},{"code":"06212025078","name":"大字原田上原田","lat":38.58841,"lng":140.478855},{"code":"062120260","name":"大字下柳渡戸","lat":38.576093,"lng":140.489525},{"code":"06212027080","name":"大字上柳渡戸粟生","lat":38.58917,"lng":140.49484},{"code":"06212027081","name":"大字上柳渡戸寺町","lat":38.572454,"lng":140.506976},{"code":"062120280","name":"大字銀山新畑","lat":38.570506,"lng":140.527449},{"code":"06212029083","name":"大字延沢古殿","lat":38.578212,"lng":140.436382},{"code":"06212029084","name":"大字延沢万寿荘","lat":38.592448,"lng":140.423356},{"code":"06212029085","name":"大字延沢九日町","lat":38.5733,"lng":140.458537},{"code":"06212029086","name":"大字延沢袖原","lat":38.587799,"lng":140.454299},{"code":"06212029087","name":"大字延沢三日町","lat":38.558266,"lng":140.468179},{"code":"06212029088","name":"大字延沢荒町","lat":38.564961,"lng":140.453538},{"code":"06212030089","name":"大字畑沢畑沢１","lat":38.554055,"lng":140.445849},{"code":"06212030090","name":"大字畑沢畑沢２","lat":38.536674,"lng":140.439335},{"code":"06212031091","name":"大字細野細野１","lat":38.552757,"lng":140.459512},{"code":"06212031092","name":"大字細野細野２","lat":38.539038,"lng":140.465425},{"code":"06212032093","name":"大字六沢六沢１","lat":38.571058,"lng":140.472434},{"code":"06212032094","name":"大字六沢六沢２","lat":38.581692,"lng":140.473896},{"code":"06212033095","name":"大字鶴子鶴子１","lat":38.560561,"lng":140.48963},{"code":"06212033096","name":"大字鶴子鶴子２","lat":38.550931,"lng":140.497715},{"code":"06212033097","name":"大字鶴子鶴子３","lat":38.539305,"lng":140.502577},{"code":"06212033098","name":"大字鶴子鶴子４","lat":38.543657,"lng":140.51414},{"code":"062120340","name":"大字上の畑","lat":38.580382,"lng":140.505995},{"code":"06212035000","name":"新町中央","lat":38.605325,"lng":140.406284},{"code":"06212035001","name":"新町１丁目","lat":38.602947,"lng":140.408322},{"code":"06212035002","name":"新町２丁目","lat":38.60552,"lng":140.410152},{"code":"06212035003","name":"新町３丁目","lat":38.59928,"lng":140.418522},{"code":"06212035004","name":"新町４丁目","lat":38.608172,"lng":140.414056},{"code":"06212035005","name":"新町５丁目","lat":38.610661,"lng":140.421429},{"code":"06212036001","name":"若葉町１丁目","lat":38.599163,"lng":140.406433},{"code":"06212036002","name":"若葉町２丁目","lat":38.599909,"lng":140.409152},{"code":"06212036003","name":"若葉町３丁目","lat":38.601014,"lng":140.412204},{"code":"06212036004","name":"若葉町４丁目","lat":38.599238,"lng":140.413195},{"code":"062120370","name":"朧気","lat":38.595808,"lng":140.401103},{"code":"06212038001","name":"梺町１丁目","lat":38.605586,"lng":140.40141},{"code":"06212038002","name":"梺町２丁目","lat":38.607155,"lng":140.401564},{"code":"06212038003","name":"梺町３丁目","lat":38.608838,"lng":140.402694},{"code":"06212038004","name":"梺町４丁目","lat":38.610943,"lng":140.404098},{"code":"06212039001","name":"横町１丁目","lat":38.608001,"lng":140.406286},{"code":"06212039002","name":"横町２丁目","lat":38.608858,"lng":140.410709},{"code":"062120400","name":"中町","lat":38.605362,"lng":140.404267},{"code":"06212041001","name":"上町１丁目","lat":38.602851,"lng":140.404883},{"code":"06212041002","name":"上町２丁目","lat":38.600349,"lng":140.403624},{"code":"06212041003","name":"上町３丁目","lat":38.597329,"lng":140.404073},{"code":"06212041004","name":"上町４丁目","lat":38.599227,"lng":140.399805},{"code":"06212041005","name":"上町５丁目","lat":38.602748,"lng":140.402465},{"code":"06212041006","name":"上町６丁目","lat":38.602489,"lng":140.400399},{"code":"06212042001","name":"北町１丁目","lat":38.610338,"lng":140.406905},{"code":"06212042002","name":"北町２丁目","lat":38.612441,"lng":140.407546}]}
