{"municipality":"06210","name":"天童市","prefecture":"山形県","source":{"dataset":"frogcat/japan-small-area","census":"平成27年国勢調査 小地域（e-Stat 統計LOD）","license":"MIT（リポジトリ）／政府統計の総合窓口(e-Stat)の利用規約（元データ・出典表記必要）","fetched":"2026-07-06"},"towns":[{"code":"062100010","name":"大字天童","lat":38.352059,"lng":140.377858},{"code":"06210002001","name":"老野森１丁目","lat":38.36328,"lng":140.379375},{"code":"06210002002","name":"老野森２丁目","lat":38.364005,"lng":140.375415},{"code":"06210002003","name":"老野森３丁目","lat":38.364382,"lng":140.372096},{"code":"062100031","name":"大字久野本","lat":38.379668,"lng":140.384969},{"code":"06210003201","name":"久野本１丁目","lat":38.367984,"lng":140.372642},{"code":"06210003202","name":"久野本２丁目","lat":38.371364,"lng":140.373353},{"code":"06210003203","name":"久野本３丁目","lat":38.371149,"lng":140.376337},{"code":"06210003204","name":"久野本４丁目","lat":38.367658,"lng":140.375947},{"code":"06210004101","name":"東本町１丁目","lat":38.360532,"lng":140.375067},{"code":"06210004102","name":"東本町２丁目","lat":38.360441,"lng":140.378618},{"code":"062100042","name":"東本町","lat":38.358198,"lng":140.378859},{"code":"06210005001","name":"北久野本１丁目","lat":38.374879,"lng":140.375461},{"code":"06210005002","name":"北久野本２丁目","lat":38.375053,"lng":140.380504},{"code":"06210005003","name":"北久野本３丁目","lat":38.377867,"lng":140.375358},{"code":"06210005004","name":"北久野本４丁目","lat":38.378158,"lng":140.380118},{"code":"06210005005","name":"北久野本５丁目","lat":38.380317,"lng":140.378433},{"code":"06210006101","name":"交り江１丁目","lat":38.364852,"lng":140.368559},{"code":"06210006102","name":"交り江２丁目","lat":38.36308,"lng":140.368293},{"code":"06210006203","name":"交り江３丁目","lat":38.362929,"lng":140.364945},{"code":"06210006204","name":"交り江４丁目","lat":38.364818,"lng":140.365562},{"code":"06210006205","name":"交り江５丁目","lat":38.364057,"lng":140.363259},{"code":"06210007101","name":"柏木町１丁目","lat":38.367625,"lng":140.369276},{"code":"06210007102","name":"柏木町２丁目","lat":38.370723,"lng":140.369768},{"code":"062100072","name":"柏木町","lat":38.370908,"lng":140.367215},{"code":"062100073","name":"大字久野本・柏木町","lat":38.372561,"lng":140.369535},{"code":"06210008001","name":"糠塚１丁目","lat":38.366027,"lng":140.379474},{"code":"06210008002","name":"糠塚２丁目","lat":38.365679,"lng":140.384001},{"code":"06210008003","name":"糠塚３丁目","lat":38.367799,"lng":140.383501},{"code":"06210009001","name":"泉町１丁目","lat":38.363165,"lng":140.382987},{"code":"06210009002","name":"泉町２丁目","lat":38.362892,"lng":140.385918},{"code":"062100101","name":"大字北目","lat":38.344758,"lng":140.36274},{"code":"06210010201","name":"北目１丁目","lat":38.349949,"lng":140.3726},{"code":"06210010202","name":"北目２丁目","lat":38.345887,"lng":140.372377},{"code":"06210010203","name":"北目３丁目","lat":38.345899,"lng":140.376738},{"code":"06210010204","name":"北目４丁目","lat":38.347791,"lng":140.376022},{"code":"06210011001","name":"一日町１丁目","lat":38.350019,"lng":140.369585},{"code":"06210011002","name":"一日町２丁目","lat":38.350145,"lng":140.371349},{"code":"06210011003","name":"一日町３丁目","lat":38.346438,"lng":140.370334},{"code":"06210011004","name":"一日町４丁目","lat":38.346922,"lng":140.368195},{"code":"062100120","name":"仲町","lat":38.351849,"lng":140.369022},{"code":"06210013001","name":"五日町１丁目","lat":38.353457,"lng":140.37058},{"code":"06210013002","name":"五日町２丁目","lat":38.353564,"lng":140.371756},{"code":"062100140","name":"松城町","lat":38.3407,"lng":140.371455},{"code":"062100150","name":"山王","lat":38.337141,"lng":140.377269},{"code":"062100161","name":"大字小関","lat":38.368847,"lng":140.364517},{"code":"06210016201","name":"小関１丁目","lat":38.367532,"lng":140.366114},{"code":"06210016202","name":"小関２丁目","lat":38.367311,"lng":140.363298},{"code":"062100170","name":"大字高木","lat":38.374021,"lng":140.362982},{"code":"062100180","name":"大字成生","lat":38.388328,"lng":140.36165},{"code":"062100190","name":"大字大清水","lat":38.385246,"lng":140.352517},{"code":"062100200","name":"大字大町","lat":38.390941,"lng":140.349314},{"code":"062100210","name":"大字今町","lat":38.391599,"lng":140.341299},{"code":"062100230","name":"大字塚野目","lat":38.350277,"lng":140.347514},{"code":"062100240","name":"大字矢野目","lat":38.356624,"lng":140.351447},{"code":"062100250","name":"大字蔵増","lat":38.372342,"lng":140.336998},{"code":"062100260","name":"大字高野辺","lat":38.378735,"lng":140.333873},{"code":"062100270","name":"大字窪野目","lat":38.385491,"lng":140.337535},{"code":"062100280","name":"大字寺津","lat":38.344612,"lng":140.33601},{"code":"062100290","name":"大字藤内新田","lat":38.358111,"lng":140.322194},{"code":"062100300","name":"大字山元","lat":38.366117,"lng":140.394826},{"code":"062100310","name":"大字貫津","lat":38.349042,"lng":140.396332},{"code":"06210032001","name":"鎌田１丁目","lat":38.360382,"lng":140.385168},{"code":"06210032002","name":"鎌田２丁目","lat":38.357601,"lng":140.387322},{"code":"06210033201","name":"鎌田本町１丁目","lat":38.35995,"lng":140.380847},{"code":"06210033202","name":"鎌田本町２丁目","lat":38.357581,"lng":140.383147},{"code":"06210033203","name":"鎌田本町３丁目","lat":38.357108,"lng":140.380982},{"code":"06210034001","name":"鍬ノ町１丁目","lat":38.356057,"lng":140.38425},{"code":"06210034002","name":"鍬ノ町２丁目","lat":38.35545,"lng":140.386055},{"code":"062100350","name":"大字田麦野","lat":38.363537,"lng":140.462677},{"code":"062100360","name":"大字山口","lat":38.357793,"lng":140.438826},{"code":"062100370","name":"大字川原子","lat":38.394634,"lng":140.425426},{"code":"062100380","name":"大字道満","lat":38.390207,"lng":140.391803},{"code":"06210039101","name":"乱川１丁目","lat":38.382453,"lng":140.375969},{"code":"06210039102","name":"乱川２丁目","lat":38.385803,"lng":140.376504},{"code":"06210039103","name":"乱川３丁目","lat":38.385846,"lng":140.380012},{"code":"06210039104","name":"乱川４丁目","lat":38.382649,"lng":140.379953},{"code":"062100392","name":"大字乱川","lat":38.389441,"lng":140.392331},{"code":"062100400","name":"万代","lat":38.394996,"lng":140.381499},{"code":"062100410","name":"大字高擶","lat":38.344078,"lng":140.338401},{"code":"062100420","name":"大字清池","lat":38.326633,"lng":140.350343},{"code":"062100430","name":"大字長岡","lat":38.33163,"lng":140.362939},{"code":"062100440","name":"大字芳賀","lat":38.339038,"lng":140.363214},{"code":"06210045001","name":"中里１丁目","lat":38.329955,"lng":140.359474},{"code":"06210045002","name":"中里２丁目","lat":38.328111,"lng":140.358353},{"code":"06210045003","name":"中里３丁目","lat":38.326446,"lng":140.356756},{"code":"06210045004","name":"中里４丁目","lat":38.328827,"lng":140.362503},{"code":"06210045005","name":"中里５丁目","lat":38.326837,"lng":140.360046},{"code":"06210045006","name":"中里６丁目","lat":38.32623,"lng":140.361903},{"code":"06210045007","name":"中里７丁目","lat":38.326225,"lng":140.364207},{"code":"06210046001","name":"東長岡１丁目","lat":38.331956,"lng":140.361188},{"code":"06210046002","name":"東長岡２丁目","lat":38.331158,"lng":140.363247},{"code":"06210046003","name":"東長岡３丁目","lat":38.330527,"lng":140.365123},{"code":"06210046004","name":"東長岡４丁目","lat":38.329948,"lng":140.366843},{"code":"06210047001","name":"長岡北１丁目","lat":38.334312,"lng":140.363403},{"code":"06210047002","name":"長岡北２丁目","lat":38.336128,"lng":140.364861},{"code":"06210047003","name":"長岡北３丁目","lat":38.334277,"lng":140.365838},{"code":"06210047004","name":"長岡北４丁目","lat":38.333531,"lng":140.36816},{"code":"06210048001","name":"東芳賀１丁目","lat":38.337934,"lng":140.366413},{"code":"06210048002","name":"東芳賀２丁目","lat":38.337299,"lng":140.36951},{"code":"06210048003","name":"東芳賀３丁目","lat":38.340152,"lng":140.367293},{"code":"062100490","name":"大字奈良沢","lat":38.336357,"lng":140.398117},{"code":"062100500","name":"大字原町","lat":38.339366,"lng":140.385003},{"code":"062100510","name":"大字上荻野戸","lat":38.321288,"lng":140.405457},{"code":"062100520","name":"大字下荻野戸","lat":38.328831,"lng":140.402197},{"code":"062100530","name":"大字荒谷","lat":38.321759,"lng":140.386176},{"code":"06210054001","name":"小路１丁目","lat":38.355447,"lng":140.373115},{"code":"06210054002","name":"小路２丁目","lat":38.357634,"lng":140.373781},{"code":"06210055001","name":"田鶴町１丁目","lat":38.355957,"lng":140.369387},{"code":"06210055002","name":"田鶴町２丁目","lat":38.353848,"lng":140.369064},{"code":"06210055003","name":"田鶴町３丁目","lat":38.353827,"lng":140.366418},{"code":"06210055004","name":"田鶴町４丁目","lat":38.356298,"lng":140.366928},{"code":"06210056001","name":"三日町１丁目","lat":38.358137,"lng":140.370668},{"code":"06210056002","name":"三日町２丁目","lat":38.356006,"lng":140.370954},{"code":"06210057001","name":"本町１丁目","lat":38.360362,"lng":140.370448},{"code":"06210057002","name":"本町２丁目","lat":38.360343,"lng":140.372297},{"code":"062100580","name":"大字久野本・天童原","lat":38.374567,"lng":140.387192},{"code":"06210060001","name":"天童中１丁目","lat":38.358223,"lng":140.376257},{"code":"06210060002","name":"天童中２丁目","lat":38.356781,"lng":140.378075},{"code":"06210060003","name":"天童中３丁目","lat":38.354219,"lng":140.382287},{"code":"06210061001","name":"駅西１丁目","lat":38.361043,"lng":140.368071},{"code":"06210061002","name":"駅西２丁目","lat":38.358945,"lng":140.367306},{"code":"06210061003","name":"駅西３丁目","lat":38.360147,"lng":140.364648},{"code":"06210061004","name":"駅西４丁目","lat":38.35667,"lng":140.364014},{"code":"06210061005","name":"駅西５丁目","lat":38.354194,"lng":140.363389},{"code":"06210062001","name":"南小畑１丁目","lat":38.351957,"lng":140.366275},{"code":"06210062002","name":"南小畑２丁目","lat":38.352629,"lng":140.363083},{"code":"06210062003","name":"南小畑３丁目","lat":38.350752,"lng":140.362733},{"code":"06210062004","name":"南小畑４丁目","lat":38.35038,"lng":140.365507},{"code":"06210062005","name":"南小畑５丁目","lat":38.348737,"lng":140.365375},{"code":"06210062006","name":"南小畑６丁目","lat":38.349055,"lng":140.362414},{"code":"06210064001","name":"南町１丁目","lat":38.343672,"lng":140.373959},{"code":"06210064002","name":"南町２丁目","lat":38.343464,"lng":140.370394},{"code":"06210064003","name":"南町３丁目","lat":38.343009,"lng":140.367576},{"code":"062100650","name":"桜町","lat":38.350655,"lng":140.38377},{"code":"06210066001","name":"石鳥居１丁目","lat":38.320454,"lng":140.368467},{"code":"06210066002","name":"石鳥居２丁目","lat":38.324458,"lng":140.369645},{"code":"06210067001","name":"清池東１丁目","lat":38.323613,"lng":140.354675},{"code":"06210067002","name":"清池東２丁目","lat":38.322224,"lng":140.359657},{"code":"06210068001","name":"東久野本１丁目","lat":38.367956,"lng":140.379724},{"code":"06210068002","name":"東久野本２丁目","lat":38.37109,"lng":140.379654},{"code":"06210068003","name":"東久野本３丁目","lat":38.371292,"lng":140.382665}]}
