{"municipality":"06301","name":"東村山郡山辺町","prefecture":"山形県","source":{"dataset":"frogcat/japan-small-area","census":"平成27年国勢調査 小地域（e-Stat 統計LOD）","license":"MIT（リポジトリ）／政府統計の総合窓口(e-Stat)の利用規約（元データ・出典表記必要）","fetched":"2026-07-06"},"towns":[{"code":"063010010","name":"大字山辺","lat":38.297198,"lng":140.271187},{"code":"063010020","name":"大字大寺","lat":38.309152,"lng":140.264567},{"code":"063010030","name":"大字北垣","lat":38.307277,"lng":140.259228},{"code":"063010040","name":"大字杉下","lat":38.300555,"lng":140.239542},{"code":"063010050","name":"大字大蕨","lat":38.287056,"lng":140.207625},{"code":"063010060","name":"大字北山","lat":38.309273,"lng":140.206119},{"code":"063010070","name":"大字北作","lat":38.272774,"lng":140.184104},{"code":"063010080","name":"大字簗沢","lat":38.261311,"lng":140.200784},{"code":"063010090","name":"大字畑谷","lat":38.247242,"lng":140.181596},{"code":"063010100","name":"大字根際","lat":38.284082,"lng":140.239786},{"code":"063010110","name":"大字大塚","lat":38.280551,"lng":140.266013},{"code":"063010120","name":"大字要害","lat":38.274531,"lng":140.242517},{"code":"063010130","name":"大字三河尻","lat":38.285118,"lng":140.276005},{"code":"063010140","name":"近江","lat":38.280504,"lng":140.272065}]}
