{"municipality":"06426","name":"東田川郡三川町","prefecture":"山形県","source":{"dataset":"frogcat/japan-small-area","census":"平成27年国勢調査 小地域（e-Stat 統計LOD）","license":"MIT（リポジトリ）／政府統計の総合窓口(e-Stat)の利用規約（元データ・出典表記必要）","fetched":"2026-07-06"},"towns":[{"code":"06426001001","name":"大字横山字袖東","lat":38.799174,"lng":139.846914},{"code":"06426001002","name":"大字横山字西田","lat":38.794013,"lng":139.848806},{"code":"06426001003","name":"大字横山字袖川原","lat":38.793861,"lng":139.847101},{"code":"06426001004","name":"大字横山字不動野","lat":38.787839,"lng":139.844971},{"code":"06426001005","name":"大字横山字角地田","lat":38.790337,"lng":139.855741},{"code":"06426001006","name":"大字横山字トツラ田","lat":38.78486,"lng":139.858837},{"code":"06426001007","name":"大字横山字堤","lat":38.786606,"lng":139.849056},{"code":"06426001008","name":"大字横山字横山","lat":38.776622,"lng":139.847654},{"code":"06426001009","name":"大字横山字城下","lat":38.781725,"lng":139.848225},{"code":"06426001011","name":"大字横山字大正","lat":38.775986,"lng":139.854515},{"code":"06426001014","name":"大字横山字石行","lat":38.776213,"lng":139.858575},{"code":"06426001015","name":"大字横山字クネハタ","lat":38.775394,"lng":139.861944},{"code":"06426001016","name":"大字横山字畑田","lat":38.771024,"lng":139.857122},{"code":"06426001017","name":"大字横山字土橋","lat":38.761382,"lng":139.858178},{"code":"06426002001","name":"大字助川字北畑","lat":38.752892,"lng":139.854921},{"code":"06426002002","name":"大字助川字村下","lat":38.752791,"lng":139.865582},{"code":"06426003001","name":"大字堤野字堀田","lat":38.769508,"lng":139.868499},{"code":"06426003002","name":"大字堤野字野中","lat":38.765554,"lng":139.866751},{"code":"06426004001","name":"大字横内字西上田元","lat":38.769006,"lng":139.871293},{"code":"06426004002","name":"大字横内字月野木","lat":38.770016,"lng":139.870763},{"code":"06426004003","name":"大字横内字荒田","lat":38.774944,"lng":139.872775},{"code":"06426004004","name":"大字横内字日野宮","lat":38.772684,"lng":139.87742},{"code":"06426004005","name":"大字横内字東上田元","lat":38.767161,"lng":139.874572},{"code":"06426004006","name":"大字横内字俵田","lat":38.767957,"lng":139.875042},{"code":"06426004007","name":"大字横内字中上田元","lat":38.76646,"lng":139.87299},{"code":"06426005001","name":"大字竹原田字太刀内","lat":38.774129,"lng":139.868949},{"code":"06426005002","name":"大字竹原田字切添","lat":38.774367,"lng":139.865232},{"code":"06426006001","name":"大字加藤字高山","lat":38.779707,"lng":139.871069},{"code":"06426006002","name":"大字加藤字赤田","lat":38.780811,"lng":139.869025},{"code":"06426007001","name":"大字菱沼字村下","lat":38.782551,"lng":139.86424},{"code":"06426007002","name":"大字菱沼字村上","lat":38.778464,"lng":139.864653},{"code":"06426008001","name":"大字小尺字村下","lat":38.784833,"lng":139.867472},{"code":"06426008002","name":"大字小尺字前田元","lat":38.782939,"lng":139.869768},{"code":"06426008003","name":"大字小尺字四本田","lat":38.785077,"lng":139.871325},{"code":"06426009001","name":"大字横川字家岸","lat":38.783472,"lng":139.878797},{"code":"06426009002","name":"大字横川字上小荒","lat":38.789594,"lng":139.885041},{"code":"06426009004","name":"大字横川字重合","lat":38.780409,"lng":139.883569},{"code":"06426009005","name":"大字横川字隠里","lat":38.78612,"lng":139.886598},{"code":"06426010001","name":"大字横川新田字中新田","lat":38.792799,"lng":139.878385},{"code":"06426010002","name":"大字横川新田字上ノ割","lat":38.789596,"lng":139.87435},{"code":"06426011002","name":"大字青山","lat":38.789213,"lng":139.838591},{"code":"06426011003","name":"大字青山字東沖","lat":38.790917,"lng":139.834438},{"code":"06426011007","name":"大字青山字筬元","lat":38.78506,"lng":139.8416},{"code":"06426012001","name":"大字神花字天神堂","lat":38.801967,"lng":139.837484},{"code":"06426012002","name":"大字神花字前外川原","lat":38.80204,"lng":139.843529},{"code":"06426012007","name":"大字神花字尾花","lat":38.806276,"lng":139.828258},{"code":"06426013001","name":"大字猪子字旭谷地","lat":38.818238,"lng":139.837834},{"code":"06426013002","name":"大字猪子字高倉","lat":38.813505,"lng":139.839249},{"code":"06426013003","name":"大字猪子字宮前","lat":38.809008,"lng":139.842481},{"code":"06426014001","name":"大字成田新田","lat":38.826514,"lng":139.825297},{"code":"06426014003","name":"大字成田新田字内嶋野","lat":38.827178,"lng":139.829588},{"code":"06426015001","name":"大字東沼字興屋下","lat":38.795458,"lng":139.826311},{"code":"06426015002","name":"大字東沼字村岸","lat":38.790573,"lng":139.826589},{"code":"06426015003","name":"大字東沼字鷹野西","lat":38.79029,"lng":139.819621},{"code":"064260160","name":"大字善阿弥","lat":38.786783,"lng":139.826286},{"code":"06426017001","name":"大字角田二口","lat":38.786421,"lng":139.818855},{"code":"06426017002","name":"大字角田二口字門前","lat":38.790792,"lng":139.813724},{"code":"06426018001","name":"大字押切新田字茨谷地","lat":38.824982,"lng":139.845406},{"code":"06426018002","name":"大字押切新田字前川原","lat":38.820508,"lng":139.843973},{"code":"06426018003","name":"大字押切新田字歌枕","lat":38.820996,"lng":139.847096},{"code":"06426018005","name":"大字押切新田字早稲田","lat":38.820292,"lng":139.849484},{"code":"06426018006","name":"大字押切新田字五反","lat":38.815814,"lng":139.850261},{"code":"06426018007","name":"大字押切新田字刈取","lat":38.82414,"lng":139.865666},{"code":"06426018008","name":"大字押切新田字足子","lat":38.825516,"lng":139.86357},{"code":"06426018009","name":"大字押切新田字杉苗田","lat":38.821605,"lng":139.854346},{"code":"06426018011","name":"大字押切新田字北田","lat":38.81519,"lng":139.852799},{"code":"06426018012","name":"大字押切新田字街道表","lat":38.81492,"lng":139.85773},{"code":"06426018013","name":"大字押切新田字潴","lat":38.821044,"lng":139.859026},{"code":"06426018015","name":"大字押切新田字美河","lat":38.816684,"lng":139.847255},{"code":"06426018016","name":"大字押切新田字下川原","lat":38.814519,"lng":139.846877},{"code":"06426018017","name":"大字押切新田字豊秋","lat":38.808688,"lng":139.856217},{"code":"06426018022","name":"大字押切新田字対馬","lat":38.800439,"lng":139.857176},{"code":"06426018026","name":"大字押切新田字桜木","lat":38.797406,"lng":139.850718},{"code":"06426018027","name":"大字押切新田字三本木","lat":38.793406,"lng":139.855974},{"code":"064260190","name":"大字土口","lat":38.802655,"lng":139.867425}]}
