{"municipality":"07201","name":"福島市","prefecture":"福島県","source":{"dataset":"frogcat/japan-small-area","census":"平成27年国勢調査 小地域（e-Stat 統計LOD）","license":"MIT（リポジトリ）／政府統計の総合窓口(e-Stat)の利用規約（元データ・出典表記必要）","fetched":"2026-07-06"},"towns":[{"code":"072010010","name":"柳町","lat":37.746098,"lng":140.463938},{"code":"072010020","name":"御倉町","lat":37.745987,"lng":140.465667},{"code":"072010030","name":"荒町","lat":37.748713,"lng":140.464919},{"code":"072010040","name":"清明町","lat":37.746765,"lng":140.461733},{"code":"072010050","name":"五月町","lat":37.749878,"lng":140.461989},{"code":"072010060","name":"早稲町","lat":37.751955,"lng":140.462257},{"code":"072010070","name":"中町","lat":37.750959,"lng":140.46496},{"code":"072010080","name":"杉妻町","lat":37.750504,"lng":140.468402},{"code":"072010090","name":"栄町","lat":37.754884,"lng":140.46064},{"code":"072010100","name":"置賜町","lat":37.755431,"lng":140.463917},{"code":"072010110","name":"本町","lat":37.753249,"lng":140.464912},{"code":"072010120","name":"大町","lat":37.753622,"lng":140.466847},{"code":"072010130","name":"上町","lat":37.753435,"lng":140.468863},{"code":"072010140","name":"北町","lat":37.753932,"lng":140.471434},{"code":"072010150","name":"舟場町","lat":37.752277,"lng":140.473008},{"code":"072010160","name":"豊田町","lat":37.755323,"lng":140.4736},{"code":"072010170","name":"仲間町","lat":37.756283,"lng":140.471642},{"code":"072010180","name":"宮町","lat":37.75611,"lng":140.469307},{"code":"072010190","name":"新町","lat":37.756568,"lng":140.467389},{"code":"072010200","name":"万世町","lat":37.757229,"lng":140.465179},{"code":"072010210","name":"陣場町","lat":37.757289,"lng":140.46259},{"code":"072010220","name":"曾根田町","lat":37.760696,"lng":140.459888},{"code":"072010230","name":"森合町","lat":37.764073,"lng":140.462164},{"code":"072010240","name":"天神町","lat":37.76043,"lng":140.463189},{"code":"072010250","name":"宮下町","lat":37.760928,"lng":140.466694},{"code":"072010260","name":"新浜町","lat":37.759509,"lng":140.46927},{"code":"072010270","name":"松木町","lat":37.759405,"lng":140.471456},{"code":"072010280","name":"浜田町","lat":37.758116,"lng":140.47586},{"code":"072010290","name":"五老内町","lat":37.76034,"lng":140.474601},{"code":"072010300","name":"北五老内町","lat":37.762254,"lng":140.476026},{"code":"072010310","name":"花園町","lat":37.762475,"lng":140.472539},{"code":"072010320","name":"霞町","lat":37.763737,"lng":140.469809},{"code":"072010330","name":"御山町","lat":37.76444,"lng":140.467218},{"code":"072010340","name":"山下町","lat":37.764698,"lng":140.472773},{"code":"072010350","name":"春日町","lat":37.767282,"lng":140.474567},{"code":"072010360","name":"旭町","lat":37.76422,"lng":140.476659},{"code":"072010370","name":"松浪町","lat":37.766709,"lng":140.478728},{"code":"072010380","name":"入江町","lat":37.770066,"lng":140.480359},{"code":"072010390","name":"上浜町","lat":37.754258,"lng":140.476634},{"code":"072010400","name":"腰浜町","lat":37.756074,"lng":140.482149},{"code":"072010410","name":"東浜町","lat":37.762257,"lng":140.486257},{"code":"072010420","name":"桜木町","lat":37.763822,"lng":140.481447},{"code":"072010430","name":"八島町","lat":37.769929,"lng":140.485241},{"code":"072010440","name":"堀河町","lat":37.769048,"lng":140.489697},{"code":"07201045001","name":"松山町","lat":37.775343,"lng":140.484114},{"code":"07201045002","name":"本内","lat":37.77624,"lng":140.484136},{"code":"072010470","name":"矢剣町","lat":37.74814,"lng":140.457631},{"code":"072010480","name":"須川町","lat":37.75104,"lng":140.453241},{"code":"072010490","name":"太田町","lat":37.753004,"lng":140.456272},{"code":"072010500","name":"三河南町","lat":37.756602,"lng":140.455754},{"code":"072010510","name":"三河北町","lat":37.759689,"lng":140.456508},{"code":"07201052101","name":"野田町１丁目","lat":37.754633,"lng":140.44989},{"code":"07201052102","name":"野田町２丁目","lat":37.757111,"lng":140.450265},{"code":"07201052103","name":"野田町３丁目","lat":37.759235,"lng":140.450899},{"code":"07201052104","name":"野田町４丁目","lat":37.761741,"lng":140.449905},{"code":"07201052105","name":"野田町５丁目","lat":37.759248,"lng":140.446596},{"code":"07201052106","name":"野田町６丁目","lat":37.755893,"lng":140.443723},{"code":"07201052107","name":"野田町７丁目","lat":37.759769,"lng":140.443485},{"code":"07201052201","name":"野田町字寺ノ内","lat":37.765606,"lng":140.442541},{"code":"07201052202","name":"野田町字上高野","lat":37.768549,"lng":140.440803},{"code":"072010530","name":"南町","lat":37.742226,"lng":140.46347},{"code":"07201054000","name":"渡利字欠下","lat":37.735311,"lng":140.498453},{"code":"07201054001","name":"渡利字柳小路","lat":37.744445,"lng":140.476825},{"code":"072010550","name":"小倉寺","lat":37.73181,"lng":140.475994},{"code":"072010560","name":"郷野目","lat":37.737532,"lng":140.461589},{"code":"072010570","name":"鳥谷野","lat":37.733587,"lng":140.467637},{"code":"072010580","name":"太平寺","lat":37.731194,"lng":140.456312},{"code":"072010590","name":"黒岩","lat":37.719575,"lng":140.472152},{"code":"072010600","name":"伏拝","lat":37.718442,"lng":140.463272},{"code":"072010610","name":"清水町","lat":37.704038,"lng":140.465113},{"code":"072010620","name":"田沢","lat":37.705983,"lng":140.48777},{"code":"07201063000","name":"森合字丹波谷地","lat":37.767932,"lng":140.452042},{"code":"07201063001","name":"森合字上森合","lat":37.766439,"lng":140.447158},{"code":"072010640","name":"泉","lat":37.77716,"lng":140.449387},{"code":"072010650","name":"御山","lat":37.776225,"lng":140.463686},{"code":"07201066000","name":"南沢又字南舘","lat":37.778995,"lng":140.437464},{"code":"07201066001","name":"南沢又字西原","lat":37.778628,"lng":140.424113},{"code":"07201067000","name":"北沢又字馬除","lat":37.785614,"lng":140.434082},{"code":"07201067001","name":"北沢又字欠ケ","lat":37.783713,"lng":140.445772},{"code":"072010680","name":"岡部","lat":37.775208,"lng":140.499263},{"code":"072010690","name":"山口","lat":37.761023,"lng":140.514904},{"code":"072010700","name":"岡島","lat":37.786133,"lng":140.515082},{"code":"07201071001","name":"本内字上台","lat":37.782408,"lng":140.487412},{"code":"07201071002","name":"本内字北中河原","lat":37.788604,"lng":140.49901},{"code":"072010720","name":"丸子","lat":37.784094,"lng":140.476696},{"code":"07201073001","name":"鎌田字下田","lat":37.795265,"lng":140.486277},{"code":"07201073002","name":"鎌田字道前田","lat":37.794769,"lng":140.511331},{"code":"072010740","name":"瀬上町","lat":37.804829,"lng":140.502825},{"code":"072010750","name":"宮代","lat":37.805881,"lng":140.481669},{"code":"072010760","name":"下飯坂","lat":37.811847,"lng":140.469097},{"code":"072010770","name":"沖高","lat":37.803433,"lng":140.465269},{"code":"072010780","name":"北矢野目","lat":37.79348,"lng":140.468165},{"code":"072010790","name":"南矢野目","lat":37.789328,"lng":140.460839},{"code":"07201080000","name":"笹谷字東金屋","lat":37.793928,"lng":140.425665},{"code":"07201080001","name":"笹谷字中屋敷","lat":37.792072,"lng":140.440525},{"code":"07201081000","name":"大笹生字中谷地","lat":37.788834,"lng":140.407699},{"code":"07201081001","name":"大笹生字西川子坂","lat":37.815711,"lng":140.354061},{"code":"07201081002","name":"大笹生字釜平","lat":37.830305,"lng":140.392316},{"code":"072010820","name":"方木田","lat":37.742979,"lng":140.453236},{"code":"072010830","name":"吉倉","lat":37.744029,"lng":140.438435},{"code":"072010840","name":"八木田","lat":37.75042,"lng":140.444856},{"code":"072010850","name":"仁井田","lat":37.750747,"lng":140.425039},{"code":"072010860","name":"佐倉下","lat":37.742881,"lng":140.409176},{"code":"072010870","name":"上名倉","lat":37.729208,"lng":140.382663},{"code":"072010880","name":"佐原","lat":37.714684,"lng":140.32234},{"code":"072010890","name":"荒井","lat":37.70777,"lng":140.372677},{"code":"072010900","name":"土湯温泉町","lat":37.684199,"lng":140.286558},{"code":"072010910","name":"大波","lat":37.742476,"lng":140.540945},{"code":"072010920","name":"立子山","lat":37.693416,"lng":140.514812},{"code":"072010930","name":"蓬莱町","lat":37.697649,"lng":140.481888},{"code":"07201093101","name":"蓬莱町１丁目","lat":37.699445,"lng":140.46578},{"code":"07201093102","name":"蓬莱町２丁目","lat":37.697579,"lng":140.468581},{"code":"07201093103","name":"蓬莱町３丁目","lat":37.701882,"lng":140.478647},{"code":"07201093104","name":"蓬莱町４丁目","lat":37.699144,"lng":140.475984},{"code":"07201093105","name":"蓬莱町５丁目","lat":37.695892,"lng":140.47824},{"code":"07201093106","name":"蓬莱町６丁目","lat":37.69346,"lng":140.476912},{"code":"07201093107","name":"蓬莱町七丁目","lat":37.691686,"lng":140.484323},{"code":"07201093108","name":"蓬莱町八丁目","lat":37.694755,"lng":140.488171},{"code":"072010932","name":"蓬莱町","lat":37.694286,"lng":140.468844},{"code":"072011010","name":"飯坂町","lat":37.847924,"lng":140.425144},{"code":"07201102000","name":"飯坂町平野字森","lat":37.809934,"lng":140.440538},{"code":"07201102001","name":"飯坂町平野字江添","lat":37.805241,"lng":140.44459},{"code":"072011030","name":"飯坂町中野","lat":37.850649,"lng":140.348913},{"code":"072011040","name":"飯坂町湯野","lat":37.845389,"lng":140.457411},{"code":"072011050","name":"飯坂町東湯野","lat":37.822891,"lng":140.480317},{"code":"072011060","name":"飯坂町茂庭","lat":37.914802,"lng":140.366787},{"code":"072012010","name":"松川町","lat":37.656222,"lng":140.460227},{"code":"072012020","name":"松川町関谷","lat":37.676081,"lng":140.444693},{"code":"072012031","name":"松川町浅川","lat":37.68054,"lng":140.467289},{"code":"072012032","name":"金谷川","lat":37.682543,"lng":140.455668},{"code":"072012033","name":"光が丘","lat":37.690154,"lng":140.470995},{"code":"072012040","name":"松川町金沢","lat":37.671627,"lng":140.487445},{"code":"072012050","name":"松川町水原","lat":37.662649,"lng":140.3863},{"code":"072012060","name":"松川町沼袋","lat":37.651223,"lng":140.501645},{"code":"072012070","name":"松川町下川崎","lat":37.637182,"lng":140.49693},{"code":"072013010","name":"永井川","lat":37.719736,"lng":140.452503},{"code":"07201302000","name":"大森字団子田","lat":37.729889,"lng":140.440146},{"code":"07201302001","name":"大森字西ノ内","lat":37.727434,"lng":140.44678},{"code":"072013030","name":"成川","lat":37.740395,"lng":140.427145},{"code":"072013040","name":"下鳥渡","lat":37.72648,"lng":140.419946},{"code":"072013050","name":"上鳥渡","lat":37.723817,"lng":140.407711},{"code":"072013060","name":"山田","lat":37.699633,"lng":140.395536},{"code":"072013070","name":"小田","lat":37.696897,"lng":140.416879},{"code":"072013080","name":"平石","lat":37.694244,"lng":140.439668},{"code":"07201401000","name":"笹木野字堰口","lat":37.771828,"lng":140.413084},{"code":"07201401001","name":"笹木野字立田","lat":37.766046,"lng":140.432542},{"code":"072014020","name":"上野寺","lat":37.760411,"lng":140.403369},{"code":"072014030","name":"下野寺","lat":37.764306,"lng":140.415241},{"code":"072014040","name":"八島田","lat":37.769932,"lng":140.431259},{"code":"072014050","name":"李平","lat":37.791322,"lng":140.302492},{"code":"072014060","name":"町庭坂","lat":37.770877,"lng":140.31841},{"code":"072014070","name":"二子塚","lat":37.756746,"lng":140.385871},{"code":"072014080","name":"在庭坂","lat":37.754933,"lng":140.33475},{"code":"072014090","name":"土船","lat":37.740753,"lng":140.372311},{"code":"072014100","name":"庄野","lat":37.739463,"lng":140.385741},{"code":"072014110","name":"桜本","lat":37.735103,"lng":140.313279},{"code":"072015010","name":"東中央","lat":37.762318,"lng":140.441552},{"code":"072015020","name":"東中央","lat":37.762635,"lng":140.439268},{"code":"072015030","name":"東中央","lat":37.762866,"lng":140.436878},{"code":"072015040","name":"西中央","lat":37.759142,"lng":140.433274},{"code":"072015050","name":"西中央","lat":37.761009,"lng":140.433478},{"code":"072015060","name":"西中央","lat":37.761496,"lng":140.42963},{"code":"072015070","name":"西中央","lat":37.759511,"lng":140.429196},{"code":"072015080","name":"西中央","lat":37.757731,"lng":140.430853},{"code":"072015091","name":"南中央","lat":37.759394,"lng":140.440893},{"code":"072015092","name":"南中央","lat":37.759377,"lng":140.439991},{"code":"072015100","name":"南中央","lat":37.76058,"lng":140.437283},{"code":"072015110","name":"南中央","lat":37.758789,"lng":140.437164},{"code":"072015121","name":"南中央","lat":37.756733,"lng":140.440833},{"code":"072015122","name":"南中央","lat":37.757313,"lng":140.437852},{"code":"072015130","name":"北中央","lat":37.762897,"lng":140.433804},{"code":"072015140","name":"北中央","lat":37.764444,"lng":140.433301},{"code":"072015150","name":"北中央","lat":37.764846,"lng":140.4302},{"code":"07201515101","name":"松川町美郷１丁目","lat":37.662075,"lng":140.473204},{"code":"07201515102","name":"松川町美郷２丁目","lat":37.662953,"lng":140.467915},{"code":"07201515103","name":"松川町美郷３丁目","lat":37.665892,"lng":140.465967},{"code":"07201515104","name":"松川町美郷４丁目","lat":37.665769,"lng":140.472119},{"code":"07201515201","name":"南向台１丁目","lat":37.722369,"lng":140.477063},{"code":"07201515202","name":"南向台２丁目","lat":37.724804,"lng":140.481145},{"code":"07201515203","name":"南向台３丁目","lat":37.724668,"lng":140.484736},{"code":"072015153","name":"北中央","lat":37.763611,"lng":140.42983},{"code":"07201516001","name":"飯野町飯野字犬子ケ原","lat":37.66361,"lng":140.528346},{"code":"07201516002","name":"飯野町飯野字後谷戸","lat":37.66144,"lng":140.533595},{"code":"07201516003","name":"飯野町飯野字戸ノ内","lat":37.658745,"lng":140.532467},{"code":"07201516004","name":"飯野町飯野字戸ノ内","lat":37.658355,"lng":140.537052},{"code":"07201516005","name":"飯野町飯野字後川","lat":37.656413,"lng":140.534143},{"code":"07201516006","name":"飯野町飯野字後川","lat":37.656149,"lng":140.534601},{"code":"07201516007","name":"飯野町飯野字後川","lat":37.656476,"lng":140.536186},{"code":"07201516008","name":"飯野町飯野字後川","lat":37.656803,"lng":140.538038},{"code":"07201516009","name":"飯野町飯野字境川","lat":37.656295,"lng":140.539744},{"code":"07201516010","name":"飯野町飯野字境川","lat":37.657272,"lng":140.540034},{"code":"07201516011","name":"飯野町飯野字境川","lat":37.657563,"lng":140.541498},{"code":"07201516012","name":"飯野町飯野字町","lat":37.655492,"lng":140.539558},{"code":"07201516013","name":"飯野町飯野字町","lat":37.655021,"lng":140.538751},{"code":"07201516014","name":"飯野町飯野字町","lat":37.655493,"lng":140.536302},{"code":"07201516015","name":"飯野町飯野字町","lat":37.655584,"lng":140.53392},{"code":"07201516016","name":"飯野町飯野字町","lat":37.65452,"lng":140.533985},{"code":"07201516017","name":"飯野町飯野字経檀","lat":37.65207,"lng":140.533211},{"code":"07201516018","name":"飯野町飯野字経檀","lat":37.654147,"lng":140.535799},{"code":"07201516019","name":"飯野町飯野字経檀","lat":37.652166,"lng":140.535434},{"code":"07201516020","name":"飯野町飯野字西宮平","lat":37.653409,"lng":140.537487},{"code":"07201516021","name":"飯野町飯野字西宮平","lat":37.653105,"lng":140.539395},{"code":"07201516022","name":"飯野町飯野字西宮平","lat":37.652162,"lng":140.538195},{"code":"07201516023","name":"飯野町飯野字西宮平","lat":37.651498,"lng":140.536814},{"code":"07201516024","name":"飯野町飯野字西宮平","lat":37.651211,"lng":140.538395},{"code":"07201516025","name":"飯野町飯野字宮川","lat":37.654588,"lng":140.541701},{"code":"07201516026","name":"飯野町飯野字原田","lat":37.655952,"lng":140.542852},{"code":"07201516027","name":"飯野町飯野字源田内","lat":37.652881,"lng":140.546677},{"code":"07201516028","name":"飯野町飯野字上楮田","lat":37.647373,"lng":140.544844},{"code":"07201516029","name":"飯野町飯野字東鎮石内","lat":37.645832,"lng":140.537825},{"code":"07201516030","name":"飯野町飯野字八幡前","lat":37.642908,"lng":140.531008},{"code":"07201517001","name":"飯野町大久保字明神脇","lat":37.670009,"lng":140.539801},{"code":"07201517002","name":"飯野町大久保字椚山","lat":37.667425,"lng":140.536979},{"code":"07201517003","name":"飯野町大久保字山後","lat":37.667931,"lng":140.54465},{"code":"07201517004","name":"飯野町大久保字向山後","lat":37.669111,"lng":140.548728},{"code":"07201517005","name":"飯野町大久保字竹ノ花","lat":37.668965,"lng":140.552056},{"code":"07201517006","name":"飯野町大久保字上大久保","lat":37.672176,"lng":140.553884},{"code":"07201517007","name":"飯野町大久保字菅平","lat":37.668328,"lng":140.557129},{"code":"07201517008","name":"飯野町大久保字西佐屋戸","lat":37.660103,"lng":140.559138},{"code":"07201517009","name":"飯野町大久保字南町","lat":37.663429,"lng":140.547109},{"code":"07201517010","name":"飯野町大久保字久保","lat":37.660343,"lng":140.546473},{"code":"07201517011","name":"飯野町大久保字久保","lat":37.661213,"lng":140.544738},{"code":"07201517012","name":"飯野町大久保字並柳","lat":37.66203,"lng":140.539213},{"code":"07201517013","name":"飯野町大久保字林崎","lat":37.657765,"lng":140.543701},{"code":"07201517014","name":"飯野町大久保字高石山","lat":37.655479,"lng":140.553774},{"code":"07201518001","name":"飯野町明治字案道内","lat":37.664168,"lng":140.506877},{"code":"07201518002","name":"飯野町明治字菅田","lat":37.665489,"lng":140.513985},{"code":"07201518003","name":"飯野町明治字西向平","lat":37.666055,"lng":140.52101},{"code":"07201518004","name":"飯野町明治字萬才子","lat":37.659549,"lng":140.527639},{"code":"07201518005","name":"飯野町明治字西喜平蔵内","lat":37.656101,"lng":140.524072},{"code":"07201518006","name":"飯野町明治字西鍜治合内","lat":37.662506,"lng":140.520171},{"code":"07201518007","name":"飯野町明治字南小戸明利","lat":37.660226,"lng":140.516947},{"code":"07201518008","name":"飯野町明治字鍜治屋","lat":37.656294,"lng":140.515359},{"code":"07201518009","name":"飯野町明治字水原岫","lat":37.648998,"lng":140.518197},{"code":"07201518010","name":"飯野町明治字呼り石","lat":37.651395,"lng":140.52567},{"code":"07201518011","name":"飯野町明治字南和台","lat":37.649367,"lng":140.528822},{"code":"07201518012","name":"飯野町明治字蛭田","lat":37.654081,"lng":140.530061},{"code":"07201519001","name":"飯野町青木字峠ノ作","lat":37.709716,"lng":140.533654},{"code":"07201519002","name":"飯野町青木字仲森入","lat":37.689382,"lng":140.541489},{"code":"07201519003","name":"飯野町青木字才ノ内","lat":37.685164,"lng":140.542132},{"code":"07201519004","name":"飯野町青木字日ノ倉","lat":37.688564,"lng":140.533405},{"code":"07201519005","name":"飯野町青木字林下","lat":37.682915,"lng":140.531137},{"code":"07201519006","name":"飯野町青木字柿ノ久保","lat":37.682708,"lng":140.526596},{"code":"07201519007","name":"飯野町青木字東前","lat":37.676365,"lng":140.524742},{"code":"07201519008","name":"飯野町青木字水内","lat":37.676014,"lng":140.527978},{"code":"07201519009","name":"飯野町青木字松保","lat":37.673835,"lng":140.531387},{"code":"07201519010","name":"飯野町青木字岩塚","lat":37.676713,"lng":140.53578},{"code":"07201519011","name":"飯野町青木字小武木","lat":37.680575,"lng":140.537863},{"code":"07201519012","name":"飯野町青木字荒井","lat":37.676968,"lng":140.542658},{"code":"07201519013","name":"飯野町青木字鍛治屋","lat":37.679772,"lng":140.546406},{"code":"07201519014","name":"飯野町青木字原","lat":37.666539,"lng":140.531707},{"code":"07201519015","name":"飯野町青木字梅木田","lat":37.668383,"lng":140.528384},{"code":"07201519016","name":"飯野町青木字広表","lat":37.671072,"lng":140.52657},{"code":"07201519017","name":"飯野町青木字河原田","lat":37.670356,"lng":140.522809}]}
