{"municipality":"07211","name":"田村市","prefecture":"福島県","source":{"dataset":"frogcat/japan-small-area","census":"平成27年国勢調査 小地域（e-Stat 統計LOD）","license":"MIT（リポジトリ）／政府統計の総合窓口(e-Stat)の利用規約（元データ・出典表記必要）","fetched":"2026-07-06"},"towns":[{"code":"072110010","name":"船引町今泉","lat":37.421189,"lng":140.602615},{"code":"072110020","name":"船引町船引","lat":37.431377,"lng":140.592115},{"code":"072110030","name":"船引町船引","lat":37.434927,"lng":140.581231},{"code":"072110040","name":"船引町船引","lat":37.431178,"lng":140.572066},{"code":"072110050","name":"船引町船引","lat":37.441687,"lng":140.574414},{"code":"072110060","name":"船引町船引","lat":37.449623,"lng":140.578919},{"code":"072110070","name":"船引町船引","lat":37.440569,"lng":140.561594},{"code":"072110080","name":"船引町石森","lat":37.442622,"lng":140.548361},{"code":"072110090","name":"船引町長外路","lat":37.471456,"lng":140.591838},{"code":"072110100","name":"船引町大倉","lat":37.484977,"lng":140.569198},{"code":"072110110","name":"船引町新舘","lat":37.502163,"lng":140.598773},{"code":"072110120","name":"船引町上移","lat":37.517453,"lng":140.674818},{"code":"072110130","name":"船引町北移","lat":37.512557,"lng":140.636714},{"code":"072110140","name":"船引町中山","lat":37.487233,"lng":140.671789},{"code":"072110150","name":"船引町芦沢","lat":37.407416,"lng":140.53707},{"code":"072110160","name":"船引町門沢","lat":37.38026,"lng":140.593626},{"code":"072110170","name":"船引町椚山","lat":37.408264,"lng":140.586963},{"code":"072110180","name":"船引町遠山沢","lat":37.386341,"lng":140.565923},{"code":"072110190","name":"船引町荒和田","lat":37.459935,"lng":140.52867},{"code":"07211020001","name":"船引町東部台１丁目","lat":37.440529,"lng":140.580124},{"code":"07211020002","name":"船引町東部台２丁目","lat":37.442376,"lng":140.581716},{"code":"07211020003","name":"船引町東部台３丁目","lat":37.443452,"lng":140.584932},{"code":"07211020004","name":"船引町東部台４丁目","lat":37.438959,"lng":140.587773},{"code":"07211020005","name":"船引町東部台５丁目","lat":37.437826,"lng":140.585835},{"code":"07211020006","name":"船引町東部台６丁目","lat":37.4378,"lng":140.583582},{"code":"072110210","name":"滝根町神俣","lat":37.329615,"lng":140.688281},{"code":"072110220","name":"滝根町広瀬","lat":37.298504,"lng":140.6624},{"code":"072110230","name":"滝根町菅谷","lat":37.348857,"lng":140.648849},{"code":"072110240","name":"大越町上大越","lat":37.377624,"lng":140.637251},{"code":"072110250","name":"大越町下大越","lat":37.403315,"lng":140.626782},{"code":"072110260","name":"大越町牧野","lat":37.364341,"lng":140.596567},{"code":"072110270","name":"大越町栗出","lat":37.356488,"lng":140.60958},{"code":"072110280","name":"大越町早稲川","lat":37.378746,"lng":140.669711},{"code":"07211029001","name":"都路町岩井沢字西戸","lat":37.460944,"lng":140.708195},{"code":"07211029002","name":"都路町岩井沢字平内地","lat":37.46139,"lng":140.717703},{"code":"07211029003","name":"都路町岩井沢字平内地","lat":37.461343,"lng":140.725252},{"code":"07211029004","name":"都路町岩井沢字小与内","lat":37.441634,"lng":140.717605},{"code":"07211029005","name":"都路町岩井沢字小与内","lat":37.4573,"lng":140.733665},{"code":"07211029006","name":"都路町岩井沢字平蔵内","lat":37.448191,"lng":140.742828},{"code":"07211029007","name":"都路町岩井沢字段ノ原","lat":37.468889,"lng":140.738358},{"code":"07211029008","name":"都路町岩井沢字松ノ口","lat":37.47254,"lng":140.724714},{"code":"07211029009","name":"都路町岩井沢字持藤田","lat":37.476999,"lng":140.728246},{"code":"07211029010","name":"都路町岩井沢字楢梨子","lat":37.463854,"lng":140.757224},{"code":"07211029011","name":"都路町岩井沢字道之内","lat":37.445653,"lng":140.758987},{"code":"07211029015","name":"都路町古道字下板橋","lat":37.407987,"lng":140.753954},{"code":"07211030001","name":"都路町古道字呼石","lat":37.448053,"lng":140.779434},{"code":"07211030002","name":"都路町古道字橋向","lat":37.463112,"lng":140.789103},{"code":"07211030003","name":"都路町古道字橋向","lat":37.442589,"lng":140.792711},{"code":"07211030004","name":"都路町古道字寺下","lat":37.434763,"lng":140.792085},{"code":"07211030005","name":"都路町古道字横山前","lat":37.436978,"lng":140.802055},{"code":"07211030006","name":"都路町古道字根岸","lat":37.435232,"lng":140.820703},{"code":"07211030007","name":"都路町古道字山崎","lat":37.434479,"lng":140.776475},{"code":"07211030008","name":"都路町古道字中屋敷","lat":37.428496,"lng":140.759202},{"code":"07211030009","name":"都路町古道字山口","lat":37.424827,"lng":140.74002},{"code":"07211030010","name":"都路町古道字尾ノ川","lat":37.415051,"lng":140.82304},{"code":"07211030011","name":"都路町古道字場々","lat":37.392182,"lng":140.839735},{"code":"07211030012","name":"都路町古道柳沢","lat":37.404607,"lng":140.818664},{"code":"07211030013","name":"都路町古道字蒲生河原","lat":37.401385,"lng":140.800914},{"code":"07211030014","name":"都路町古道字東久保","lat":37.399227,"lng":140.780638},{"code":"07211030015","name":"都路町古道馬洗戸","lat":37.396909,"lng":140.755383},{"code":"07211031001","name":"常葉町常葉字西田","lat":37.441781,"lng":140.635751},{"code":"07211031002","name":"常葉町常葉字荒町","lat":37.44131,"lng":140.639396},{"code":"07211031003","name":"常葉町常葉字中町","lat":37.442326,"lng":140.642318},{"code":"07211031004","name":"常葉町常葉字上町","lat":37.443556,"lng":140.648617},{"code":"07211031005","name":"常葉町常葉字上町","lat":37.439647,"lng":140.648289},{"code":"07211031006","name":"常葉町常葉字本坊","lat":37.440361,"lng":140.65198},{"code":"07211031007","name":"常葉町常葉字石蒔田","lat":37.433989,"lng":140.659668},{"code":"07211031008","name":"常葉町常葉字四重城","lat":37.432541,"lng":140.678405},{"code":"07211031009","name":"常葉町常葉字陣場","lat":37.429964,"lng":140.649756},{"code":"07211031010","name":"常葉町常葉字上町","lat":37.437755,"lng":140.647504},{"code":"07211031011","name":"常葉町常葉字上町","lat":37.437102,"lng":140.64553},{"code":"07211031012","name":"常葉町常葉字中町","lat":37.425629,"lng":140.642916},{"code":"07211031013","name":"常葉町常葉字荒町","lat":37.439155,"lng":140.636058},{"code":"07211031014","name":"常葉町常葉字荒町","lat":37.436256,"lng":140.633142},{"code":"07211031015","name":"常葉町常葉字馬場","lat":37.437203,"lng":140.63817},{"code":"07211031016","name":"常葉町常葉字山田作","lat":37.422994,"lng":140.629345},{"code":"07211032001","name":"常葉町西向字下ノ内","lat":37.469538,"lng":140.623873},{"code":"07211032002","name":"常葉町西向字休石","lat":37.451442,"lng":140.624905},{"code":"07211032003","name":"常葉町西向字板橋","lat":37.448832,"lng":140.60175},{"code":"07211032004","name":"常葉町西向字中","lat":37.44382,"lng":140.613325},{"code":"07211032005","name":"常葉町西向字西美田","lat":37.434908,"lng":140.616657},{"code":"07211033001","name":"常葉町鹿山字岩崎","lat":37.458336,"lng":140.615067},{"code":"07211033002","name":"常葉町鹿山字下モ田","lat":37.455911,"lng":140.603112},{"code":"07211034001","name":"常葉町久保字高原","lat":37.460633,"lng":140.638077},{"code":"07211034002","name":"常葉町久保字栃久保","lat":37.446889,"lng":140.632146},{"code":"07211035001","name":"常葉町新田作字湯舟","lat":37.460766,"lng":140.650926},{"code":"07211035002","name":"常葉町新田作字割石作","lat":37.449783,"lng":140.650885},{"code":"072110360","name":"常葉町関本","lat":37.414535,"lng":140.651227},{"code":"072110370","name":"常葉町小檜山","lat":37.414741,"lng":140.669262},{"code":"07211038001","name":"常葉町早稲川字柳渡戸","lat":37.392443,"lng":140.684984},{"code":"07211038002","name":"常葉町早稲川字中妻","lat":37.397094,"lng":140.670148},{"code":"07211038003","name":"常葉町早稲川字東片草","lat":37.403865,"lng":140.656475},{"code":"07211039001","name":"常葉町堀田字岡之内","lat":37.417445,"lng":140.686286},{"code":"07211039002","name":"常葉町堀田字五月平","lat":37.42081,"lng":140.700898},{"code":"07211039003","name":"常葉町堀田字田代","lat":37.413566,"lng":140.714694},{"code":"07211039004","name":"常葉町堀田字黒川","lat":37.404551,"lng":140.696141},{"code":"07211039005","name":"常葉町堀田字八升栗","lat":37.392067,"lng":140.705239},{"code":"07211039006","name":"常葉町堀田","lat":37.367535,"lng":140.689037},{"code":"07211040001","name":"常葉町山根字定福","lat":37.461482,"lng":140.66009},{"code":"07211040002","name":"常葉町山根字富岡","lat":37.46997,"lng":140.673026},{"code":"07211040003","name":"常葉町山根字萩平","lat":37.458644,"lng":140.683763},{"code":"07211040004","name":"常葉町山根字沢又","lat":37.445114,"lng":140.682482}]}
