{"municipality":"07308","name":"伊達郡川俣町","prefecture":"福島県","source":{"dataset":"frogcat/japan-small-area","census":"平成27年国勢調査 小地域（e-Stat 統計LOD）","license":"MIT（リポジトリ）／政府統計の総合窓口(e-Stat)の利用規約（元データ・出典表記必要）","fetched":"2026-07-06"},"towns":[{"code":"07308001000","name":"字仲ノ内","lat":37.650973,"lng":140.605344},{"code":"07308001003","name":"字橋本","lat":37.65475,"lng":140.61344},{"code":"07308001004","name":"字小作","lat":37.657339,"lng":140.611717},{"code":"07308001005","name":"字上桜","lat":37.651631,"lng":140.603047},{"code":"07308001007","name":"字大作","lat":37.658636,"lng":140.607669},{"code":"07308001010","name":"字新中町","lat":37.660023,"lng":140.605245},{"code":"07308001015","name":"字川原田","lat":37.662442,"lng":140.6027},{"code":"07308001018","name":"字鉄炮町","lat":37.663296,"lng":140.603597},{"code":"07308001019","name":"字寺久保","lat":37.663097,"lng":140.604968},{"code":"07308001020","name":"字賎ノ田","lat":37.660279,"lng":140.612801},{"code":"07308001021","name":"字東大清水","lat":37.662974,"lng":140.610221},{"code":"07308001023","name":"字竹ノ内","lat":37.667754,"lng":140.601349},{"code":"07308001024","name":"字天神入","lat":37.672034,"lng":140.599513},{"code":"07308001025","name":"字宮町","lat":37.667825,"lng":140.598926},{"code":"07308001026","name":"字宮ノ入","lat":37.66886,"lng":140.597009},{"code":"07308001030","name":"字樋ノ口","lat":37.664779,"lng":140.597099},{"code":"07308001031","name":"字五百田","lat":37.665706,"lng":140.59845},{"code":"07308001032","name":"字八反田","lat":37.665712,"lng":140.600434},{"code":"07308001035","name":"字日和田","lat":37.66394,"lng":140.599615},{"code":"07308001036","name":"字段ノ腰","lat":37.662956,"lng":140.59929},{"code":"07308001037","name":"字池ノ入","lat":37.660089,"lng":140.601135},{"code":"07308001038","name":"字中丁","lat":37.667633,"lng":140.603115},{"code":"07308001040","name":"字寺前","lat":37.669591,"lng":140.604559},{"code":"07308001041","name":"字本町","lat":37.667648,"lng":140.605452},{"code":"07308001042","name":"字中島","lat":37.667906,"lng":140.607644},{"code":"07308001043","name":"字倉ケ作","lat":37.675709,"lng":140.604062},{"code":"07308001044","name":"字七窪","lat":37.673085,"lng":140.609404},{"code":"07308001045","name":"字西戸ノ内","lat":37.669957,"lng":140.610638},{"code":"07308001046","name":"字壁沢","lat":37.670557,"lng":140.611801},{"code":"07308001047","name":"字舘","lat":37.66712,"lng":140.610792},{"code":"07308001049","name":"字大内","lat":37.668017,"lng":140.609057},{"code":"07308001052","name":"字根本","lat":37.666056,"lng":140.605968},{"code":"07308001054","name":"字瓦町","lat":37.665315,"lng":140.602767},{"code":"07308001055","name":"字後田","lat":37.665245,"lng":140.604582},{"code":"07308001056","name":"字後庵","lat":37.665344,"lng":140.610456},{"code":"07308001057","name":"字大清水","lat":37.665403,"lng":140.607494},{"code":"07308001058","name":"字赤坂","lat":37.666765,"lng":140.595854},{"code":"07308001059","name":"字柏崎","lat":37.661595,"lng":140.597378},{"code":"07308002001","name":"大字小島字壁屋","lat":37.702936,"lng":140.607317},{"code":"07308002002","name":"大字小島字荒屋敷","lat":37.708584,"lng":140.614721},{"code":"07308002003","name":"大字小島字田代前","lat":37.702138,"lng":140.641921},{"code":"07308002004","name":"大字小島字小作","lat":37.696861,"lng":140.622506},{"code":"07308002005","name":"大字小島字岩阿久","lat":37.696106,"lng":140.60974},{"code":"07308002006","name":"大字小島字古内","lat":37.694634,"lng":140.597372},{"code":"07308002007","name":"大字小島字清水前","lat":37.687097,"lng":140.596779},{"code":"07308002008","name":"大字小島字新関前","lat":37.687318,"lng":140.615635},{"code":"07308003001","name":"飯坂字落合","lat":37.676914,"lng":140.614353},{"code":"07308003002","name":"飯坂字山ノ神","lat":37.681361,"lng":140.620204},{"code":"07308003003","name":"飯坂字松木内","lat":37.682544,"lng":140.63484},{"code":"07308003004","name":"飯坂字蒲ケ作","lat":37.677125,"lng":140.648868},{"code":"07308003005","name":"飯坂字三本梨子","lat":37.668114,"lng":140.652299},{"code":"07308003006","name":"飯坂字上成栗","lat":37.668138,"lng":140.631729},{"code":"07308003007","name":"飯坂字北古堂道内","lat":37.670226,"lng":140.625617},{"code":"07308003008","name":"飯坂字上中居","lat":37.667693,"lng":140.622115},{"code":"07308003009","name":"飯坂字八反田","lat":37.666223,"lng":140.618389},{"code":"07308003010","name":"飯坂字諏訪","lat":37.66822,"lng":140.61572},{"code":"07308003011","name":"飯坂字中道","lat":37.665121,"lng":140.61339},{"code":"07308003012","name":"飯坂字米子田","lat":37.66461,"lng":140.615608},{"code":"07308003013","name":"飯坂字下谷沢","lat":37.657907,"lng":140.627488},{"code":"07308003014","name":"飯坂字坂ノ入","lat":37.65748,"lng":140.649768},{"code":"07308004001","name":"小綱木字反田","lat":37.647583,"lng":140.611512},{"code":"07308004002","name":"小綱木字松ノ口","lat":37.646069,"lng":140.619477},{"code":"07308004003","name":"小綱木字長滝","lat":37.627656,"lng":140.617019},{"code":"07308004004","name":"小綱木字菅立目","lat":37.624158,"lng":140.6378},{"code":"07308004005","name":"小綱木字沢","lat":37.640708,"lng":140.63446},{"code":"07308004006","name":"小綱木字上羽金","lat":37.638228,"lng":140.654782},{"code":"07308005001","name":"大綱木字不動坂","lat":37.620011,"lng":140.593687},{"code":"07308005002","name":"大綱木字大木田","lat":37.627681,"lng":140.601291},{"code":"07308005003","name":"大綱木字天神下","lat":37.641321,"lng":140.599514},{"code":"07308006001","name":"山木屋字細畑","lat":37.620099,"lng":140.660494},{"code":"07308006002","name":"山木屋字蕨平","lat":37.614199,"lng":140.633653},{"code":"07308006003","name":"山木屋字下長橋","lat":37.599177,"lng":140.642003},{"code":"07308006004","name":"山木屋字五斗蒔田","lat":37.60545,"lng":140.656223},{"code":"07308006005","name":"山木屋字大清水","lat":37.613178,"lng":140.672787},{"code":"07308006006","name":"山木屋字問屋","lat":37.608773,"lng":140.679927},{"code":"07308006007","name":"山木屋字西ノ脇","lat":37.595619,"lng":140.671619},{"code":"07308006008","name":"山木屋字世戸四山","lat":37.583781,"lng":140.649438},{"code":"07308006009","name":"山木屋字高屋敷","lat":37.602075,"lng":140.687285},{"code":"07308006010","name":"山木屋字木向山","lat":37.588321,"lng":140.696557},{"code":"07308006011","name":"山木屋字広久保山","lat":37.587073,"lng":140.71138},{"code":"07308006012","name":"山木屋字上田代","lat":37.562757,"lng":140.687646},{"code":"07308007001","name":"大字小神字紙敷内","lat":37.680159,"lng":140.5797},{"code":"07308007002","name":"大字小神字盛内","lat":37.677716,"lng":140.583992},{"code":"07308007003","name":"大字小神字板倉内","lat":37.672011,"lng":140.588642},{"code":"07308007004","name":"大字小神字杉ノ内","lat":37.677344,"lng":140.591118},{"code":"07308008001","name":"大字秋山字中森","lat":37.703635,"lng":140.55103},{"code":"07308008002","name":"大字秋山字渋田","lat":37.707611,"lng":140.56075},{"code":"07308008003","name":"大字秋山字柿窪","lat":37.694828,"lng":140.566691},{"code":"07308008004","name":"大字秋山字町椚下","lat":37.696779,"lng":140.558598},{"code":"07308008005","name":"大字秋山字蟹沢","lat":37.690148,"lng":140.553248},{"code":"07308008006","name":"大字秋山字山ノ神","lat":37.693981,"lng":140.544734},{"code":"07308009001","name":"大字鶴沢字細越","lat":37.671594,"lng":140.594524},{"code":"07308009002","name":"大字鶴沢字細越","lat":37.665845,"lng":140.593885},{"code":"07308009003","name":"大字鶴沢字笛田","lat":37.665043,"lng":140.593052},{"code":"07308009004","name":"大字鶴沢字笛田","lat":37.66521,"lng":140.592465},{"code":"07308009005","name":"大字鶴沢字油田","lat":37.666177,"lng":140.591759},{"code":"07308009006","name":"大字鶴沢字戸ノ内","lat":37.668012,"lng":140.589899},{"code":"07308009007","name":"大字鶴沢字下中島","lat":37.663451,"lng":140.587129},{"code":"07308009008","name":"大字鶴沢字鍛治内","lat":37.664872,"lng":140.582797},{"code":"07308009009","name":"大字鶴沢字東","lat":37.669321,"lng":140.575281},{"code":"07308009010","name":"大字鶴沢字中西","lat":37.672251,"lng":140.571665},{"code":"07308009011","name":"大字鶴沢字清水入","lat":37.674159,"lng":140.568456},{"code":"07308009012","name":"大字鶴沢字遠西","lat":37.675829,"lng":140.567133},{"code":"07308009013","name":"大字鶴沢字西町","lat":37.665323,"lng":140.568222},{"code":"07308009014","name":"大字鶴沢字鶴東","lat":37.66237,"lng":140.577965},{"code":"07308009015","name":"大字鶴沢字餅石","lat":37.661966,"lng":140.588998},{"code":"07308009016","name":"大字鶴沢字川端","lat":37.665594,"lng":140.59609},{"code":"07308009017","name":"大字鶴沢字京田","lat":37.664374,"lng":140.595645},{"code":"07308009018","name":"大字鶴沢字川端","lat":37.663516,"lng":140.595814},{"code":"07308009019","name":"大字鶴沢字池ノ上","lat":37.663564,"lng":140.575526},{"code":"07308010001","name":"大字西福沢字新屋敷","lat":37.64683,"lng":140.57794},{"code":"07308010002","name":"大字西福沢字足ノ又","lat":37.649303,"lng":140.563888},{"code":"07308010003","name":"大字西福沢字山田","lat":37.651489,"lng":140.571642},{"code":"07308010004","name":"大字西福沢字高田","lat":37.635053,"lng":140.57402},{"code":"07308011002","name":"大字東福沢字古内","lat":37.660061,"lng":140.592538},{"code":"07308011003","name":"大字東福沢字一反田","lat":37.651561,"lng":140.59395},{"code":"07308011004","name":"大字東福沢字暮シノ内","lat":37.657688,"lng":140.598606},{"code":"07308011005","name":"大字東福沢字小高屋敷","lat":37.65548,"lng":140.58439},{"code":"07308011006","name":"大字東福沢字胡桃坂","lat":37.648847,"lng":140.583848},{"code":"07308011007","name":"大字東福沢字香田","lat":37.640175,"lng":140.586147},{"code":"07308012001","name":"大字羽田字十二社","lat":37.682042,"lng":140.556118},{"code":"07308012002","name":"大字羽田字寺屋敷","lat":37.684825,"lng":140.565076},{"code":"07308012003","name":"大字羽田字石橋","lat":37.691644,"lng":140.573732},{"code":"07308012004","name":"大字羽田字烏合内","lat":37.685963,"lng":140.578201},{"code":"07308012005","name":"大字羽田字畝歩内","lat":37.679795,"lng":140.568194},{"code":"07308012006","name":"大字羽田字乙腰","lat":37.676289,"lng":140.556471}]}
