{"municipality":"07405","name":"耶麻郡西会津町","prefecture":"福島県","source":{"dataset":"frogcat/japan-small-area","census":"平成27年国勢調査 小地域（e-Stat 統計LOD）","license":"MIT（リポジトリ）／政府統計の総合窓口(e-Stat)の利用規約（元データ・出典表記必要）","fetched":"2026-07-06"},"towns":[{"code":"074050010","name":"野沢","lat":37.561918,"lng":139.613112},{"code":"074050020","name":"宝坂大字宝坂","lat":37.625742,"lng":139.590445},{"code":"074050030","name":"奥川大字飯根","lat":37.721443,"lng":139.679134},{"code":"074050040","name":"新郷大字笹川","lat":37.639451,"lng":139.665647},{"code":"074050050","name":"登世島","lat":37.558728,"lng":139.667365}]}
