{"municipality":"07422","name":"河沼郡湯川村","prefecture":"福島県","source":{"dataset":"frogcat/japan-small-area","census":"平成27年国勢調査 小地域（e-Stat 統計LOD）","license":"MIT（リポジトリ）／政府統計の総合窓口(e-Stat)の利用規約（元データ・出典表記必要）","fetched":"2026-07-06"},"towns":[{"code":"07422001001","name":"大字浜崎字春日前","lat":37.587701,"lng":139.88655},{"code":"07422001002","name":"大字浜崎字原口","lat":37.587582,"lng":139.897022},{"code":"07422001003","name":"大字浜崎字古木分","lat":37.585064,"lng":139.90232},{"code":"07422001004","name":"大字浜崎字西江向","lat":37.583588,"lng":139.885015},{"code":"07422002001","name":"大字湊字道北","lat":37.585224,"lng":139.898768},{"code":"07422002002","name":"大字湊字村中","lat":37.581094,"lng":139.900945},{"code":"07422002003","name":"大字湊字上ノ条","lat":37.57936,"lng":139.888702},{"code":"07422002004","name":"大字湊字鍛治屋敷","lat":37.582768,"lng":139.881255},{"code":"07422002005","name":"大字湊字菅","lat":37.577331,"lng":139.895036},{"code":"07422003001","name":"大字田川字村東","lat":37.574954,"lng":139.878934},{"code":"07422003002","name":"大字田川字中扇田","lat":37.564719,"lng":139.877842},{"code":"07422003003","name":"大字田川字作園","lat":37.56539,"lng":139.883421},{"code":"07422003004","name":"大字田川字宮ノ北","lat":37.5593,"lng":139.881857},{"code":"07422003005","name":"大字田川字上分","lat":37.554968,"lng":139.877799},{"code":"07422004001","name":"大字三川字二城","lat":37.576298,"lng":139.873601},{"code":"07422004002","name":"大字三川字宮ノ前","lat":37.568979,"lng":139.877697},{"code":"07422004003","name":"大字三川字館","lat":37.579095,"lng":139.877986},{"code":"07422004004","name":"大字三川字深町","lat":37.572872,"lng":139.871947},{"code":"074220050","name":"大字堂畑","lat":37.57536,"lng":139.865927},{"code":"07422006001","name":"大字笈川字殿田","lat":37.572175,"lng":139.888977},{"code":"07422006002","name":"大字笈川字王畑","lat":37.566038,"lng":139.894721},{"code":"07422006003","name":"大字笈川字村北","lat":37.578208,"lng":139.894},{"code":"07422007001","name":"大字清水田字常照","lat":37.562701,"lng":139.891529},{"code":"07422007002","name":"大字清水田字堂前","lat":37.558889,"lng":139.89034},{"code":"07422007003","name":"大字清水田字丸ノ内","lat":37.551954,"lng":139.887381},{"code":"07422008001","name":"大字桜町字千苅","lat":37.555501,"lng":139.900042},{"code":"07422008002","name":"大字桜町字大下","lat":37.548987,"lng":139.896161},{"code":"07422009001","name":"大字熊ノ目字上江","lat":37.550841,"lng":139.881945},{"code":"07422009002","name":"大字熊ノ目字東畑","lat":37.548494,"lng":139.873212},{"code":"07422009003","name":"大字熊ノ目","lat":37.555174,"lng":139.872252},{"code":"07422009004","name":"大字熊ノ目字宮田","lat":37.553633,"lng":139.87604},{"code":"07422010001","name":"大字佐野目字四郎右エ門田","lat":37.551711,"lng":139.865074},{"code":"07422010002","name":"大字佐野目字宮前","lat":37.557672,"lng":139.866026},{"code":"074220110","name":"大字勝常","lat":37.56293,"lng":139.868159}]}
