{"municipality":"07482","name":"東白川郡矢祭町","prefecture":"福島県","source":{"dataset":"frogcat/japan-small-area","census":"平成27年国勢調査 小地域（e-Stat 統計LOD）","license":"MIT（リポジトリ）／政府統計の総合窓口(e-Stat)の利用規約（元データ・出典表記必要）","fetched":"2026-07-06"},"towns":[{"code":"074820010","name":"大字茗荷","lat":36.906473,"lng":140.335255},{"code":"074820020","name":"大字内川","lat":36.861096,"lng":140.384274},{"code":"074820030","name":"大字関岡","lat":36.87077,"lng":140.405423},{"code":"074820040","name":"大字山下","lat":36.837532,"lng":140.41333},{"code":"074820050","name":"大字中石井","lat":36.916635,"lng":140.425743},{"code":"074820060","name":"大字下石井","lat":36.896384,"lng":140.434046},{"code":"074820070","name":"大字戸塚","lat":36.88882,"lng":140.421634},{"code":"074820080","name":"大字金沢","lat":36.881405,"lng":140.433818},{"code":"074820090","name":"大字東舘","lat":36.875022,"lng":140.424007},{"code":"074820100","name":"大字宝坂","lat":36.864608,"lng":140.46865},{"code":"074820110","name":"大字小田川","lat":36.856358,"lng":140.430934},{"code":"074820130","name":"大字上関河内","lat":36.826913,"lng":140.473658},{"code":"074820140","name":"大字大垬","lat":36.809427,"lng":140.46696},{"code":"074820150","name":"大字高野","lat":36.85028,"lng":140.41817}]}
