{"municipality":"07505","name":"石川郡古殿町","prefecture":"福島県","source":{"dataset":"frogcat/japan-small-area","census":"平成27年国勢調査 小地域（e-Stat 統計LOD）","license":"MIT（リポジトリ）／政府統計の総合窓口(e-Stat)の利用規約（元データ・出典表記必要）","fetched":"2026-07-06"},"towns":[{"code":"07505001026","name":"大字仙石字松ケ平","lat":37.108439,"lng":140.505877},{"code":"07505001028","name":"大字仙石字木戸脇","lat":37.099204,"lng":140.510551},{"code":"07505002030","name":"大字鎌田字吉田","lat":37.085703,"lng":140.510076},{"code":"07505002031","name":"大字鎌田字長光地","lat":37.089128,"lng":140.519191},{"code":"07505002032","name":"大字鎌田字明内","lat":37.072255,"lng":140.528853},{"code":"07505003027","name":"大字田口字松森","lat":37.116047,"lng":140.53027},{"code":"07505003029","name":"大字田口字中居","lat":37.09694,"lng":140.524267},{"code":"07505003033","name":"大字田口字寺前","lat":37.0933,"lng":140.533452},{"code":"07505004034","name":"大字竹貫字竹貫","lat":37.105305,"lng":140.543132},{"code":"07505004035","name":"大字竹貫字竹貫","lat":37.094421,"lng":140.55319},{"code":"07505004036","name":"大字竹貫字竹貫","lat":37.092116,"lng":140.546968},{"code":"07505004037","name":"大字竹貫字立中","lat":37.090248,"lng":140.538694},{"code":"07505005001","name":"大字論田字後田","lat":37.156214,"lng":140.557655},{"code":"07505005002","name":"大字論田字古畑","lat":37.140728,"lng":140.546899},{"code":"07505005003","name":"大字論田字上鵰巣","lat":37.151665,"lng":140.576739},{"code":"07505006004","name":"大字山上字竹貫田","lat":37.143637,"lng":140.611661},{"code":"07505006006","name":"大字山上字仮宿","lat":37.125371,"lng":140.591884},{"code":"07505006007","name":"大字山上字浪滝","lat":37.134219,"lng":140.589236},{"code":"07505006008","name":"大字山上字岩久保","lat":37.129279,"lng":140.57021},{"code":"07505007009","name":"大字山上字根本内","lat":37.124442,"lng":140.554747},{"code":"07505007010","name":"大字山上字篠久保","lat":37.105554,"lng":140.565214},{"code":"07505007011","name":"大字山上字宮前","lat":37.098613,"lng":140.560639},{"code":"07505007015","name":"大字山上字百目鬼","lat":37.110588,"lng":140.585242},{"code":"07505008012","name":"大字松川字桑原","lat":37.091602,"lng":140.565459},{"code":"07505008013","name":"大字松川字大作","lat":37.077014,"lng":140.54842},{"code":"07505008014","name":"大字松川字横川","lat":37.082216,"lng":140.568311},{"code":"07505009005","name":"大字大久田字高房","lat":37.116535,"lng":140.63386},{"code":"07505009016","name":"大字大久田字松久保","lat":37.09829,"lng":140.603639},{"code":"07505009017","name":"大字大久田字越代","lat":37.091085,"lng":140.638146},{"code":"07505009018","name":"大字大久田字下大久田","lat":37.070887,"lng":140.615488},{"code":"07505010019","name":"大字松川字前木","lat":37.072999,"lng":140.571847},{"code":"07505010020","name":"大字松川字前木","lat":37.061158,"lng":140.576818},{"code":"07505010021","name":"大字松川字大原","lat":37.055238,"lng":140.599887},{"code":"07505010022","name":"大字松川字水沼","lat":37.038663,"lng":140.613986},{"code":"07505010023","name":"大字松川字美沢","lat":37.026833,"lng":140.595507},{"code":"07505010024","name":"大字松川字和久","lat":37.045434,"lng":140.583017},{"code":"07505010025","name":"大字松川字滝ノ平","lat":37.020026,"lng":140.573725}]}
