{"municipality":"07504","name":"石川郡浅川町","prefecture":"福島県","source":{"dataset":"frogcat/japan-small-area","census":"平成27年国勢調査 小地域（e-Stat 統計LOD）","license":"MIT（リポジトリ）／政府統計の総合窓口(e-Stat)の利用規約（元データ・出典表記必要）","fetched":"2026-07-06"},"towns":[{"code":"075040010","name":"大字浅川","lat":37.081801,"lng":140.414591},{"code":"075040020","name":"大字簑輪","lat":37.069755,"lng":140.408639},{"code":"075040030","name":"大字袖山","lat":37.062213,"lng":140.412653},{"code":"075040040","name":"大字根岸","lat":37.06308,"lng":140.421396},{"code":"075040050","name":"大字大草","lat":37.044845,"lng":140.431952},{"code":"075040070","name":"大字中里","lat":37.069724,"lng":140.432001},{"code":"075040080","name":"大字東大畑","lat":37.076623,"lng":140.422802},{"code":"075040090","name":"大字畑田","lat":37.081622,"lng":140.435388},{"code":"075040100","name":"大字里白石","lat":37.103859,"lng":140.427568},{"code":"075040110","name":"大字福貴作","lat":37.115519,"lng":140.422926},{"code":"075040120","name":"大字染","lat":37.099209,"lng":140.405398},{"code":"075040130","name":"大字滝輪","lat":37.092905,"lng":140.413543},{"code":"075040140","name":"大字小貫","lat":37.080594,"lng":140.384937},{"code":"075040150","name":"大字太田輪","lat":37.088604,"lng":140.398421},{"code":"075040160","name":"大字山白石","lat":37.092091,"lng":140.450082}]}
