{"municipality":"07548","name":"双葉郡葛尾村","prefecture":"福島県","source":{"dataset":"frogcat/japan-small-area","census":"平成27年国勢調査 小地域（e-Stat 統計LOD）","license":"MIT（リポジトリ）／政府統計の総合窓口(e-Stat)の利用規約（元データ・出典表記必要）","fetched":"2026-07-06"},"towns":[{"code":"07548001001","name":"大字落合字関下","lat":37.500003,"lng":140.768309},{"code":"07548001002","name":"大字落合字夏湯","lat":37.488207,"lng":140.786783},{"code":"07548001003","name":"大字落合字家老川","lat":37.47981,"lng":140.82003},{"code":"07548001004","name":"大字落合字木取場","lat":37.5046,"lng":140.825321},{"code":"07548001005","name":"大字落合字大笹","lat":37.509878,"lng":140.791942},{"code":"07548002010","name":"大字野川字仲島","lat":37.504749,"lng":140.715834},{"code":"07548002011","name":"大字野川字湯ノ平","lat":37.498079,"lng":140.742565},{"code":"075480030","name":"大字上野川","lat":37.512807,"lng":140.716792},{"code":"07548004006","name":"大字葛尾字柏原","lat":37.525247,"lng":140.827504},{"code":"07548004007","name":"大字葛尾字広谷地","lat":37.524794,"lng":140.789134},{"code":"07548004008","name":"大字葛尾字関場","lat":37.524084,"lng":140.758514},{"code":"07548004009","name":"大字葛尾字風越","lat":37.530333,"lng":140.717205}]}
