{"municipality":"08207","name":"結城市","prefecture":"茨城県","source":{"dataset":"frogcat/japan-small-area","census":"平成27年国勢調査 小地域（e-Stat 統計LOD）","license":"MIT（リポジトリ）／政府統計の総合窓口(e-Stat)の利用規約（元データ・出典表記必要）","fetched":"2026-07-06"},"towns":[{"code":"08207001000","name":"大字結城大谷瀬町","lat":36.302413,"lng":139.888808},{"code":"08207001001","name":"大字結城御朱印町","lat":36.30826,"lng":139.873894},{"code":"08207001002","name":"大字結城神明町","lat":36.310207,"lng":139.877193},{"code":"08207001003","name":"大字結城玉岡町","lat":36.308161,"lng":139.879472},{"code":"08207001004","name":"大字結城鍛治町","lat":36.307661,"lng":139.877112},{"code":"08207001005","name":"大字結城穀町","lat":36.306392,"lng":139.87417},{"code":"08207001006","name":"大字結城紺屋町","lat":36.306633,"lng":139.876171},{"code":"08207001007","name":"大字結城松木合","lat":36.318769,"lng":139.877125},{"code":"08207001008","name":"大字結城西の宮","lat":36.305123,"lng":139.878966},{"code":"08207001009","name":"大字結城西町","lat":36.304734,"lng":139.870525},{"code":"08207001010","name":"大字結城大町","lat":36.303892,"lng":139.875356},{"code":"08207001011","name":"大字結城立町","lat":36.300978,"lng":139.870534},{"code":"08207001012","name":"大字結城浦町","lat":36.302827,"lng":139.874829},{"code":"08207001013","name":"大字結城白銀町","lat":36.298506,"lng":139.874868},{"code":"08207001014","name":"大字結城肝入町","lat":36.301067,"lng":139.873435},{"code":"08207001015","name":"大字結城国府町","lat":36.299137,"lng":139.87313},{"code":"08207001016","name":"大字結城栄町","lat":36.312637,"lng":139.873811},{"code":"08207001017","name":"大字結城四ツ京","lat":36.310248,"lng":139.866528},{"code":"08207001018","name":"大字結城富士見町","lat":36.303932,"lng":139.866208},{"code":"08207001019","name":"大字結城逆井","lat":36.307849,"lng":139.856868},{"code":"08207001020","name":"大字結城上の宮","lat":36.308741,"lng":139.849016},{"code":"08207001021","name":"大字結城上海道","lat":36.305192,"lng":139.847279},{"code":"08207001022","name":"大字結城戸野町","lat":36.302269,"lng":139.880833},{"code":"08207001023","name":"大字結城本町","lat":36.307399,"lng":139.884772},{"code":"08207001024","name":"大字結城曽我殿台","lat":36.301475,"lng":139.884474},{"code":"08207001025","name":"大字結城陣屋町","lat":36.301796,"lng":139.879188},{"code":"08207001026","name":"大字結城永横町","lat":36.30155,"lng":139.87683},{"code":"08207001027","name":"大字結城塔の下","lat":36.299506,"lng":139.881984},{"code":"08207001028","name":"大字結城番匠町","lat":36.299914,"lng":139.878145},{"code":"08207001029","name":"大字結城大切町","lat":36.298763,"lng":139.879412},{"code":"08207001030","name":"大字結城新福寺","lat":36.292022,"lng":139.868257},{"code":"08207001031","name":"大字結城見晴町","lat":36.291912,"lng":139.885117},{"code":"08207001032","name":"大字結城戸張町","lat":36.298186,"lng":139.878275},{"code":"08207001033","name":"大字結城観音町","lat":36.297509,"lng":139.882451},{"code":"08207001035","name":"大字結城人手町","lat":36.298639,"lng":139.887382},{"code":"08207001036","name":"大字結城鉄砲宿","lat":36.299732,"lng":139.890598},{"code":"08207001037","name":"大字結城上小塙","lat":36.298538,"lng":139.893001},{"code":"08207001038","name":"大字結城宮の下","lat":36.298526,"lng":139.898898},{"code":"08207001039","name":"大字結城下小塙","lat":36.29352,"lng":139.893453},{"code":"08207001040","name":"大字結城見晴町１丁目","lat":36.294666,"lng":139.884555},{"code":"08207001041","name":"大字結城下り松","lat":36.28847,"lng":139.879829},{"code":"08207001042","name":"大字結城辻堂","lat":36.283131,"lng":139.884694},{"code":"08207001043","name":"大字結城小松町","lat":36.274049,"lng":139.844142},{"code":"08207001044","name":"大字結城川木谷","lat":36.297948,"lng":139.860348},{"code":"08207001045","name":"大字結城大橋町","lat":36.297202,"lng":139.867854},{"code":"08207001046","name":"城南町一丁目","lat":36.289163,"lng":139.863699},{"code":"08207001047","name":"城南町一丁目","lat":36.285011,"lng":139.858576},{"code":"08207001048","name":"大字結城城南町２丁目","lat":36.286908,"lng":139.861063},{"code":"08207001049","name":"大字結城公達","lat":36.292375,"lng":139.860246},{"code":"08207001050","name":"大字結城城の内","lat":36.281779,"lng":139.868891},{"code":"08207002001","name":"みどり町１丁目","lat":36.299776,"lng":139.866494},{"code":"08207002002","name":"みどり町２丁目","lat":36.300193,"lng":139.863266},{"code":"08207003003","name":"富士見町３丁目","lat":36.301359,"lng":139.8637},{"code":"08207003004","name":"富士見町４丁目","lat":36.301162,"lng":139.867594},{"code":"082070040","name":"大字五助","lat":36.30286,"lng":139.858183},{"code":"082070050","name":"大字大谷瀬","lat":36.306759,"lng":139.892515},{"code":"08207006001","name":"川木谷１丁目","lat":36.298187,"lng":139.865993},{"code":"08207006002","name":"川木谷２丁目","lat":36.298421,"lng":139.863002},{"code":"08207007001","name":"大字小田林本田","lat":36.299084,"lng":139.84304},{"code":"08207007002","name":"大字小田林立の山西","lat":36.298524,"lng":139.852176},{"code":"08207007003","name":"大字小田林立の山南","lat":36.296526,"lng":139.851312},{"code":"08207007004","name":"大字小田林立の山東","lat":36.297577,"lng":139.856571},{"code":"08207007005","name":"大字小田林仁軒地","lat":36.285736,"lng":139.848629},{"code":"08207007006","name":"大字小田林猿内","lat":36.293855,"lng":139.849835},{"code":"08207007007","name":"大字小田林古新田","lat":36.294508,"lng":139.846147},{"code":"08207007008","name":"大字小田林寺内","lat":36.295326,"lng":139.842833},{"code":"08207007009","name":"大字小田林黒田","lat":36.29168,"lng":139.843246},{"code":"08207007010","name":"大字小田林善長寺","lat":36.290595,"lng":139.838418},{"code":"08207007011","name":"大字小田林下の宮","lat":36.285002,"lng":139.840546},{"code":"08207007012","name":"大字小田林立の山北","lat":36.302917,"lng":139.850898},{"code":"082070080","name":"大字結城作","lat":36.277766,"lng":139.850833},{"code":"08207009001","name":"大字小森絹川","lat":36.286801,"lng":139.898119},{"code":"08207009002","name":"大字小森慶福絹川","lat":36.283339,"lng":139.899118},{"code":"08207009003","name":"大字小森宮崎絹川","lat":36.279591,"lng":139.894159},{"code":"082070100","name":"大字久保田","lat":36.280023,"lng":139.904311},{"code":"082070110","name":"大字鹿窪","lat":36.276751,"lng":139.878293},{"code":"082070120","name":"大字林","lat":36.27144,"lng":139.888633},{"code":"082070130","name":"大字中","lat":36.269832,"lng":139.896698},{"code":"082070140","name":"大字矢畑","lat":36.264761,"lng":139.870624},{"code":"08207015001","name":"大字上山川片蓋","lat":36.270241,"lng":139.857444},{"code":"08207015002","name":"大字上山川中坪東坪","lat":36.261113,"lng":139.877752},{"code":"08207015003","name":"大字上山川北坪","lat":36.26713,"lng":139.876604},{"code":"08207015004","name":"大字上山川古山","lat":36.265117,"lng":139.883504},{"code":"08207015005","name":"大字上山川東坪","lat":36.259764,"lng":139.886737},{"code":"08207015006","name":"大字上山川瓦塚","lat":36.256737,"lng":139.879569},{"code":"08207015007","name":"大字上山川西坪","lat":36.258825,"lng":139.872925},{"code":"08207015008","name":"大字上山川皿窪","lat":36.261124,"lng":139.859533},{"code":"08207015009","name":"大字上山川平間","lat":36.251751,"lng":139.871355},{"code":"08207015010","name":"大字上山川芝崎","lat":36.244866,"lng":139.870256},{"code":"08207015011","name":"大字上山川南宿","lat":36.247877,"lng":139.878154},{"code":"08207015012","name":"大字上山川馬場","lat":36.249311,"lng":139.882261},{"code":"08207015013","name":"大字上山川先城谷","lat":36.251861,"lng":139.879445},{"code":"08207015014","name":"大字上山川我里内","lat":36.254482,"lng":139.88194},{"code":"08207015015","name":"大字上山川河岸","lat":36.248896,"lng":139.888545},{"code":"08207015016","name":"大字上山川追立","lat":36.247142,"lng":139.885775},{"code":"08207015017","name":"大字上山川前法内","lat":36.242009,"lng":139.882786},{"code":"08207015018","name":"大字上山川原","lat":36.242156,"lng":139.876027},{"code":"082070160","name":"大字山王","lat":36.240098,"lng":139.890871},{"code":"082070170","name":"大字古宿新田","lat":36.237428,"lng":139.87608},{"code":"082070180","name":"大字今宿","lat":36.22744,"lng":139.876201},{"code":"082070190","name":"大字粕礼","lat":36.218564,"lng":139.883387},{"code":"082070200","name":"大字芳賀崎","lat":36.230701,"lng":139.884129},{"code":"082070210","name":"大字水海道","lat":36.234324,"lng":139.89682},{"code":"082070220","name":"大字浜野辺","lat":36.2283,"lng":139.891666},{"code":"082070230","name":"大字山川新宿","lat":36.232682,"lng":139.862948},{"code":"082070241","name":"大字善右衛門新田","lat":36.21882,"lng":139.859879},{"code":"082070242","name":"大字新宿新田","lat":36.224123,"lng":139.859114},{"code":"08207025001","name":"大字武井武井南","lat":36.241299,"lng":139.825454},{"code":"08207025002","name":"大字武井大戦防","lat":36.241638,"lng":139.828785},{"code":"08207025003","name":"大字武井武井上","lat":36.253554,"lng":139.832675},{"code":"08207025004","name":"大字武井武井下","lat":36.248615,"lng":139.833029},{"code":"08207026001","name":"大字江川新宿大戦防","lat":36.233881,"lng":139.829733},{"code":"08207026002","name":"大字江川新宿江川大町西","lat":36.236285,"lng":139.836053},{"code":"08207027001","name":"大字北南茂呂出山","lat":36.231484,"lng":139.844895},{"code":"08207027002","name":"大字北南茂呂北茂呂","lat":36.226095,"lng":139.821904},{"code":"08207027003","name":"大字北南茂呂南茂呂","lat":36.217418,"lng":139.821954},{"code":"08207028001","name":"大字東茂呂蓮縄田","lat":36.220194,"lng":139.850889},{"code":"08207028002","name":"大字東茂呂一ツ木","lat":36.224056,"lng":139.842831},{"code":"08207028003","name":"大字東茂呂前新田","lat":36.219241,"lng":139.833675},{"code":"08207028004","name":"大字東茂呂東茂呂","lat":36.224529,"lng":139.832072},{"code":"082070290","name":"大字七五三場","lat":36.208902,"lng":139.82562},{"code":"08207030001","name":"大字上成上成","lat":36.271284,"lng":139.846841},{"code":"08207030002","name":"大字上成上成西","lat":36.273229,"lng":139.841868},{"code":"08207031001","name":"大字田間田間上","lat":36.266864,"lng":139.844028},{"code":"08207031002","name":"大字田間田間中","lat":36.261627,"lng":139.841019},{"code":"08207031003","name":"大字田間田間下","lat":36.258335,"lng":139.836157},{"code":"08207031004","name":"大字田間武井上","lat":36.25077,"lng":139.842192},{"code":"08207031005","name":"大字田間新田間町","lat":36.269405,"lng":139.838381},{"code":"08207032001","name":"大字大木北","lat":36.252643,"lng":139.856893},{"code":"08207032002","name":"大字大木東","lat":36.243703,"lng":139.863015},{"code":"08207032003","name":"大字大木西","lat":36.242761,"lng":139.852226},{"code":"08207033001","name":"大字江川大町江川大町東","lat":36.241497,"lng":139.842389},{"code":"08207033003","name":"大字江川大町大戦防","lat":36.244272,"lng":139.833596},{"code":"082070340","name":"大字新堤仲通り","lat":36.275719,"lng":139.867579},{"code":"082070350","name":"大字若宮","lat":36.271011,"lng":139.869975}]}
