{"municipality":"08222","name":"鹿嶋市","prefecture":"茨城県","source":{"dataset":"frogcat/japan-small-area","census":"平成27年国勢調査 小地域（e-Stat 統計LOD）","license":"MIT（リポジトリ）／政府統計の総合窓口(e-Stat)の利用規約（元データ・出典表記必要）","fetched":"2026-07-06"},"towns":[{"code":"08222001001","name":"城山１丁目","lat":35.968295,"lng":140.62185},{"code":"08222001002","name":"城山２丁目","lat":35.965493,"lng":140.622432},{"code":"08222001004","name":"城山４丁目","lat":35.962703,"lng":140.62213},{"code":"08222002001","name":"宮下１丁目","lat":35.971357,"lng":140.63171},{"code":"08222002002","name":"宮下２丁目","lat":35.96887,"lng":140.626216},{"code":"08222002003","name":"宮下３丁目","lat":35.968661,"lng":140.624049},{"code":"08222002004","name":"宮下４丁目","lat":35.971472,"lng":140.62586},{"code":"08222002005","name":"宮下５丁目","lat":35.972605,"lng":140.63143},{"code":"08222003000","name":"大字宮中","lat":35.978776,"lng":140.626492},{"code":"08222003001","name":"大字宮中","lat":35.968131,"lng":140.641513},{"code":"08222003002","name":"大字宮中","lat":35.961494,"lng":140.634946},{"code":"08222004001","name":"神野１丁目","lat":35.959015,"lng":140.625556},{"code":"08222004002","name":"神野２丁目","lat":35.959535,"lng":140.623591},{"code":"08222004003","name":"神野３丁目","lat":35.959483,"lng":140.621685},{"code":"08222004004","name":"神野４丁目","lat":35.956385,"lng":140.623006},{"code":"082220050","name":"大字鉢形","lat":35.957667,"lng":140.650463},{"code":"08222006001","name":"鉢形台１丁目","lat":35.963852,"lng":140.647541},{"code":"08222006002","name":"鉢形台２丁目","lat":35.960893,"lng":140.648439},{"code":"08222006003","name":"鉢形台３丁目","lat":35.958296,"lng":140.649101},{"code":"082220070","name":"大字木滝佐田谷原入会","lat":35.954565,"lng":140.638697},{"code":"082220080","name":"大字佐田","lat":35.951076,"lng":140.641626},{"code":"082220090","name":"大字木滝","lat":35.94533,"lng":140.646045},{"code":"082220100","name":"大字粟生","lat":35.948707,"lng":140.663933},{"code":"082220110","name":"大字国末","lat":35.940242,"lng":140.669179},{"code":"082220120","name":"大字下塙","lat":35.946896,"lng":140.635171},{"code":"082220130","name":"大字根三田","lat":35.945637,"lng":140.628764},{"code":"082220140","name":"大字谷原","lat":35.938114,"lng":140.63968},{"code":"082220150","name":"大字長栖","lat":35.932595,"lng":140.644375},{"code":"082220160","name":"大字泉川","lat":35.933167,"lng":140.662528},{"code":"082220170","name":"大字鰐川","lat":35.934698,"lng":140.630395},{"code":"082220180","name":"大字爪木","lat":35.97509,"lng":140.603901},{"code":"082220190","name":"大字大船津","lat":35.957714,"lng":140.616763},{"code":"082220200","name":"大字沼尾","lat":35.999281,"lng":140.602211},{"code":"082220210","name":"大字田野辺","lat":36.00099,"lng":140.616068},{"code":"082220220","name":"大字田谷","lat":35.996185,"lng":140.626319},{"code":"082220230","name":"大字田谷沼","lat":35.991972,"lng":140.618134},{"code":"082220240","name":"大字須賀","lat":35.986631,"lng":140.611248},{"code":"082220250","name":"大字猿田","lat":35.989274,"lng":140.629682},{"code":"082220260","name":"大字山之上","lat":35.985253,"lng":140.623085},{"code":"082220270","name":"大字清水","lat":36.004707,"lng":140.640754},{"code":"082220280","name":"大字明石","lat":35.997163,"lng":140.647703},{"code":"082220290","name":"大字神向寺","lat":35.989222,"lng":140.646027},{"code":"082220300","name":"大字小宮作","lat":35.988139,"lng":140.655437},{"code":"082220310","name":"大字宮津台","lat":35.980049,"lng":140.64817},{"code":"082220320","name":"大字下津","lat":35.979719,"lng":140.65967},{"code":"08222033001","name":"高天原１丁目","lat":35.974327,"lng":140.651788},{"code":"08222033002","name":"高天原２丁目","lat":35.976152,"lng":140.654342},{"code":"08222034101","name":"港ケ丘１丁目","lat":35.97158,"lng":140.654836},{"code":"08222034102","name":"港ケ丘２丁目","lat":35.973852,"lng":140.655116},{"code":"082220342","name":"大字港ケ丘","lat":35.971819,"lng":140.659001},{"code":"08222035001","name":"旭ケ丘１丁目","lat":35.967502,"lng":140.656995},{"code":"08222035002","name":"旭ケ丘２丁目","lat":35.965943,"lng":140.658326},{"code":"08222036000","name":"大字平井","lat":35.964203,"lng":140.662546},{"code":"08222036001","name":"大字平井","lat":35.964505,"lng":140.678932},{"code":"082220380","name":"大字光","lat":35.940005,"lng":140.671045},{"code":"082220390","name":"大字新浜","lat":35.945483,"lng":140.69014},{"code":"082220400","name":"北浦","lat":36.005408,"lng":140.584168},{"code":"082220420","name":"大字大小志崎","lat":36.073821,"lng":140.605},{"code":"082220430","name":"大字武井釜","lat":36.064463,"lng":140.608509},{"code":"082220440","name":"大字浜津賀","lat":36.05837,"lng":140.610994},{"code":"082220450","name":"大字荒井","lat":36.052842,"lng":140.617643},{"code":"082220460","name":"大字青塚","lat":36.044127,"lng":140.621563},{"code":"082220470","name":"大字角折","lat":36.033032,"lng":140.625259},{"code":"082220480","name":"大字荒野","lat":36.019106,"lng":140.62951},{"code":"082220490","name":"大字小山","lat":36.011107,"lng":140.635437},{"code":"082220500","name":"大字林","lat":36.015588,"lng":140.613123},{"code":"082220510","name":"大字奈良毛","lat":36.009041,"lng":140.595534},{"code":"082220520","name":"大字中","lat":36.017766,"lng":140.59591},{"code":"082220530","name":"大字棚木","lat":36.027858,"lng":140.603555},{"code":"082220540","name":"大字和","lat":36.038863,"lng":140.599848},{"code":"082220550","name":"大字津賀","lat":36.041223,"lng":140.584428},{"code":"082220560","name":"大字武井","lat":36.053932,"lng":140.58236},{"code":"082220570","name":"大字志崎","lat":36.065339,"lng":140.581062},{"code":"08222059001","name":"宮中１丁目","lat":35.967043,"lng":140.629587},{"code":"08222059002","name":"宮中２丁目","lat":35.965921,"lng":140.626099},{"code":"08222059003","name":"宮中３丁目","lat":35.963869,"lng":140.626859},{"code":"08222059004","name":"宮中４丁目","lat":35.964072,"lng":140.629487},{"code":"08222059005","name":"宮中５丁目","lat":35.96335,"lng":140.632096},{"code":"08222059006","name":"宮中６丁目","lat":35.963928,"lng":140.634304},{"code":"08222059007","name":"宮中７丁目","lat":35.961401,"lng":140.632957},{"code":"08222059008","name":"宮中８丁目","lat":35.961994,"lng":140.628199},{"code":"082220600","name":"平井南","lat":35.957674,"lng":140.676608},{"code":"082220610","name":"大字木滝佐田下塙谷原入会","lat":35.945795,"lng":140.641785},{"code":"08222062001","name":"厨１丁目","lat":35.973626,"lng":140.629633},{"code":"08222062002","name":"厨２丁目","lat":35.97514,"lng":140.63199},{"code":"08222062003","name":"厨３丁目","lat":35.976759,"lng":140.630417},{"code":"08222062004","name":"厨４丁目","lat":35.975841,"lng":140.627293},{"code":"08222062005","name":"厨５丁目","lat":35.975128,"lng":140.625368},{"code":"08222063001","name":"緑ヶ丘１丁目","lat":35.97367,"lng":140.623964},{"code":"08222063002","name":"緑ヶ丘２丁目","lat":35.971816,"lng":140.622042},{"code":"08222063003","name":"緑ヶ丘３丁目","lat":35.971882,"lng":140.61938},{"code":"08222063004","name":"緑ヶ丘４丁目","lat":35.975661,"lng":140.622458}]}
