{"municipality":"08230","name":"かすみがうら市","prefecture":"茨城県","source":{"dataset":"frogcat/japan-small-area","census":"平成27年国勢調査 小地域（e-Stat 統計LOD）","license":"MIT（リポジトリ）／政府統計の総合窓口(e-Stat)の利用規約（元データ・出典表記必要）","fetched":"2026-07-06"},"towns":[{"code":"082300010","name":"高倉","lat":36.202351,"lng":140.222211},{"code":"082300020","name":"粟田","lat":36.200239,"lng":140.235895},{"code":"082300030","name":"中志筑","lat":36.187369,"lng":140.233668},{"code":"082300040","name":"上志筑","lat":36.187865,"lng":140.216387},{"code":"082300050","name":"五反田","lat":36.17901,"lng":140.222633},{"code":"082300060","name":"大峰","lat":36.168691,"lng":140.223468},{"code":"082300070","name":"横堀","lat":36.171327,"lng":140.230081},{"code":"082300080","name":"下志筑","lat":36.179231,"lng":140.244996},{"code":"082300090","name":"下土田","lat":36.164025,"lng":140.246275},{"code":"082300100","name":"上土田","lat":36.155784,"lng":140.234478},{"code":"082300110","name":"飯田","lat":36.163637,"lng":140.23368},{"code":"082300120","name":"市川","lat":36.177185,"lng":140.260192},{"code":"082300130","name":"西野寺","lat":36.169028,"lng":140.257147},{"code":"082300140","name":"東野寺","lat":36.167845,"lng":140.269566},{"code":"082300150","name":"新治","lat":36.148778,"lng":140.25693},{"code":"08230016101","name":"稲吉１丁目","lat":36.121918,"lng":140.251796},{"code":"08230016102","name":"稲吉２丁目","lat":36.123157,"lng":140.248041},{"code":"08230016103","name":"稲吉３丁目","lat":36.125693,"lng":140.246559},{"code":"08230016104","name":"稲吉４丁目","lat":36.127922,"lng":140.245451},{"code":"08230016105","name":"稲吉５丁目","lat":36.130612,"lng":140.243657},{"code":"08230016201","name":"稲吉東１丁目","lat":36.125177,"lng":140.252679},{"code":"08230016202","name":"稲吉東２丁目","lat":36.128301,"lng":140.256319},{"code":"08230016203","name":"稲吉東３丁目","lat":36.128837,"lng":140.253505},{"code":"08230016204","name":"稲吉東４丁目","lat":36.126874,"lng":140.250841},{"code":"08230016205","name":"稲吉東５丁目","lat":36.129039,"lng":140.249055},{"code":"08230016206","name":"稲吉東６丁目","lat":36.130815,"lng":140.247373},{"code":"08230016301","name":"稲吉南１丁目","lat":36.124311,"lng":140.242491},{"code":"08230016302","name":"稲吉南２丁目","lat":36.12418,"lng":140.238927},{"code":"08230016303","name":"稲吉南３丁目","lat":36.12861,"lng":140.240305},{"code":"082300164","name":"下稲吉","lat":36.139487,"lng":140.241536},{"code":"082300170","name":"上稲吉","lat":36.134375,"lng":140.214124},{"code":"082300180","name":"中佐谷","lat":36.149323,"lng":140.220413},{"code":"082300190","name":"下佐谷","lat":36.155666,"lng":140.211001},{"code":"082300200","name":"山本","lat":36.157982,"lng":140.20464},{"code":"082300210","name":"上佐谷","lat":36.171489,"lng":140.204937},{"code":"082300220","name":"雪入","lat":36.171188,"lng":140.190968},{"code":"082300230","name":"加茂","lat":36.075798,"lng":140.290454},{"code":"082300240","name":"戸崎","lat":36.082574,"lng":140.26948},{"code":"082300250","name":"中台","lat":36.080285,"lng":140.346135},{"code":"082300260","name":"男神","lat":36.085211,"lng":140.33995},{"code":"082300270","name":"下大堤","lat":36.090674,"lng":140.326983},{"code":"082300280","name":"大和田","lat":36.092069,"lng":140.327282},{"code":"082300290","name":"南根本","lat":36.102705,"lng":140.308388},{"code":"082300300","name":"三ツ木","lat":36.104159,"lng":140.302014},{"code":"082300310","name":"上大堤","lat":36.108426,"lng":140.289253},{"code":"082300320","name":"深谷","lat":36.091864,"lng":140.297919},{"code":"082300330","name":"牛渡","lat":36.072228,"lng":140.331052},{"code":"082300340","name":"有河","lat":36.066207,"lng":140.355864},{"code":"082300351","name":"志戸崎","lat":36.064953,"lng":140.365809},{"code":"082300352","name":"坂","lat":36.077554,"lng":140.360718},{"code":"082300360","name":"田伏","lat":36.087093,"lng":140.37489},{"code":"082300380","name":"安食","lat":36.115375,"lng":140.350374},{"code":"082300390","name":"柏崎","lat":36.10411,"lng":140.372973},{"code":"082300400","name":"岩坪","lat":36.099122,"lng":140.356964},{"code":"082300410","name":"下軽部","lat":36.103997,"lng":140.34265},{"code":"082300420","name":"西成井","lat":36.10407,"lng":140.326952},{"code":"082300430","name":"上軽部","lat":36.109156,"lng":140.332755},{"code":"082300440","name":"宍倉","lat":36.121543,"lng":140.29504},{"code":"082300450","name":"霞ヶ浦","lat":36.069763,"lng":140.348939}]}
