{"municipality":"09208","name":"小山市","prefecture":"栃木県","source":{"dataset":"frogcat/japan-small-area","census":"平成27年国勢調査 小地域（e-Stat 統計LOD）","license":"MIT（リポジトリ）／政府統計の総合窓口(e-Stat)の利用規約（元データ・出典表記必要）","fetched":"2026-07-06"},"towns":[{"code":"09208001001","name":"若木町１丁目","lat":36.326196,"lng":139.803161},{"code":"09208001002","name":"若木町２丁目","lat":36.32707,"lng":139.806704},{"code":"09208001003","name":"若木町３丁目","lat":36.326523,"lng":139.811831},{"code":"09208002001","name":"花垣町１丁目","lat":36.323854,"lng":139.806478},{"code":"09208002002","name":"花垣町２丁目","lat":36.322691,"lng":139.809063},{"code":"09208003001","name":"本郷町１丁目","lat":36.319995,"lng":139.801213},{"code":"09208003002","name":"本郷町２丁目","lat":36.319194,"lng":139.80417},{"code":"09208003003","name":"本郷町３丁目","lat":36.318955,"lng":139.807373},{"code":"09208004001","name":"城山町１丁目","lat":36.317265,"lng":139.800647},{"code":"09208004002","name":"城山町２丁目","lat":36.315981,"lng":139.803445},{"code":"09208004003","name":"城山町３丁目","lat":36.315558,"lng":139.806122},{"code":"09208005001","name":"中央町１丁目","lat":36.31498,"lng":139.799817},{"code":"09208005002","name":"中央町２丁目","lat":36.313565,"lng":139.802268},{"code":"09208005003","name":"中央町３丁目","lat":36.312538,"lng":139.804494},{"code":"09208006001","name":"宮本町１丁目","lat":36.312607,"lng":139.79858},{"code":"09208006002","name":"宮本町２丁目","lat":36.310985,"lng":139.800849},{"code":"09208006003","name":"宮本町３丁目","lat":36.309957,"lng":139.803041},{"code":"09208007001","name":"八幡町１丁目","lat":36.309932,"lng":139.796047},{"code":"09208007002","name":"八幡町２丁目","lat":36.308248,"lng":139.797615},{"code":"09208008001","name":"天神町１丁目","lat":36.307206,"lng":139.79922},{"code":"09208008002","name":"天神町２丁目","lat":36.306641,"lng":139.801112},{"code":"09208009001","name":"神明町１丁目","lat":36.308298,"lng":139.794124},{"code":"09208009002","name":"神明町２丁目","lat":36.30577,"lng":139.797009},{"code":"09208010001","name":"駅東通り１丁目","lat":36.308785,"lng":139.80917},{"code":"09208010002","name":"駅東通り２丁目","lat":36.313277,"lng":139.809408},{"code":"09208010003","name":"駅東通り３丁目","lat":36.319327,"lng":139.812245},{"code":"092080110","name":"大字稲葉郷","lat":36.329555,"lng":139.815768},{"code":"092080120","name":"大字小山","lat":36.312087,"lng":139.802481},{"code":"092080130","name":"大字神鳥谷","lat":36.2865,"lng":139.796778},{"code":"092080140","name":"大字外城","lat":36.301115,"lng":139.783527},{"code":"09208015001","name":"駅南町１丁目","lat":36.305237,"lng":139.807577},{"code":"09208015002","name":"駅南町２丁目","lat":36.301855,"lng":139.806974},{"code":"09208015003","name":"駅南町３丁目","lat":36.304591,"lng":139.811702},{"code":"09208015004","name":"駅南町４丁目","lat":36.300992,"lng":139.81144},{"code":"09208015005","name":"駅南町５丁目","lat":36.303766,"lng":139.8152},{"code":"09208015006","name":"駅南町６丁目","lat":36.30015,"lng":139.81648},{"code":"09208016001","name":"三峯１丁目","lat":36.30642,"lng":139.803206},{"code":"09208016002","name":"三峯２丁目","lat":36.306575,"lng":139.805518},{"code":"09208017001","name":"神山１丁目","lat":36.302888,"lng":139.800889},{"code":"09208017002","name":"神山２丁目","lat":36.30239,"lng":139.803548},{"code":"09208018001","name":"神鳥谷１丁目","lat":36.30136,"lng":139.791449},{"code":"09208018002","name":"神鳥谷２丁目","lat":36.300599,"lng":139.794132},{"code":"09208018003","name":"神鳥谷３丁目","lat":36.299795,"lng":139.796159},{"code":"09208018004","name":"神鳥谷４丁目","lat":36.297321,"lng":139.788432},{"code":"09208018005","name":"神鳥谷５丁目","lat":36.296419,"lng":139.790612},{"code":"09208018006","name":"神鳥谷６丁目","lat":36.295535,"lng":139.792302},{"code":"09208019001","name":"城東１丁目","lat":36.309148,"lng":139.815181},{"code":"09208019002","name":"城東２丁目","lat":36.312957,"lng":139.814942},{"code":"09208019003","name":"城東３丁目","lat":36.3166,"lng":139.817988},{"code":"09208019004","name":"城東４丁目","lat":36.316232,"lng":139.825511},{"code":"09208019005","name":"城東５丁目","lat":36.313249,"lng":139.822217},{"code":"09208019006","name":"城東６丁目","lat":36.310485,"lng":139.821159},{"code":"09208019007","name":"城東７丁目","lat":36.307226,"lng":139.819905},{"code":"092080200","name":"大字土塔","lat":36.301817,"lng":139.822282},{"code":"092080210","name":"大字犬塚","lat":36.317933,"lng":139.829998},{"code":"09208022101","name":"中久喜１丁目","lat":36.318304,"lng":139.835899},{"code":"09208022102","name":"中久喜２丁目","lat":36.32019,"lng":139.837414},{"code":"09208022103","name":"中久喜３丁目","lat":36.320971,"lng":139.835538},{"code":"09208022104","name":"中久喜４丁目","lat":36.323402,"lng":139.836293},{"code":"09208022105","name":"中久喜５丁目","lat":36.322899,"lng":139.838598},{"code":"092080222","name":"大字中久喜","lat":36.317052,"lng":139.842487},{"code":"092080230","name":"大字塚崎","lat":36.268177,"lng":139.809382},{"code":"092080240","name":"大字横倉新田","lat":36.28461,"lng":139.825528},{"code":"092080250","name":"大字横倉","lat":36.279213,"lng":139.833629},{"code":"092080260","name":"大字向原新田","lat":36.293983,"lng":139.823551},{"code":"092080270","name":"大字雨ヶ谷新田","lat":36.291454,"lng":139.820005},{"code":"092080280","name":"大字雨ヶ谷","lat":36.281454,"lng":139.813587},{"code":"092080290","name":"大字田間","lat":36.264087,"lng":139.824727},{"code":"092080300","name":"大字武井","lat":36.247165,"lng":139.81871},{"code":"092080310","name":"大字東野田","lat":36.248493,"lng":139.801828},{"code":"092080320","name":"大字南和泉","lat":36.242671,"lng":139.792337},{"code":"092080330","name":"大字間々田","lat":36.27155,"lng":139.766462},{"code":"092080340","name":"大字千駄塚","lat":36.279809,"lng":139.77637},{"code":"092080350","name":"大字粟宮","lat":36.286204,"lng":139.781875},{"code":"09208036001","name":"粟宮１丁目","lat":36.293293,"lng":139.787256},{"code":"09208036002","name":"粟宮２丁目","lat":36.29323,"lng":139.79029},{"code":"092080370","name":"大字西黒田","lat":36.268358,"lng":139.785384},{"code":"092080380","name":"大字東黒田","lat":36.261296,"lng":139.790657},{"code":"092080390","name":"大字南飯田","lat":36.247924,"lng":139.769416},{"code":"092080400","name":"大字平和","lat":36.254748,"lng":139.768136},{"code":"09208041101","name":"南乙女１丁目","lat":36.255646,"lng":139.755982},{"code":"09208041102","name":"南乙女２丁目","lat":36.253632,"lng":139.754473},{"code":"092080412","name":"大字乙女","lat":36.254866,"lng":139.750262},{"code":"09208042001","name":"乙女１丁目","lat":36.263162,"lng":139.757468},{"code":"09208042002","name":"乙女２丁目","lat":36.261031,"lng":139.758652},{"code":"09208042003","name":"乙女３丁目","lat":36.258873,"lng":139.76023},{"code":"09208043001","name":"暁１丁目","lat":36.261283,"lng":139.765325},{"code":"09208043002","name":"暁２丁目","lat":36.258034,"lng":139.763171},{"code":"09208043003","name":"暁３丁目","lat":36.255434,"lng":139.761511},{"code":"092080440","name":"大字網戸","lat":36.276265,"lng":139.747465},{"code":"092080450","name":"大字楢木","lat":36.261281,"lng":139.737946},{"code":"092080460","name":"大字生良","lat":36.265358,"lng":139.730601},{"code":"092080470","name":"大字上生井","lat":36.254924,"lng":139.720494},{"code":"092080480","name":"大字下生井","lat":36.240207,"lng":139.707541},{"code":"092080490","name":"大字白鳥","lat":36.249773,"lng":139.70277},{"code":"092080500","name":"大字鏡","lat":36.296475,"lng":139.746096},{"code":"092080510","name":"大字押切","lat":36.299259,"lng":139.72893},{"code":"092080520","name":"大字中里","lat":36.292019,"lng":139.739301},{"code":"092080530","name":"大字寒川","lat":36.282336,"lng":139.733839},{"code":"092080540","name":"大字迫間田","lat":36.274136,"lng":139.731221},{"code":"092080550","name":"大字大本","lat":36.362079,"lng":139.782898},{"code":"092080560","name":"大字小宅","lat":36.366469,"lng":139.793941},{"code":"092080570","name":"大字黒本","lat":36.354751,"lng":139.800219},{"code":"092080580","name":"大字島田","lat":36.344601,"lng":139.798018},{"code":"092080590","name":"大字渋井","lat":36.331326,"lng":139.796263},{"code":"092080600","name":"大字荒川","lat":36.341885,"lng":139.785098},{"code":"092080610","name":"大字立木","lat":36.329696,"lng":139.788249},{"code":"092080620","name":"大字卒島","lat":36.344357,"lng":139.765147},{"code":"092080630","name":"大字今里","lat":36.335237,"lng":139.767352},{"code":"092080640","name":"大字上初田","lat":36.339064,"lng":139.753665},{"code":"092080650","name":"大字松沼","lat":36.348273,"lng":139.775853},{"code":"092080660","name":"大字小薬","lat":36.361897,"lng":139.773152},{"code":"092080670","name":"大字南小林","lat":36.323481,"lng":139.736115},{"code":"092080680","name":"大字上泉","lat":36.311159,"lng":139.732997},{"code":"092080690","name":"大字下泉","lat":36.304119,"lng":139.736296},{"code":"092080700","name":"大字井岡","lat":36.301884,"lng":139.74919},{"code":"092080710","name":"大字小袋","lat":36.308164,"lng":139.751336},{"code":"092080720","name":"大字下河原田","lat":36.312641,"lng":139.745577},{"code":"092080730","name":"大字生駒","lat":36.3205,"lng":139.752757},{"code":"092080740","name":"大字大川島","lat":36.322199,"lng":139.744539},{"code":"092080750","name":"大字下初田","lat":36.331347,"lng":139.751116},{"code":"092080760","name":"大字下国府塚","lat":36.314795,"lng":139.763182},{"code":"092080770","name":"大字上国府塚","lat":36.32781,"lng":139.765751},{"code":"092080780","name":"大字上石塚","lat":36.325773,"lng":139.777331},{"code":"092080790","name":"大字下石塚","lat":36.317283,"lng":139.775574},{"code":"092080800","name":"大字大行寺","lat":36.314451,"lng":139.787303},{"code":"092080810","name":"大字萩島","lat":36.309055,"lng":139.776627},{"code":"092080820","name":"大字石ノ上","lat":36.304475,"lng":139.769119},{"code":"092080830","name":"大字塩沢","lat":36.297491,"lng":139.770948},{"code":"092080840","name":"大字間中","lat":36.289716,"lng":139.761761},{"code":"092080850","name":"大字喜沢","lat":36.339041,"lng":139.816406},{"code":"092080860","name":"大字三拝川岸","lat":36.354304,"lng":139.817394},{"code":"092080870","name":"大字東島田","lat":36.349203,"lng":139.813343},{"code":"092080880","name":"大字飯塚","lat":36.373327,"lng":139.804129},{"code":"092080890","name":"大字南半田","lat":36.366681,"lng":139.819614},{"code":"092080900","name":"大字羽川","lat":36.358338,"lng":139.829895},{"code":"092080910","name":"大字荒井","lat":36.355198,"lng":139.838621},{"code":"092080920","name":"大字出井","lat":36.33874,"lng":139.84209},{"code":"092080930","name":"大字鉢形","lat":36.34157,"lng":139.859801},{"code":"092080940","name":"大字北飯田","lat":36.337124,"lng":139.871997},{"code":"092080950","name":"大字東山田","lat":36.350178,"lng":139.869508},{"code":"092080960","name":"大字萱橋","lat":36.32612,"lng":139.870661},{"code":"092080970","name":"大字向野","lat":36.319217,"lng":139.858494},{"code":"09208098001","name":"扶桑１丁目","lat":36.356318,"lng":139.81506},{"code":"09208098002","name":"扶桑２丁目","lat":36.357358,"lng":139.816992},{"code":"09208098003","name":"扶桑３丁目","lat":36.358656,"lng":139.818963},{"code":"092080990","name":"大字田川","lat":36.357894,"lng":139.901137},{"code":"092081000","name":"大字延島新田","lat":36.344616,"lng":139.907316},{"code":"092081010","name":"大字延島","lat":36.348896,"lng":139.892493},{"code":"092081020","name":"大字高椅","lat":36.337302,"lng":139.888719},{"code":"092081030","name":"大字福良","lat":36.32219,"lng":139.902475},{"code":"092081040","name":"大字中島","lat":36.320181,"lng":139.906224},{"code":"092081050","name":"大字梁","lat":36.322231,"lng":139.885561},{"code":"092081060","name":"大字中河原","lat":36.303122,"lng":139.900817},{"code":"09208107001","name":"西城南１丁目","lat":36.298512,"lng":139.798754},{"code":"09208107002","name":"西城南２丁目","lat":36.29804,"lng":139.802855},{"code":"09208107003","name":"西城南３丁目","lat":36.297537,"lng":139.80635},{"code":"09208107004","name":"西城南４丁目","lat":36.293253,"lng":139.803303},{"code":"09208107005","name":"西城南５丁目","lat":36.293855,"lng":139.79621},{"code":"09208107006","name":"西城南６丁目","lat":36.290005,"lng":139.802483},{"code":"09208107007","name":"西城南７丁目","lat":36.291309,"lng":139.792514},{"code":"09208108001","name":"東城南１丁目","lat":36.296973,"lng":139.810836},{"code":"09208108002","name":"東城南２丁目","lat":36.296301,"lng":139.816479},{"code":"09208108003","name":"東城南３丁目","lat":36.292211,"lng":139.814461},{"code":"09208108004","name":"東城南４丁目","lat":36.292298,"lng":139.809808},{"code":"09208108005","name":"東城南５丁目","lat":36.288042,"lng":139.809415},{"code":"09208109001","name":"東間々田１丁目","lat":36.271613,"lng":139.774084},{"code":"09208109002","name":"東間々田２丁目","lat":36.265477,"lng":139.769628},{"code":"09208109003","name":"東間々田３丁目","lat":36.262228,"lng":139.769977},{"code":"09208110001","name":"犬塚１丁目","lat":36.307352,"lng":139.827906},{"code":"09208110002","name":"犬塚２丁目","lat":36.311179,"lng":139.829442},{"code":"09208110003","name":"犬塚３丁目","lat":36.313656,"lng":139.831371},{"code":"09208110004","name":"犬塚４丁目","lat":36.310595,"lng":139.835346},{"code":"09208110005","name":"犬塚５丁目","lat":36.306082,"lng":139.833791},{"code":"09208110006","name":"犬塚６丁目","lat":36.301376,"lng":139.834602},{"code":"09208110007","name":"犬塚７丁目","lat":36.298544,"lng":139.835371},{"code":"09208110008","name":"犬塚８丁目","lat":36.301319,"lng":139.832024},{"code":"09208111001","name":"城北１丁目","lat":36.323329,"lng":139.814207},{"code":"09208111002","name":"城北２丁目","lat":36.327202,"lng":139.816834},{"code":"09208111003","name":"城北３丁目","lat":36.326531,"lng":139.822426},{"code":"09208111004","name":"城北４丁目","lat":36.322483,"lng":139.822325},{"code":"09208111005","name":"城北５丁目","lat":36.323809,"lng":139.81884},{"code":"09208111006","name":"城北６丁目","lat":36.319277,"lng":139.817026},{"code":"09208112001","name":"美しが丘１丁目","lat":36.26822,"lng":139.775906},{"code":"09208112002","name":"美しが丘２丁目","lat":36.261014,"lng":139.778119},{"code":"09208112003","name":"美しが丘３丁目","lat":36.261514,"lng":139.775089},{"code":"092081130","name":"雨ヶ谷町","lat":36.284893,"lng":139.811709}]}
