{"municipality":"09342","name":"芳賀郡益子町","prefecture":"栃木県","source":{"dataset":"frogcat/japan-small-area","census":"平成27年国勢調査 小地域（e-Stat 統計LOD）","license":"MIT（リポジトリ）／政府統計の総合窓口(e-Stat)の利用規約（元データ・出典表記必要）","fetched":"2026-07-06"},"towns":[{"code":"093420010","name":"大字益子","lat":36.454871,"lng":140.107397},{"code":"093420020","name":"大字生田目","lat":36.448391,"lng":140.08498},{"code":"093420030","name":"大字塙","lat":36.474574,"lng":140.078646},{"code":"093420040","name":"大字上大羽","lat":36.44254,"lng":140.136735},{"code":"093420050","name":"大字下大羽","lat":36.470784,"lng":140.133379},{"code":"093420060","name":"大字長堤","lat":36.426562,"lng":140.077495},{"code":"093420070","name":"大字上山","lat":36.43686,"lng":140.078152},{"code":"093420080","name":"大字前沢","lat":36.436363,"lng":140.09333},{"code":"093420090","name":"大字山本","lat":36.416728,"lng":140.103143},{"code":"093420100","name":"大字大郷戸","lat":36.421169,"lng":140.096406},{"code":"093420110","name":"大字小泉","lat":36.415665,"lng":140.082418},{"code":"093420120","name":"大字梅ケ内","lat":36.404688,"lng":140.086282},{"code":"093420130","name":"大字本沼","lat":36.410317,"lng":140.072161},{"code":"093420140","name":"大字東田井","lat":36.447672,"lng":140.072341},{"code":"093420160","name":"大字七井","lat":36.503506,"lng":140.091941},{"code":"093420170","name":"大字大沢","lat":36.482803,"lng":140.129048},{"code":"093420180","name":"大字北中","lat":36.480688,"lng":140.095839},{"code":"093420190","name":"大字小宅","lat":36.510966,"lng":140.115946},{"code":"093420200","name":"大字芦沼","lat":36.51478,"lng":140.131623},{"code":"093420210","name":"大字大平","lat":36.500654,"lng":140.136309},{"code":"093420220","name":"城内坂","lat":36.464284,"lng":140.103066},{"code":"093420230","name":"七井中央","lat":36.490703,"lng":140.097491}]}
