{"municipality":"10382","name":"甘楽郡下仁田町","prefecture":"群馬県","source":{"dataset":"frogcat/japan-small-area","census":"平成27年国勢調査 小地域（e-Stat 統計LOD）","license":"MIT（リポジトリ）／政府統計の総合窓口(e-Stat)の利用規約（元データ・出典表記必要）","fetched":"2026-07-06"},"towns":[{"code":"103820010","name":"大字下仁田","lat":36.216645,"lng":138.787497},{"code":"103820020","name":"大字川井","lat":36.210781,"lng":138.775476},{"code":"103820030","name":"大字吉崎","lat":36.200518,"lng":138.802336},{"code":"103820040","name":"大字栗山","lat":36.17853,"lng":138.80618},{"code":"103820050","name":"大字馬山","lat":36.214933,"lng":138.819991},{"code":"103820060","name":"大字白山","lat":36.218484,"lng":138.795303},{"code":"103820070","name":"大字下小坂","lat":36.219695,"lng":138.759143},{"code":"103820080","name":"大字中小坂","lat":36.238505,"lng":138.760647},{"code":"103820090","name":"大字上小坂","lat":36.271015,"lng":138.743391},{"code":"103820100","name":"大字東野牧","lat":36.226393,"lng":138.723705},{"code":"103820110","name":"大字本宿","lat":36.249551,"lng":138.718748},{"code":"103820120","name":"大字南野牧","lat":36.230738,"lng":138.65524},{"code":"103820130","name":"大字西野牧","lat":36.270008,"lng":138.669854},{"code":"103820140","name":"大字下郷","lat":36.202892,"lng":138.744034},{"code":"103820150","name":"大字宮室","lat":36.194139,"lng":138.757361},{"code":"103820160","name":"大字風口","lat":36.209545,"lng":138.760858},{"code":"103820170","name":"大字大桑原","lat":36.198441,"lng":138.766012},{"code":"103820180","name":"大字青倉","lat":36.170363,"lng":138.782907},{"code":"103820190","name":"大字平原","lat":36.148324,"lng":138.787431}]}
