{"municipality":"11203","name":"川口市","prefecture":"埼玉県","source":{"dataset":"frogcat/japan-small-area","census":"平成27年国勢調査 小地域（e-Stat 統計LOD）","license":"MIT（リポジトリ）／政府統計の総合窓口(e-Stat)の利用規約（元データ・出典表記必要）","fetched":"2026-07-06"},"towns":[{"code":"11203001001","name":"本町１丁目","lat":35.795604,"lng":139.725659},{"code":"11203001002","name":"本町２丁目","lat":35.799706,"lng":139.726711},{"code":"11203001003","name":"本町３丁目","lat":35.80082,"lng":139.723223},{"code":"11203001004","name":"本町４丁目","lat":35.800345,"lng":139.720513},{"code":"11203002001","name":"栄町１丁目","lat":35.803323,"lng":139.727882},{"code":"11203002002","name":"栄町２丁目","lat":35.803556,"lng":139.723225},{"code":"11203002003","name":"栄町３丁目","lat":35.803507,"lng":139.718606},{"code":"112030030","name":"金山町","lat":35.796868,"lng":139.722085},{"code":"112030040","name":"舟戸町","lat":35.791306,"lng":139.72439},{"code":"11203005001","name":"幸町１丁目","lat":35.805637,"lng":139.723054},{"code":"11203005002","name":"幸町２丁目","lat":35.80706,"lng":139.719244},{"code":"11203005003","name":"幸町３丁目","lat":35.806298,"lng":139.716692},{"code":"11203006001","name":"川口１丁目","lat":35.797668,"lng":139.718884},{"code":"11203006002","name":"川口２丁目","lat":35.79719,"lng":139.716701},{"code":"11203006003","name":"川口３丁目","lat":35.802,"lng":139.71589},{"code":"11203006004","name":"川口４丁目","lat":35.803527,"lng":139.713592},{"code":"11203006005","name":"川口５丁目","lat":35.806075,"lng":139.711085},{"code":"11203006006","name":"川口６丁目","lat":35.803683,"lng":139.710053},{"code":"11203007001","name":"飯塚１丁目","lat":35.798542,"lng":139.715181},{"code":"11203007002","name":"飯塚２丁目","lat":35.799785,"lng":139.712419},{"code":"11203007003","name":"飯塚３丁目","lat":35.800456,"lng":139.709805},{"code":"11203007004","name":"飯塚４丁目","lat":35.796538,"lng":139.711573},{"code":"11203008001","name":"西川口１丁目","lat":35.815147,"lng":139.702113},{"code":"11203008002","name":"西川口２丁目","lat":35.812064,"lng":139.700713},{"code":"11203008003","name":"西川口３丁目","lat":35.81206,"lng":139.704559},{"code":"11203008004","name":"西川口４丁目","lat":35.809795,"lng":139.708292},{"code":"11203008005","name":"西川口５丁目","lat":35.808284,"lng":139.703853},{"code":"11203008006","name":"西川口６丁目","lat":35.808239,"lng":139.700489},{"code":"112030090","name":"仲町","lat":35.806898,"lng":139.70683},{"code":"112030100","name":"飯原町","lat":35.798267,"lng":139.706447},{"code":"112030110","name":"原町","lat":35.801203,"lng":139.707148},{"code":"112030120","name":"宮町","lat":35.803625,"lng":139.700366},{"code":"11203013001","name":"南町１丁目","lat":35.802451,"lng":139.704313},{"code":"11203013002","name":"南町２丁目","lat":35.804731,"lng":139.705244},{"code":"112030140","name":"緑町","lat":35.802282,"lng":139.697812},{"code":"112030150","name":"荒川町","lat":35.795667,"lng":139.707118},{"code":"112030160","name":"並木元町","lat":35.808551,"lng":139.713902},{"code":"11203017001","name":"並木１丁目","lat":35.811701,"lng":139.712798},{"code":"11203017002","name":"並木２丁目","lat":35.815245,"lng":139.707517},{"code":"11203017003","name":"並木３丁目","lat":35.817906,"lng":139.704836},{"code":"11203017004","name":"並木４丁目","lat":35.821652,"lng":139.708636},{"code":"11203018002","name":"前川町２丁目","lat":35.840644,"lng":139.714357},{"code":"11203018003","name":"前川町３丁目","lat":35.841745,"lng":139.712095},{"code":"11203018004","name":"前川町４丁目","lat":35.842254,"lng":139.707031},{"code":"11203019001","name":"青木１丁目","lat":35.805894,"lng":139.728332},{"code":"11203019002","name":"青木２丁目","lat":35.808935,"lng":139.726831},{"code":"11203019003","name":"青木３丁目","lat":35.812065,"lng":139.72639},{"code":"11203019004","name":"青木４丁目","lat":35.815044,"lng":139.724896},{"code":"11203019005","name":"青木５丁目","lat":35.819007,"lng":139.723208},{"code":"11203020001","name":"中青木１丁目","lat":35.808227,"lng":139.721854},{"code":"11203020002","name":"中青木２丁目","lat":35.810967,"lng":139.719748},{"code":"11203020003","name":"中青木３丁目","lat":35.814158,"lng":139.718563},{"code":"11203020004","name":"中青木４丁目","lat":35.81682,"lng":139.718004},{"code":"11203020005","name":"中青木５丁目","lat":35.819338,"lng":139.717742},{"code":"11203021001","name":"西青木１丁目","lat":35.814266,"lng":139.712598},{"code":"11203021002","name":"西青木２丁目","lat":35.8165,"lng":139.712682},{"code":"11203021003","name":"西青木３丁目","lat":35.8186,"lng":139.712506},{"code":"11203021004","name":"西青木４丁目","lat":35.821406,"lng":139.711659},{"code":"11203021005","name":"西青木５丁目","lat":35.821813,"lng":139.71554},{"code":"11203022001","name":"上青木西１丁目","lat":35.825621,"lng":139.711797},{"code":"11203022002","name":"上青木西２丁目","lat":35.82485,"lng":139.715405},{"code":"11203022003","name":"上青木西３丁目","lat":35.827649,"lng":139.715695},{"code":"11203022004","name":"上青木西４丁目","lat":35.830262,"lng":139.712427},{"code":"11203022005","name":"上青木西５丁目","lat":35.831038,"lng":139.715734},{"code":"11203023001","name":"上青木１丁目","lat":35.822797,"lng":139.720416},{"code":"11203023002","name":"上青木２丁目","lat":35.826537,"lng":139.724772},{"code":"11203023003","name":"上青木３丁目","lat":35.827102,"lng":139.720238},{"code":"11203023004","name":"上青木４丁目","lat":35.831341,"lng":139.719562},{"code":"11203023005","name":"上青木５丁目","lat":35.831949,"lng":139.723969},{"code":"11203023006","name":"上青木６丁目","lat":35.83506,"lng":139.720574},{"code":"11203024001","name":"南前川１丁目","lat":35.827842,"lng":139.70814},{"code":"11203024002","name":"南前川２丁目","lat":35.830741,"lng":139.708785},{"code":"112030250","name":"前上町","lat":35.834445,"lng":139.714945},{"code":"11203026001","name":"前川１丁目","lat":35.833956,"lng":139.708946},{"code":"11203026002","name":"前川２丁目","lat":35.837747,"lng":139.715661},{"code":"11203026003","name":"前川３丁目","lat":35.83803,"lng":139.711437},{"code":"11203026004","name":"前川４丁目","lat":35.837802,"lng":139.707814},{"code":"11203027001","name":"朝日１丁目","lat":35.807841,"lng":139.734633},{"code":"11203027002","name":"朝日２丁目","lat":35.811927,"lng":139.73215},{"code":"11203027003","name":"朝日３丁目","lat":35.810578,"lng":139.737723},{"code":"11203027004","name":"朝日４丁目","lat":35.811589,"lng":139.742838},{"code":"11203027005","name":"朝日５丁目","lat":35.808893,"lng":139.747721},{"code":"11203027006","name":"朝日６丁目","lat":35.807107,"lng":139.745227},{"code":"11203028001","name":"末広１丁目","lat":35.803519,"lng":139.734182},{"code":"11203028002","name":"末広２丁目","lat":35.805037,"lng":139.738628},{"code":"11203028003","name":"末広３丁目","lat":35.805679,"lng":139.743022},{"code":"112030290","name":"新井町","lat":35.802572,"lng":139.741187},{"code":"11203030001","name":"元郷１丁目","lat":35.799729,"lng":139.73212},{"code":"11203030002","name":"元郷２丁目","lat":35.79522,"lng":139.730544},{"code":"11203030003","name":"元郷３丁目","lat":35.79313,"lng":139.735609},{"code":"11203030004","name":"元郷４丁目","lat":35.796565,"lng":139.735202},{"code":"11203030005","name":"元郷５丁目","lat":35.799135,"lng":139.738654},{"code":"11203030006","name":"元郷６丁目","lat":35.799863,"lng":139.743791},{"code":"11203031001","name":"弥平１丁目","lat":35.801339,"lng":139.747072},{"code":"11203031002","name":"弥平２丁目","lat":35.802239,"lng":139.749939},{"code":"11203031003","name":"弥平３丁目","lat":35.803577,"lng":139.7524},{"code":"11203031004","name":"弥平４丁目","lat":35.798688,"lng":139.756182},{"code":"11203032001","name":"東領家１丁目","lat":35.798002,"lng":139.747438},{"code":"11203032002","name":"東領家２丁目","lat":35.796441,"lng":139.750661},{"code":"11203032003","name":"東領家３丁目","lat":35.793452,"lng":139.752803},{"code":"11203032004","name":"東領家４丁目","lat":35.794443,"lng":139.757735},{"code":"11203032005","name":"東領家５丁目","lat":35.788647,"lng":139.752882},{"code":"11203033001","name":"領家１丁目","lat":35.796929,"lng":139.742015},{"code":"11203033002","name":"領家２丁目","lat":35.794543,"lng":139.741889},{"code":"11203033003","name":"領家３丁目","lat":35.79141,"lng":139.747773},{"code":"11203033004","name":"領家４丁目","lat":35.790522,"lng":139.744451},{"code":"11203033005","name":"領家５丁目","lat":35.787693,"lng":139.742299},{"code":"112030340","name":"河原町","lat":35.786966,"lng":139.73666},{"code":"112030350","name":"大字赤井","lat":35.831948,"lng":139.75225},{"code":"112030360","name":"大字東本郷","lat":35.825947,"lng":139.763091},{"code":"112030370","name":"大字蓮沼","lat":35.823986,"lng":139.761767},{"code":"112030380","name":"大字前野宿","lat":35.833597,"lng":139.759664},{"code":"112030390","name":"大字東貝塚","lat":35.835562,"lng":139.764774},{"code":"112030400","name":"大字大竹","lat":35.831575,"lng":139.764499},{"code":"112030410","name":"大字峯","lat":35.832312,"lng":139.773681},{"code":"112030420","name":"大字新堀","lat":35.827566,"lng":139.778194},{"code":"112030430","name":"大字榛松","lat":35.824098,"lng":139.772652},{"code":"11203044001","name":"赤井１丁目","lat":35.824895,"lng":139.747991},{"code":"11203044002","name":"赤井２丁目","lat":35.823652,"lng":139.750851},{"code":"11203044003","name":"赤井３丁目","lat":35.82547,"lng":139.754094},{"code":"11203044004","name":"赤井４丁目","lat":35.828408,"lng":139.749513},{"code":"11203045001","name":"江戸１丁目","lat":35.822175,"lng":139.753732},{"code":"11203045002","name":"江戸２丁目","lat":35.820319,"lng":139.749975},{"code":"11203045003","name":"江戸３丁目","lat":35.818121,"lng":139.753206},{"code":"11203046001","name":"江戸袋１丁目","lat":35.816327,"lng":139.756994},{"code":"11203046002","name":"江戸袋２丁目","lat":35.81353,"lng":139.756386},{"code":"11203047001","name":"本蓮１丁目","lat":35.82109,"lng":139.760961},{"code":"11203047002","name":"本蓮２丁目","lat":35.818455,"lng":139.76066},{"code":"11203047003","name":"本蓮３丁目","lat":35.81628,"lng":139.761489},{"code":"11203047004","name":"本蓮４丁目","lat":35.814584,"lng":139.762329},{"code":"11203048001","name":"東本郷１丁目","lat":35.822082,"lng":139.757678},{"code":"11203048002","name":"東本郷２丁目","lat":35.826353,"lng":139.756846},{"code":"11203049001","name":"大字安行領根岸","lat":35.84643,"lng":139.712141},{"code":"11203049002","name":"大字安行領根岸","lat":35.841904,"lng":139.722973},{"code":"112030500","name":"大字安行領在家","lat":35.855089,"lng":139.712182},{"code":"112030510","name":"大字道合","lat":35.85054,"lng":139.717924},{"code":"112030520","name":"大字神戸","lat":35.852823,"lng":139.726174},{"code":"112030530","name":"大字木曽呂","lat":35.859295,"lng":139.720692},{"code":"112030540","name":"大字東内野","lat":35.867818,"lng":139.721634},{"code":"112030550","name":"大字源左衛門新田","lat":35.863067,"lng":139.730542},{"code":"112030560","name":"大字石神","lat":35.857804,"lng":139.736776},{"code":"112030570","name":"大字赤芝新田","lat":35.853486,"lng":139.746407},{"code":"112030580","name":"大字西新井宿","lat":35.847678,"lng":139.732876},{"code":"112030590","name":"大字新井宿","lat":35.844967,"lng":139.736729},{"code":"112030600","name":"大字赤山","lat":35.847632,"lng":139.745091},{"code":"112030610","name":"在家町","lat":35.856063,"lng":139.709569},{"code":"112030620","name":"北園町","lat":35.85509,"lng":139.705563},{"code":"112030630","name":"柳根町","lat":35.850812,"lng":139.706399},{"code":"11203064001","name":"大字芝","lat":35.84551,"lng":139.691048},{"code":"11203064002","name":"大字芝","lat":35.837347,"lng":139.691482},{"code":"11203064003","name":"大字芝","lat":35.844751,"lng":139.686587},{"code":"112030650","name":"大字伊刈","lat":35.846387,"lng":139.697667},{"code":"112030660","name":"大字小谷場","lat":35.844572,"lng":139.679693},{"code":"11203067001","name":"芝中田１丁目","lat":35.829419,"lng":139.699299},{"code":"11203067002","name":"芝中田２丁目","lat":35.829384,"lng":139.703879},{"code":"112030680","name":"芝新町","lat":35.829279,"lng":139.694071},{"code":"11203069001","name":"芝下１丁目","lat":35.836756,"lng":139.699936},{"code":"11203069002","name":"芝下２丁目","lat":35.837312,"lng":139.703487},{"code":"11203069003","name":"芝下３丁目","lat":35.840083,"lng":139.701695},{"code":"11203070001","name":"芝１丁目","lat":35.833514,"lng":139.703326},{"code":"11203070002","name":"芝２丁目","lat":35.832314,"lng":139.698623},{"code":"11203070003","name":"芝３丁目","lat":35.835197,"lng":139.697272},{"code":"11203070004","name":"芝４丁目","lat":35.83382,"lng":139.69303},{"code":"11203070005","name":"芝５丁目","lat":35.831132,"lng":139.693326},{"code":"11203071001","name":"芝樋ノ爪１丁目","lat":35.832079,"lng":139.689378},{"code":"11203071002","name":"芝樋ノ爪２丁目","lat":35.833703,"lng":139.687209},{"code":"11203072001","name":"芝富士１丁目","lat":35.833806,"lng":139.679386},{"code":"11203072002","name":"芝富士２丁目","lat":35.836838,"lng":139.678378},{"code":"112030730","name":"芝園町","lat":35.83205,"lng":139.684544},{"code":"11203074001","name":"芝塚原１丁目","lat":35.8377,"lng":139.681345},{"code":"11203074002","name":"芝塚原２丁目","lat":35.83945,"lng":139.683401},{"code":"11203075001","name":"芝西１丁目","lat":35.836338,"lng":139.685443},{"code":"11203075002","name":"芝西２丁目","lat":35.841352,"lng":139.686214},{"code":"11203076001","name":"柳崎１丁目","lat":35.85185,"lng":139.701775},{"code":"11203076002","name":"柳崎２丁目","lat":35.850221,"lng":139.698066},{"code":"11203076003","name":"柳崎３丁目","lat":35.854598,"lng":139.69753},{"code":"11203076004","name":"柳崎４丁目","lat":35.85809,"lng":139.700835},{"code":"11203076005","name":"柳崎５丁目","lat":35.858976,"lng":139.704415},{"code":"112030770","name":"大字安行原","lat":35.84065,"lng":139.767334},{"code":"112030780","name":"大字安行領家","lat":35.845714,"lng":139.761213},{"code":"112030790","name":"大字安行慈林","lat":35.840132,"lng":139.749162},{"code":"112030800","name":"大字安行","lat":35.851405,"lng":139.756249},{"code":"112030810","name":"大字安行吉岡","lat":35.838594,"lng":139.754893},{"code":"112030820","name":"大字安行藤八","lat":35.856894,"lng":139.76154},{"code":"112030830","name":"大字安行吉蔵","lat":35.850064,"lng":139.770319},{"code":"112030840","name":"大字安行北谷","lat":35.839759,"lng":139.77628},{"code":"112030850","name":"大字安行小山","lat":35.835761,"lng":139.776458},{"code":"112030860","name":"大字安行西立野","lat":35.856248,"lng":139.755163},{"code":"11203087001","name":"安行出羽１丁目","lat":35.850739,"lng":139.761962},{"code":"11203087002","name":"安行出羽２丁目","lat":35.853032,"lng":139.764439},{"code":"11203087003","name":"安行出羽３丁目","lat":35.854761,"lng":139.766551},{"code":"11203087004","name":"安行出羽４丁目","lat":35.852855,"lng":139.768523},{"code":"11203087005","name":"安行出羽５丁目","lat":35.8509,"lng":139.765655},{"code":"112030890","name":"大字西立野","lat":35.858319,"lng":139.747105},{"code":"112030900","name":"大字長蔵新田","lat":35.859123,"lng":139.752896},{"code":"112030910","name":"大字久左衛門新田","lat":35.865873,"lng":139.76288},{"code":"112030920","name":"大字藤兵衛新田","lat":35.867583,"lng":139.765066},{"code":"112030930","name":"大字行衛","lat":35.874768,"lng":139.720557},{"code":"112030940","name":"大字差間","lat":35.867129,"lng":139.727298},{"code":"112030950","name":"戸塚鋏町","lat":35.865444,"lng":139.757936},{"code":"112030960","name":"戸塚境町","lat":35.863276,"lng":139.759663},{"code":"11203097001","name":"東川口１丁目","lat":35.877141,"lng":139.741049},{"code":"11203097002","name":"東川口２丁目","lat":35.87677,"lng":139.748357},{"code":"11203097003","name":"東川口３丁目","lat":35.878586,"lng":139.745504},{"code":"11203097004","name":"東川口４丁目","lat":35.88071,"lng":139.742681},{"code":"11203097005","name":"東川口５丁目","lat":35.882779,"lng":139.746272},{"code":"11203097006","name":"東川口６丁目","lat":35.877849,"lng":139.753126},{"code":"11203098001","name":"北原台１丁目","lat":35.869553,"lng":139.738628},{"code":"11203098002","name":"北原台２丁目","lat":35.866566,"lng":139.737377},{"code":"11203098003","name":"北原台３丁目","lat":35.868249,"lng":139.732427},{"code":"11203099001","name":"戸塚１丁目","lat":35.872911,"lng":139.742487},{"code":"11203099002","name":"戸塚２丁目","lat":35.873064,"lng":139.746641},{"code":"11203099003","name":"戸塚３丁目","lat":35.86865,"lng":139.748652},{"code":"11203099004","name":"戸塚４丁目","lat":35.867511,"lng":139.742746},{"code":"11203099005","name":"戸塚５丁目","lat":35.865265,"lng":139.749245},{"code":"11203099006","name":"戸塚６丁目","lat":35.863064,"lng":139.754411},{"code":"11203100001","name":"戸塚東１丁目","lat":35.874505,"lng":139.751266},{"code":"11203100002","name":"戸塚東２丁目","lat":35.871876,"lng":139.75362},{"code":"11203100003","name":"戸塚東３丁目","lat":35.868567,"lng":139.755619},{"code":"11203100004","name":"戸塚東４丁目","lat":35.872194,"lng":139.758487},{"code":"11203101001","name":"差間１丁目","lat":35.874329,"lng":139.731532},{"code":"11203101002","name":"差間２丁目","lat":35.874656,"lng":139.727548},{"code":"11203101003","name":"差間３丁目","lat":35.871199,"lng":139.730552},{"code":"11203102001","name":"長蔵１丁目","lat":35.859472,"lng":139.755677},{"code":"11203102002","name":"長蔵２丁目","lat":35.860407,"lng":139.75929},{"code":"11203102003","name":"長蔵３丁目","lat":35.861433,"lng":139.762526},{"code":"11203103001","name":"芝高木１丁目","lat":35.841792,"lng":139.70042},{"code":"11203103002","name":"芝高木２丁目","lat":35.843211,"lng":139.697427},{"code":"112031040","name":"芝宮根町","lat":35.839758,"lng":139.69699},{"code":"112031050","name":"芝東町","lat":35.843883,"lng":139.701627},{"code":"112031060","name":"新堀町","lat":35.825115,"lng":139.782084},{"code":"11203107001","name":"榛松１丁目","lat":35.820446,"lng":139.77149},{"code":"11203107002","name":"榛松２丁目","lat":35.822181,"lng":139.775263},{"code":"11203107003","name":"榛松３丁目","lat":35.823765,"lng":139.779161},{"code":"11203108001","name":"桜町１丁目","lat":35.836532,"lng":139.736457},{"code":"11203108002","name":"桜町２丁目","lat":35.839885,"lng":139.738099},{"code":"11203108003","name":"桜町３丁目","lat":35.841137,"lng":139.742685},{"code":"11203108004","name":"桜町４丁目","lat":35.840205,"lng":139.744075},{"code":"11203108005","name":"桜町５丁目","lat":35.838637,"lng":139.742136},{"code":"11203108006","name":"桜町６丁目","lat":35.836989,"lng":139.742233},{"code":"11203109001","name":"鳩ヶ谷本町１丁目","lat":35.83362,"lng":139.738132},{"code":"11203109002","name":"鳩ヶ谷本町２丁目","lat":35.83511,"lng":139.742216},{"code":"11203109003","name":"鳩ヶ谷本町３丁目","lat":35.833274,"lng":139.743084},{"code":"11203109004","name":"鳩ヶ谷本町４丁目","lat":35.831871,"lng":139.745414},{"code":"11203110001","name":"坂下町１丁目","lat":35.831879,"lng":139.736795},{"code":"11203110002","name":"坂下町２丁目","lat":35.829706,"lng":139.744094},{"code":"11203110003","name":"坂下町３丁目","lat":35.827866,"lng":139.74313},{"code":"11203110004","name":"坂下町４丁目","lat":35.827314,"lng":139.738471},{"code":"112031110","name":"大字里","lat":35.834513,"lng":139.730005},{"code":"112031120","name":"大字辻","lat":35.826097,"lng":139.732019},{"code":"11203113001","name":"三ツ和１丁目","lat":35.82551,"lng":139.740939},{"code":"11203113002","name":"三ツ和２丁目","lat":35.823859,"lng":139.743477},{"code":"11203113003","name":"三ツ和３丁目","lat":35.82194,"lng":139.745049},{"code":"112031140","name":"大字前田","lat":35.815035,"lng":139.729694},{"code":"11203115001","name":"鳩ヶ谷緑町１丁目","lat":35.816817,"lng":139.728876},{"code":"11203115002","name":"鳩ヶ谷緑町２丁目","lat":35.819574,"lng":139.727915},{"code":"11203116001","name":"南鳩ヶ谷１丁目","lat":35.820312,"lng":139.740585},{"code":"11203116002","name":"南鳩ヶ谷２丁目","lat":35.816512,"lng":139.744683},{"code":"11203116003","name":"南鳩ヶ谷３丁目","lat":35.815985,"lng":139.740358},{"code":"11203116004","name":"南鳩ヶ谷４丁目","lat":35.814354,"lng":139.738137},{"code":"11203116005","name":"南鳩ヶ谷５丁目","lat":35.815653,"lng":139.733249},{"code":"11203116006","name":"南鳩ヶ谷６丁目","lat":35.819115,"lng":139.733542},{"code":"11203116007","name":"南鳩ヶ谷７丁目","lat":35.822804,"lng":139.733533},{"code":"11203116008","name":"南鳩ヶ谷８丁目","lat":35.819259,"lng":139.729452},{"code":"11203117001","name":"八幡木１丁目","lat":35.819428,"lng":139.747293},{"code":"11203117002","name":"八幡木２丁目","lat":35.81526,"lng":139.749067},{"code":"11203117003","name":"八幡木３丁目","lat":35.811933,"lng":139.751525},{"code":"11203118001","name":"戸塚南１丁目","lat":35.860577,"lng":139.749725},{"code":"11203118002","name":"戸塚南２丁目","lat":35.862598,"lng":139.751799},{"code":"11203118003","name":"戸塚南３丁目","lat":35.862654,"lng":139.747873},{"code":"11203118004","name":"戸塚南４丁目","lat":35.863652,"lng":139.743941},{"code":"11203118005","name":"戸塚南５丁目","lat":35.863622,"lng":139.741647}]}
