{"municipality":"11239","name":"坂戸市","prefecture":"埼玉県","source":{"dataset":"frogcat/japan-small-area","census":"平成27年国勢調査 小地域（e-Stat 統計LOD）","license":"MIT（リポジトリ）／政府統計の総合窓口(e-Stat)の利用規約（元データ・出典表記必要）","fetched":"2026-07-06"},"towns":[{"code":"112390010","name":"大字紺屋","lat":35.958942,"lng":139.453709},{"code":"112390020","name":"大字中小坂","lat":35.949763,"lng":139.443493},{"code":"112390030","name":"大字横沼","lat":35.966106,"lng":139.450186},{"code":"112390040","name":"大字小沼","lat":35.974412,"lng":139.44566},{"code":"112390050","name":"大字青木","lat":35.965902,"lng":139.43394},{"code":"11239006001","name":"東坂戸１丁目","lat":35.952615,"lng":139.44181},{"code":"11239006002","name":"東坂戸２丁目","lat":35.954105,"lng":139.448273},{"code":"112390070","name":"大字石井","lat":35.975218,"lng":139.416877},{"code":"112390080","name":"大字島田","lat":35.988708,"lng":139.416822},{"code":"112390090","name":"大字赤尾","lat":35.986397,"lng":139.432266},{"code":"112390100","name":"大字塚越","lat":35.968581,"lng":139.424496},{"code":"112390110","name":"大字戸宮","lat":35.96095,"lng":139.42781},{"code":"112390120","name":"日の出町","lat":35.958626,"lng":139.39337},{"code":"112390130","name":"本町","lat":35.961042,"lng":139.39471},{"code":"112390140","name":"仲町","lat":35.963279,"lng":139.39537},{"code":"112390150","name":"元町","lat":35.965792,"lng":139.396876},{"code":"112390160","name":"花影町","lat":35.953076,"lng":139.385444},{"code":"112390170","name":"三光町","lat":35.956379,"lng":139.387906},{"code":"112390180","name":"中富町","lat":35.959486,"lng":139.387377},{"code":"11239019000","name":"泉町","lat":35.963254,"lng":139.388221},{"code":"11239019002","name":"泉町２丁目","lat":35.96606,"lng":139.388428},{"code":"11239019003","name":"泉町３丁目","lat":35.969225,"lng":139.388489},{"code":"112390200","name":"緑町","lat":35.95456,"lng":139.391482},{"code":"112390210","name":"南町","lat":35.955027,"lng":139.395838},{"code":"112390220","name":"芦山町","lat":35.973291,"lng":139.400169},{"code":"112390230","name":"薬師町","lat":35.96905,"lng":139.39834},{"code":"112390240","name":"溝端町","lat":35.970664,"lng":139.393682},{"code":"112390250","name":"末広町","lat":35.975808,"lng":139.396679},{"code":"112390260","name":"伊豆の山町","lat":35.974003,"lng":139.390453},{"code":"112390270","name":"鎌倉町","lat":35.966847,"lng":139.405248},{"code":"112390280","name":"清水町","lat":35.963979,"lng":139.40255},{"code":"112390290","name":"柳町","lat":35.963189,"lng":139.407641},{"code":"112390300","name":"山田町","lat":35.96028,"lng":139.39981},{"code":"11239031001","name":"八幡１丁目","lat":35.959703,"lng":139.403942},{"code":"11239031002","name":"八幡２丁目","lat":35.958723,"lng":139.400286},{"code":"11239032001","name":"関間１丁目","lat":35.954452,"lng":139.400714},{"code":"11239032002","name":"関間２丁目","lat":35.952426,"lng":139.399207},{"code":"11239032003","name":"関間３丁目","lat":35.949772,"lng":139.399946},{"code":"11239032004","name":"関間４丁目","lat":35.950769,"lng":139.404506},{"code":"11239033001","name":"千代田１丁目","lat":35.955013,"lng":139.404359},{"code":"11239033002","name":"千代田２丁目","lat":35.95881,"lng":139.407326},{"code":"11239033003","name":"千代田３丁目","lat":35.952257,"lng":139.409143},{"code":"11239033004","name":"千代田４丁目","lat":35.956475,"lng":139.410643},{"code":"11239033005","name":"千代田５丁目","lat":35.959573,"lng":139.418236},{"code":"112390340","name":"大字浅羽","lat":35.952066,"lng":139.377179},{"code":"11239035001","name":"浅羽野１丁目","lat":35.955031,"lng":139.382613},{"code":"11239035002","name":"浅羽野２丁目","lat":35.951689,"lng":139.38024},{"code":"11239035003","name":"浅羽野３丁目","lat":35.949083,"lng":139.380069},{"code":"112390360","name":"大字上吉田","lat":35.981375,"lng":139.396692},{"code":"112390370","name":"大字片柳","lat":35.977254,"lng":139.405365},{"code":"112390380","name":"大字新堀","lat":35.965378,"lng":139.370032},{"code":"112390390","name":"大字堀込","lat":35.965096,"lng":139.365332},{"code":"112390400","name":"大字小山","lat":35.964965,"lng":139.358274},{"code":"112390410","name":"大字善能寺","lat":35.963793,"lng":139.357656},{"code":"112390420","name":"大字竹之内","lat":35.968066,"lng":139.357424},{"code":"112390430","name":"大字長岡","lat":35.968803,"lng":139.352145},{"code":"112390440","name":"大字北浅羽","lat":35.973399,"lng":139.35928},{"code":"112390450","name":"大字今西","lat":35.975563,"lng":139.366799},{"code":"112390460","name":"大字金田","lat":35.976453,"lng":139.371991},{"code":"112390470","name":"大字沢木","lat":35.977873,"lng":139.377515},{"code":"112390480","name":"大字東和田","lat":35.981954,"lng":139.386452},{"code":"112390490","name":"大字新ヶ谷","lat":35.980353,"lng":139.39049},{"code":"112390500","name":"大字戸口","lat":35.973158,"lng":139.382969},{"code":"112390510","name":"大字中里","lat":35.962565,"lng":139.380936},{"code":"112390520","name":"大字塚崎","lat":35.965278,"lng":139.377311},{"code":"112390530","name":"大字北峰","lat":35.960973,"lng":139.366663},{"code":"112390540","name":"大字北大塚","lat":35.957792,"lng":139.372143},{"code":"112390550","name":"大字森戸","lat":35.93972,"lng":139.357753},{"code":"112390560","name":"大字多和目","lat":35.92607,"lng":139.335616},{"code":"112390570","name":"大字四日市場","lat":35.931241,"lng":139.350703},{"code":"112390580","name":"大字厚川","lat":35.948175,"lng":139.367456},{"code":"112390590","name":"大字萱方","lat":35.945517,"lng":139.362497},{"code":"112390600","name":"大字欠ノ上","lat":35.951272,"lng":139.360389},{"code":"112390610","name":"大字成願寺","lat":35.957147,"lng":139.363545},{"code":"112390620","name":"けやき台","lat":35.932462,"lng":139.339135},{"code":"11239063001","name":"西坂戸１丁目","lat":35.93234,"lng":139.333752},{"code":"11239063002","name":"西坂戸２丁目","lat":35.933562,"lng":139.331818},{"code":"11239063003","name":"西坂戸３丁目","lat":35.930272,"lng":139.330149},{"code":"11239063004","name":"西坂戸４丁目","lat":35.927368,"lng":139.331509},{"code":"11239063005","name":"西坂戸５丁目","lat":35.929265,"lng":139.334645},{"code":"11239064001","name":"鶴舞１丁目","lat":35.947516,"lng":139.372178},{"code":"11239064002","name":"鶴舞２丁目","lat":35.950749,"lng":139.371161},{"code":"11239064003","name":"鶴舞３丁目","lat":35.946787,"lng":139.370364},{"code":"11239064004","name":"鶴舞４丁目","lat":35.948931,"lng":139.368767},{"code":"11239065001","name":"にっさい花みず木１丁目","lat":35.972045,"lng":139.377021},{"code":"11239065002","name":"にっさい花みず木２丁目","lat":35.970384,"lng":139.374025},{"code":"11239065003","name":"にっさい花みず木３丁目","lat":35.970312,"lng":139.370862},{"code":"11239065004","name":"にっさい花みず木４丁目","lat":35.969926,"lng":139.366868},{"code":"11239065005","name":"にっさい花みず木５丁目","lat":35.968728,"lng":139.363299},{"code":"11239065006","name":"にっさい花みず木６丁目","lat":35.967234,"lng":139.360376},{"code":"11239065007","name":"にっさい花みず木７丁目","lat":35.971308,"lng":139.362671},{"code":"11239065008","name":"にっさい花みず木８丁目","lat":35.973203,"lng":139.371108},{"code":"112390660","name":"大字坂戸","lat":35.968889,"lng":139.402925}]}
