{"municipality":"11234","name":"八潮市","prefecture":"埼玉県","source":{"dataset":"frogcat/japan-small-area","census":"平成27年国勢調査 小地域（e-Stat 統計LOD）","license":"MIT（リポジトリ）／政府統計の総合窓口(e-Stat)の利用規約（元データ・出典表記必要）","fetched":"2026-07-06"},"towns":[{"code":"11234001001","name":"大字八條","lat":35.846735,"lng":139.837104},{"code":"11234001002","name":"大字八條","lat":35.843683,"lng":139.834488},{"code":"112340020","name":"大字鶴ケ曽根","lat":35.8307,"lng":139.839515},{"code":"112340030","name":"大字小作田","lat":35.827219,"lng":139.832289},{"code":"112340040","name":"大字松之木","lat":35.833288,"lng":139.832429},{"code":"11234005001","name":"大字伊草","lat":35.830796,"lng":139.829204},{"code":"11234005002","name":"大字伊草","lat":35.827582,"lng":139.827085},{"code":"112340080","name":"大字新町","lat":35.838926,"lng":139.831626},{"code":"112340090","name":"大字二丁目","lat":35.821228,"lng":139.851756},{"code":"112340100","name":"大字木曽根","lat":35.818017,"lng":139.854865},{"code":"112340110","name":"大字南川崎","lat":35.813421,"lng":139.858206},{"code":"112340120","name":"大字伊勢野","lat":35.809021,"lng":139.855104},{"code":"112340130","name":"大字大瀬","lat":35.80172,"lng":139.85401},{"code":"112340140","name":"大字古新田","lat":35.797098,"lng":139.850472},{"code":"112340150","name":"大字垳","lat":35.801652,"lng":139.839792},{"code":"112340160","name":"大字上馬場","lat":35.820672,"lng":139.827156},{"code":"112340170","name":"大字中馬場","lat":35.822054,"lng":139.842979},{"code":"112340180","name":"大字大原","lat":35.806491,"lng":139.83595},{"code":"112340190","name":"大字大曽根","lat":35.805761,"lng":139.827957},{"code":"112340200","name":"大字浮塚","lat":35.797901,"lng":139.826943},{"code":"112340210","name":"大字西袋","lat":35.816618,"lng":139.820698},{"code":"112340220","name":"大字柳之宮","lat":35.822148,"lng":139.822306},{"code":"112340230","name":"大字南後谷","lat":35.829064,"lng":139.817684},{"code":"11234024001","name":"中央１丁目","lat":35.821937,"lng":139.837414},{"code":"11234024002","name":"中央２丁目","lat":35.819476,"lng":139.836917},{"code":"11234024003","name":"中央３丁目","lat":35.820004,"lng":139.831392},{"code":"11234024004","name":"中央４丁目","lat":35.819201,"lng":139.82804},{"code":"11234025001","name":"八潮１丁目","lat":35.815725,"lng":139.840762},{"code":"11234025002","name":"八潮２丁目","lat":35.815578,"lng":139.83831},{"code":"11234025003","name":"八潮３丁目","lat":35.815169,"lng":139.835906},{"code":"11234025004","name":"八潮４丁目","lat":35.811514,"lng":139.839386},{"code":"11234025005","name":"八潮５丁目","lat":35.808914,"lng":139.83937},{"code":"11234025006","name":"八潮６丁目","lat":35.812144,"lng":139.834332},{"code":"11234025007","name":"八潮７丁目","lat":35.815483,"lng":139.831935},{"code":"11234025008","name":"八潮８丁目","lat":35.814979,"lng":139.828765},{"code":"11234026001","name":"緑町１丁目","lat":35.825554,"lng":139.834589},{"code":"11234026002","name":"緑町２丁目","lat":35.823821,"lng":139.830979},{"code":"11234026003","name":"緑町３丁目","lat":35.827274,"lng":139.830646},{"code":"11234026004","name":"緑町４丁目","lat":35.82297,"lng":139.82712},{"code":"11234026005","name":"緑町５丁目","lat":35.82686,"lng":139.825575},{"code":"112340270","name":"大瀬","lat":35.807043,"lng":139.84659},{"code":"112340280","name":"茜町","lat":35.805631,"lng":139.841651}]}
