{"municipality":"11246","name":"白岡市","prefecture":"埼玉県","source":{"dataset":"frogcat/japan-small-area","census":"平成27年国勢調査 小地域（e-Stat 統計LOD）","license":"MIT（リポジトリ）／政府統計の総合窓口(e-Stat)の利用規約（元データ・出典表記必要）","fetched":"2026-07-06"},"towns":[{"code":"112460010","name":"岡泉","lat":36.007747,"lng":139.689897},{"code":"112460020","name":"実ヶ谷","lat":36.004261,"lng":139.678025},{"code":"112460030","name":"千駄野","lat":36.01381,"lng":139.675768},{"code":"11246004001","name":"小久喜","lat":36.019336,"lng":139.670435},{"code":"11246004002","name":"小久喜","lat":36.010288,"lng":139.667369},{"code":"112460050","name":"上野田","lat":36.022878,"lng":139.683715},{"code":"112460060","name":"上野田","lat":36.017632,"lng":139.693735},{"code":"112460070","name":"上野田","lat":36.021345,"lng":139.698969},{"code":"112460080","name":"太田新井","lat":36.004407,"lng":139.705129},{"code":"112460090","name":"彦兵衛","lat":36.000751,"lng":139.699002},{"code":"112460100","name":"篠津","lat":36.032546,"lng":139.656295},{"code":"112460110","name":"篠津","lat":36.042062,"lng":139.664351},{"code":"112460120","name":"高岩","lat":36.035609,"lng":139.67966},{"code":"11246013001","name":"新白岡１丁目","lat":36.040109,"lng":139.675739},{"code":"11246013002","name":"新白岡２丁目","lat":36.037023,"lng":139.676665},{"code":"11246013003","name":"新白岡３丁目","lat":36.032907,"lng":139.675356},{"code":"11246013004","name":"新白岡４丁目","lat":36.039112,"lng":139.673273},{"code":"11246013005","name":"新白岡５丁目","lat":36.035478,"lng":139.672738},{"code":"11246013006","name":"新白岡６丁目","lat":36.032414,"lng":139.670816},{"code":"11246013007","name":"新白岡７丁目","lat":36.03958,"lng":139.670803},{"code":"11246013008","name":"新白岡８丁目","lat":36.036689,"lng":139.669948},{"code":"11246013009","name":"新白岡９丁目","lat":36.033859,"lng":139.668563},{"code":"112460160","name":"篠津","lat":36.025802,"lng":139.671169},{"code":"112460171","name":"白岡東","lat":36.021859,"lng":139.661268},{"code":"112460172","name":"白岡","lat":36.018869,"lng":139.660982},{"code":"112460180","name":"西","lat":36.013195,"lng":139.654614},{"code":"112460190","name":"西","lat":36.012769,"lng":139.651632},{"code":"112460200","name":"西","lat":36.015273,"lng":139.651468},{"code":"112460210","name":"西","lat":36.01915,"lng":139.654268},{"code":"112460220","name":"西","lat":36.018517,"lng":139.651545},{"code":"112460230","name":"西","lat":36.0227,"lng":139.654382},{"code":"112460240","name":"西","lat":36.022523,"lng":139.651167},{"code":"112460250","name":"西","lat":36.025343,"lng":139.654156},{"code":"112460260","name":"西","lat":36.028686,"lng":139.653213},{"code":"112460270","name":"西","lat":36.026242,"lng":139.650738},{"code":"112460280","name":"柴山","lat":36.035145,"lng":139.617139},{"code":"112460290","name":"荒井新田","lat":36.04013,"lng":139.62076},{"code":"112460300","name":"下大崎","lat":36.039068,"lng":139.632955}]}
