{"municipality":"12104","name":"千葉市若葉区","prefecture":"千葉県","source":{"dataset":"frogcat/japan-small-area","census":"平成27年国勢調査 小地域（e-Stat 統計LOD）","license":"MIT（リポジトリ）／政府統計の総合窓口(e-Stat)の利用規約（元データ・出典表記必要）","fetched":"2026-07-06"},"towns":[{"code":"121040010","name":"愛生町","lat":35.652795,"lng":140.134566},{"code":"121040020","name":"五十土町","lat":35.580089,"lng":140.217232},{"code":"121040030","name":"和泉町","lat":35.577529,"lng":140.253243},{"code":"121040040","name":"大井戸町","lat":35.628104,"lng":140.215567},{"code":"121040050","name":"大草町","lat":35.610168,"lng":140.190331},{"code":"121040060","name":"太田町","lat":35.607095,"lng":140.175457},{"code":"121040070","name":"大広町","lat":35.577564,"lng":140.208702},{"code":"12104008001","name":"大宮台１丁目","lat":35.593966,"lng":140.184321},{"code":"12104008002","name":"大宮台２丁目","lat":35.589902,"lng":140.18364},{"code":"12104008003","name":"大宮台３丁目","lat":35.589278,"lng":140.180635},{"code":"12104008004","name":"大宮台４丁目","lat":35.591837,"lng":140.181146},{"code":"12104008005","name":"大宮台５丁目","lat":35.593687,"lng":140.178708},{"code":"12104008006","name":"大宮台６丁目","lat":35.594739,"lng":140.181628},{"code":"12104008007","name":"大宮台７丁目","lat":35.598556,"lng":140.182311},{"code":"121040090","name":"大宮町","lat":35.595152,"lng":140.174443},{"code":"12104010001","name":"小倉台１丁目","lat":35.628386,"lng":140.16939},{"code":"12104010002","name":"小倉台２丁目","lat":35.625512,"lng":140.170539},{"code":"12104010003","name":"小倉台３丁目","lat":35.626838,"lng":140.17433},{"code":"12104010004","name":"小倉台４丁目","lat":35.629767,"lng":140.17157},{"code":"12104010005","name":"小倉台５丁目","lat":35.630497,"lng":140.174318},{"code":"12104010006","name":"小倉台６丁目","lat":35.63016,"lng":140.178383},{"code":"12104010007","name":"小倉台７丁目","lat":35.627211,"lng":140.178469},{"code":"121040110","name":"小倉町","lat":35.628802,"lng":140.1783},{"code":"12104012001","name":"御成台１丁目","lat":35.626526,"lng":140.194345},{"code":"12104012002","name":"御成台２丁目","lat":35.632006,"lng":140.198438},{"code":"12104012003","name":"御成台３丁目","lat":35.634852,"lng":140.201938},{"code":"12104012004","name":"御成台４丁目","lat":35.636998,"lng":140.20466},{"code":"121040130","name":"小間子町","lat":35.617045,"lng":140.260373},{"code":"12104014101","name":"貝塚１丁目","lat":35.625144,"lng":140.152329},{"code":"12104014102","name":"貝塚２丁目","lat":35.630919,"lng":140.152093},{"code":"12104014201","name":"貝塚町","lat":35.623945,"lng":140.147185},{"code":"12104014202","name":"貝塚町","lat":35.618774,"lng":140.139036},{"code":"121040150","name":"加曽利町","lat":35.612089,"lng":140.162916},{"code":"121040160","name":"金親町","lat":35.620735,"lng":140.204432},{"code":"121040170","name":"上泉町","lat":35.623389,"lng":140.24115},{"code":"121040180","name":"川井町","lat":35.58708,"lng":140.21812},{"code":"121040190","name":"北大宮台","lat":35.599315,"lng":140.178632},{"code":"121040200","name":"北谷津町","lat":35.607854,"lng":140.201586},{"code":"121040210","name":"古泉町","lat":35.593051,"lng":140.241606},{"code":"121040220","name":"御殿町","lat":35.611411,"lng":140.214936},{"code":"121040230","name":"坂月町","lat":35.612655,"lng":140.179948},{"code":"12104024101","name":"桜木１丁目","lat":35.619411,"lng":140.155499},{"code":"12104024102","name":"桜木２丁目","lat":35.620855,"lng":140.1634},{"code":"12104024103","name":"桜木３丁目","lat":35.623253,"lng":140.160057},{"code":"12104024104","name":"桜木４丁目","lat":35.624295,"lng":140.156804},{"code":"12104024105","name":"桜木５丁目","lat":35.625382,"lng":140.154294},{"code":"12104024106","name":"桜木６丁目","lat":35.630236,"lng":140.156415},{"code":"12104024107","name":"桜木７丁目","lat":35.628996,"lng":140.159765},{"code":"12104024108","name":"桜木８丁目","lat":35.62622,"lng":140.163461},{"code":"12104024201","name":"桜木北１丁目","lat":35.630687,"lng":140.163312},{"code":"12104024202","name":"桜木北２丁目","lat":35.634358,"lng":140.157349},{"code":"12104024203","name":"桜木北３丁目","lat":35.636977,"lng":140.159685},{"code":"121040250","name":"更科町","lat":35.617961,"lng":140.225029},{"code":"121040260","name":"佐和町","lat":35.585584,"lng":140.206777},{"code":"121040270","name":"下泉町","lat":35.629182,"lng":140.229705},{"code":"121040280","name":"下田町","lat":35.634057,"lng":140.209059},{"code":"121040290","name":"高品町","lat":35.624285,"lng":140.137225},{"code":"121040300","name":"高根町","lat":35.597353,"lng":140.211897},{"code":"121040310","name":"多部田町","lat":35.59731,"lng":140.194556},{"code":"121040320","name":"旦谷町","lat":35.650614,"lng":140.211424},{"code":"12104033001","name":"千城台北１丁目","lat":35.62792,"lng":140.183681},{"code":"12104033002","name":"千城台北２丁目","lat":35.625608,"lng":140.18765},{"code":"12104033003","name":"千城台北３丁目","lat":35.623543,"lng":140.190335},{"code":"12104033004","name":"千城台北４丁目","lat":35.625207,"lng":140.192832},{"code":"12104034001","name":"千城台西１丁目","lat":35.62448,"lng":140.183011},{"code":"12104034002","name":"千城台西２丁目","lat":35.620891,"lng":140.184837},{"code":"12104034003","name":"千城台西３丁目","lat":35.619518,"lng":140.181712},{"code":"12104035001","name":"千城台東１丁目","lat":35.621963,"lng":140.192419},{"code":"12104035002","name":"千城台東２丁目","lat":35.620881,"lng":140.195016},{"code":"12104035003","name":"千城台東３丁目","lat":35.618312,"lng":140.196301},{"code":"12104035004","name":"千城台東４丁目","lat":35.615976,"lng":140.196886},{"code":"12104036001","name":"千城台南１丁目","lat":35.618468,"lng":140.190219},{"code":"12104036002","name":"千城台南２丁目","lat":35.617789,"lng":140.187679},{"code":"12104036003","name":"千城台南３丁目","lat":35.615772,"lng":140.187554},{"code":"12104036004","name":"千城台南４丁目","lat":35.613731,"lng":140.191022},{"code":"12104037001","name":"都賀１丁目","lat":35.630789,"lng":140.145438},{"code":"12104037002","name":"都賀２丁目","lat":35.632505,"lng":140.148023},{"code":"12104037003","name":"都賀３丁目","lat":35.635704,"lng":140.150831},{"code":"12104037004","name":"都賀４丁目","lat":35.634444,"lng":140.153263},{"code":"12104037005","name":"都賀５丁目","lat":35.638613,"lng":140.155122},{"code":"12104038001","name":"都賀の台１丁目","lat":35.640422,"lng":140.142629},{"code":"12104038002","name":"都賀の台２丁目","lat":35.643864,"lng":140.141606},{"code":"12104038003","name":"都賀の台３丁目","lat":35.644441,"lng":140.144205},{"code":"12104038004","name":"都賀の台４丁目","lat":35.642002,"lng":140.145657},{"code":"121040390","name":"殿台町","lat":35.635194,"lng":140.126215},{"code":"121040400","name":"富田町","lat":35.604947,"lng":140.24939},{"code":"121040410","name":"中田町","lat":35.60266,"lng":140.227291},{"code":"121040420","name":"中野町","lat":35.57832,"lng":140.265075},{"code":"12104043001","name":"西都賀１丁目","lat":35.635123,"lng":140.145613},{"code":"12104043002","name":"西都賀２丁目","lat":35.638667,"lng":140.146301},{"code":"12104043003","name":"西都賀３丁目","lat":35.637668,"lng":140.149149},{"code":"12104043004","name":"西都賀４丁目","lat":35.640181,"lng":140.151898},{"code":"12104043005","name":"西都賀５丁目","lat":35.642137,"lng":140.149403},{"code":"121040440","name":"野呂町","lat":35.577374,"lng":140.2348},{"code":"121040450","name":"原町","lat":35.63236,"lng":140.139754},{"code":"121040460","name":"東寺山町","lat":35.630357,"lng":140.132968},{"code":"12104047001","name":"みつわ台１丁目","lat":35.632842,"lng":140.130137},{"code":"12104047002","name":"みつわ台２丁目","lat":35.637511,"lng":140.132259},{"code":"12104047003","name":"みつわ台３丁目","lat":35.640951,"lng":140.137298},{"code":"12104047004","name":"みつわ台４丁目","lat":35.643617,"lng":140.133422},{"code":"12104047005","name":"みつわ台５丁目","lat":35.646952,"lng":140.137184},{"code":"121040480","name":"源町","lat":35.646038,"lng":140.130852},{"code":"121040490","name":"谷当町","lat":35.643648,"lng":140.216025},{"code":"12104050101","name":"若松台１丁目","lat":35.649234,"lng":140.169179},{"code":"12104050102","name":"若松台２丁目","lat":35.648586,"lng":140.170849},{"code":"12104050103","name":"若松台３丁目","lat":35.651115,"lng":140.17627},{"code":"12104050201","name":"若松町","lat":35.644641,"lng":140.155747},{"code":"12104050202","name":"若松町","lat":35.642854,"lng":140.175252}]}
