{"municipality":"12228","name":"四街道市","prefecture":"千葉県","source":{"dataset":"frogcat/japan-small-area","census":"平成27年国勢調査 小地域（e-Stat 統計LOD）","license":"MIT（リポジトリ）／政府統計の総合窓口(e-Stat)の利用規約（元データ・出典表記必要）","fetched":"2026-07-06"},"towns":[{"code":"122280010","name":"亀崎","lat":35.699773,"lng":140.198706},{"code":"12228002102","name":"もねの里２丁目","lat":35.687604,"lng":140.187752},{"code":"12228002103","name":"もねの里３丁目","lat":35.68949,"lng":140.191922},{"code":"122280022","name":"物井","lat":35.688991,"lng":140.196188},{"code":"122280030","name":"長岡","lat":35.68178,"lng":140.19001},{"code":"122280040","name":"栗山","lat":35.677711,"lng":140.177627},{"code":"12228005101","name":"池花１丁目","lat":35.686558,"lng":140.177042},{"code":"12228005102","name":"池花２丁目","lat":35.689788,"lng":140.176952},{"code":"122280052","name":"内黒田","lat":35.688259,"lng":140.172671},{"code":"122280060","name":"萱橋","lat":35.686745,"lng":140.167028},{"code":"122280070","name":"下志津新田","lat":35.66425,"lng":140.1551},{"code":"122280080","name":"四街道","lat":35.664786,"lng":140.159722},{"code":"12228009001","name":"四街道１丁目","lat":35.663768,"lng":140.163037},{"code":"12228009002","name":"四街道２丁目","lat":35.660009,"lng":140.161184},{"code":"12228009003","name":"四街道３丁目","lat":35.659304,"lng":140.157144},{"code":"122280100","name":"大日","lat":35.688176,"lng":140.156188},{"code":"122280110","name":"大日","lat":35.67326,"lng":140.162454},{"code":"122280120","name":"大日","lat":35.672324,"lng":140.154912},{"code":"122280130","name":"鹿放ケ丘","lat":35.676567,"lng":140.145399},{"code":"122280140","name":"鹿渡","lat":35.667323,"lng":140.176652},{"code":"122280150","name":"和良比","lat":35.655134,"lng":140.165393},{"code":"122280160","name":"山梨","lat":35.674894,"lng":140.195945},{"code":"12228017101","name":"鷹の台１丁目","lat":35.639699,"lng":140.200223},{"code":"12228017102","name":"鷹の台２丁目","lat":35.632874,"lng":140.195618},{"code":"12228017103","name":"鷹の台３丁目","lat":35.633746,"lng":140.192669},{"code":"12228017104","name":"鷹の台４丁目","lat":35.630465,"lng":140.192622},{"code":"122280172","name":"吉岡","lat":35.644212,"lng":140.196976},{"code":"12228018101","name":"めいわ１丁目","lat":35.657289,"lng":140.174552},{"code":"12228018102","name":"めいわ２丁目","lat":35.654305,"lng":140.173986},{"code":"12228018103","name":"めいわ３丁目","lat":35.649824,"lng":140.162933},{"code":"12228018104","name":"めいわ４丁目","lat":35.649113,"lng":140.16556},{"code":"12228018105","name":"めいわ５丁目","lat":35.649847,"lng":140.172694},{"code":"122280182","name":"小名木","lat":35.654681,"lng":140.182239},{"code":"122280190","name":"成山","lat":35.662892,"lng":140.210569},{"code":"122280200","name":"中台","lat":35.662811,"lng":140.204326},{"code":"122280210","name":"中野","lat":35.664518,"lng":140.197739},{"code":"122280220","name":"南波佐間","lat":35.657554,"lng":140.195397},{"code":"122280230","name":"上野","lat":35.656921,"lng":140.189642},{"code":"122280240","name":"和田","lat":35.658205,"lng":140.191971},{"code":"122280250","name":"みのり町","lat":35.665218,"lng":140.172407},{"code":"12228026001","name":"千代田１丁目","lat":35.68999,"lng":140.180956},{"code":"12228026002","name":"千代田２丁目","lat":35.693479,"lng":140.179267},{"code":"12228026003","name":"千代田３丁目","lat":35.697272,"lng":140.186453},{"code":"12228026004","name":"千代田４丁目","lat":35.694808,"lng":140.184039},{"code":"12228026005","name":"千代田５丁目","lat":35.692048,"lng":140.185679},{"code":"12228031001","name":"旭ケ丘１丁目","lat":35.662138,"lng":140.18284},{"code":"12228031002","name":"旭ケ丘２丁目","lat":35.660326,"lng":140.185457},{"code":"12228031003","name":"旭ケ丘３丁目","lat":35.663098,"lng":140.18645},{"code":"12228031004","name":"旭ケ丘４丁目","lat":35.666408,"lng":140.187466},{"code":"12228031005","name":"旭ケ丘５丁目","lat":35.664926,"lng":140.189136},{"code":"12228036001","name":"みそら１丁目","lat":35.666697,"lng":140.195307},{"code":"12228036002","name":"みそら２丁目","lat":35.670279,"lng":140.199211},{"code":"12228036003","name":"みそら３丁目","lat":35.673812,"lng":140.202902},{"code":"12228036004","name":"みそら４丁目","lat":35.671461,"lng":140.204377},{"code":"12228040001","name":"つくし座１丁目","lat":35.671211,"lng":140.17763},{"code":"12228040002","name":"つくし座２丁目","lat":35.674648,"lng":140.178672},{"code":"12228040003","name":"つくし座３丁目","lat":35.672689,"lng":140.181362},{"code":"122280430","name":"さつきケ丘","lat":35.663413,"lng":140.152065},{"code":"12228044001","name":"さちが丘１丁目","lat":35.668928,"lng":140.174909},{"code":"12228044002","name":"さちが丘２丁目","lat":35.672906,"lng":140.17593},{"code":"12228046001","name":"美しが丘１丁目","lat":35.657667,"lng":140.163938},{"code":"12228046002","name":"美しが丘２丁目","lat":35.656738,"lng":140.16125},{"code":"12228046003","name":"美しが丘３丁目","lat":35.654384,"lng":140.159715},{"code":"122280500","name":"中央","lat":35.668184,"lng":140.165668}]}
