{"municipality":"13110","name":"目黒区","prefecture":"東京都","source":{"dataset":"frogcat/japan-small-area","census":"平成27年国勢調査 小地域（e-Stat 統計LOD）","license":"MIT（リポジトリ）／政府統計の総合窓口(e-Stat)の利用規約（元データ・出典表記必要）","fetched":"2026-07-06"},"towns":[{"code":"13110001001","name":"駒場１丁目","lat":35.656724,"lng":139.68634},{"code":"13110001002","name":"駒場２丁目","lat":35.65772,"lng":139.680984},{"code":"13110001003","name":"駒場３丁目","lat":35.660169,"lng":139.685234},{"code":"13110001004","name":"駒場４丁目","lat":35.661979,"lng":139.678804},{"code":"13110002001","name":"青葉台１丁目","lat":35.64804,"lng":139.697025},{"code":"13110002002","name":"青葉台２丁目","lat":35.650357,"lng":139.694283},{"code":"13110002003","name":"青葉台３丁目","lat":35.65149,"lng":139.691616},{"code":"13110002004","name":"青葉台４丁目","lat":35.654402,"lng":139.691061},{"code":"13110003001","name":"東山１丁目","lat":35.646251,"lng":139.692157},{"code":"13110003002","name":"東山２丁目","lat":35.646738,"lng":139.687843},{"code":"13110003003","name":"東山３丁目","lat":35.649064,"lng":139.686189},{"code":"13110004001","name":"大橋１丁目","lat":35.651061,"lng":139.688341},{"code":"13110004002","name":"大橋２丁目","lat":35.653734,"lng":139.686018},{"code":"13110005001","name":"上目黒１丁目","lat":35.645408,"lng":139.699824},{"code":"13110005002","name":"上目黒２丁目","lat":35.641199,"lng":139.697292},{"code":"13110005003","name":"上目黒３丁目","lat":35.643962,"lng":139.69479},{"code":"13110005004","name":"上目黒４丁目","lat":35.640941,"lng":139.69064},{"code":"13110005005","name":"上目黒５丁目","lat":35.642963,"lng":139.687781},{"code":"13110006001","name":"中目黒１丁目","lat":35.643775,"lng":139.702612},{"code":"13110006002","name":"中目黒２丁目","lat":35.640944,"lng":139.705761},{"code":"13110006003","name":"中目黒３丁目","lat":35.639488,"lng":139.700437},{"code":"13110006004","name":"中目黒４丁目","lat":35.637063,"lng":139.702996},{"code":"13110006005","name":"中目黒５丁目","lat":35.635913,"lng":139.69827},{"code":"13110007001","name":"三田１丁目","lat":35.640684,"lng":139.714123},{"code":"13110007002","name":"三田２丁目","lat":35.639255,"lng":139.709971},{"code":"13110008001","name":"目黒１丁目","lat":35.636052,"lng":139.711297},{"code":"13110008002","name":"目黒２丁目","lat":35.635191,"lng":139.707828},{"code":"13110008003","name":"目黒３丁目","lat":35.633818,"lng":139.705311},{"code":"13110008004","name":"目黒４丁目","lat":35.632749,"lng":139.701684},{"code":"13110009001","name":"下目黒１丁目","lat":35.632327,"lng":139.713294},{"code":"13110009002","name":"下目黒２丁目","lat":35.630926,"lng":139.711357},{"code":"13110009003","name":"下目黒３丁目","lat":35.629181,"lng":139.708953},{"code":"13110009004","name":"下目黒４丁目","lat":35.629439,"lng":139.706015},{"code":"13110009005","name":"下目黒５丁目","lat":35.627661,"lng":139.703646},{"code":"13110009006","name":"下目黒６丁目","lat":35.627868,"lng":139.699163},{"code":"13110010001","name":"中町１丁目","lat":35.631002,"lng":139.697429},{"code":"13110010002","name":"中町２丁目","lat":35.633621,"lng":139.694217},{"code":"13110011001","name":"五本木１丁目","lat":35.638078,"lng":139.688591},{"code":"13110011002","name":"五本木２丁目","lat":35.634647,"lng":139.687605},{"code":"13110011003","name":"五本木３丁目","lat":35.631731,"lng":139.683842},{"code":"13110012001","name":"祐天寺１丁目","lat":35.63875,"lng":139.694473},{"code":"13110012002","name":"祐天寺２丁目","lat":35.636794,"lng":139.692651},{"code":"13110013001","name":"中央町１丁目","lat":35.628781,"lng":139.692294},{"code":"13110013002","name":"中央町２丁目","lat":35.631593,"lng":139.689504},{"code":"13110014001","name":"目黒本町１丁目","lat":35.626732,"lng":139.695955},{"code":"13110014002","name":"目黒本町２丁目","lat":35.624975,"lng":139.692049},{"code":"13110014003","name":"目黒本町３丁目","lat":35.622624,"lng":139.700706},{"code":"13110014004","name":"目黒本町４丁目","lat":35.622855,"lng":139.695152},{"code":"13110014005","name":"目黒本町５丁目","lat":35.619617,"lng":139.699284},{"code":"13110014006","name":"目黒本町６丁目","lat":35.619813,"lng":139.695406},{"code":"13110015001","name":"原町１丁目","lat":35.616806,"lng":139.696},{"code":"13110015002","name":"原町２丁目","lat":35.615617,"lng":139.69162},{"code":"13110016001","name":"洗足１丁目","lat":35.614642,"lng":139.694637},{"code":"13110016002","name":"洗足２丁目","lat":35.611263,"lng":139.693393},{"code":"13110017001","name":"南１丁目","lat":35.61439,"lng":139.689099},{"code":"13110017002","name":"南２丁目","lat":35.615612,"lng":139.686431},{"code":"13110017003","name":"南３丁目","lat":35.613013,"lng":139.686045},{"code":"13110018001","name":"碑文谷１丁目","lat":35.620049,"lng":139.690344},{"code":"13110018002","name":"碑文谷２丁目","lat":35.622634,"lng":139.687506},{"code":"13110018003","name":"碑文谷３丁目","lat":35.617772,"lng":139.685213},{"code":"13110018004","name":"碑文谷４丁目","lat":35.620191,"lng":139.683465},{"code":"13110018005","name":"碑文谷５丁目","lat":35.623389,"lng":139.681854},{"code":"13110018006","name":"碑文谷６丁目","lat":35.626258,"lng":139.682537},{"code":"13110019001","name":"鷹番１丁目","lat":35.625931,"lng":139.687563},{"code":"13110019002","name":"鷹番２丁目","lat":35.62881,"lng":139.687712},{"code":"13110019003","name":"鷹番３丁目","lat":35.628934,"lng":139.683812},{"code":"13110020001","name":"平町１丁目","lat":35.617734,"lng":139.679322},{"code":"13110020002","name":"平町２丁目","lat":35.614716,"lng":139.681068},{"code":"13110021001","name":"大岡山１丁目","lat":35.611065,"lng":139.682011},{"code":"13110021002","name":"大岡山２丁目","lat":35.606224,"lng":139.682716},{"code":"13110022001","name":"緑が丘１丁目","lat":35.609812,"lng":139.677998},{"code":"13110022002","name":"緑が丘２丁目","lat":35.610383,"lng":139.673582},{"code":"13110022003","name":"緑が丘３丁目","lat":35.603901,"lng":139.680099},{"code":"13110023001","name":"自由が丘１丁目","lat":35.610231,"lng":139.669888},{"code":"13110023002","name":"自由が丘２丁目","lat":35.610541,"lng":139.666998},{"code":"13110023003","name":"自由が丘３丁目","lat":35.611001,"lng":139.6644},{"code":"13110024001","name":"中根１丁目","lat":35.615518,"lng":139.672655},{"code":"13110024002","name":"中根２丁目","lat":35.614273,"lng":139.675859},{"code":"13110025001","name":"柿の木坂１丁目","lat":35.621136,"lng":139.676942},{"code":"13110025002","name":"柿の木坂２丁目","lat":35.624956,"lng":139.675442},{"code":"13110025003","name":"柿の木坂３丁目","lat":35.627879,"lng":139.673497},{"code":"13110026001","name":"八雲１丁目","lat":35.619628,"lng":139.672822},{"code":"13110026002","name":"八雲２丁目","lat":35.618369,"lng":139.669867},{"code":"13110026003","name":"八雲３丁目","lat":35.616376,"lng":139.666379},{"code":"13110026004","name":"八雲４丁目","lat":35.623973,"lng":139.671182},{"code":"13110026005","name":"八雲５丁目","lat":35.622944,"lng":139.667316},{"code":"13110027001","name":"東が丘１丁目","lat":35.628725,"lng":139.668862},{"code":"13110027002","name":"東が丘２丁目","lat":35.627994,"lng":139.664816}]}
