{"municipality":"13209","name":"町田市","prefecture":"東京都","source":{"dataset":"frogcat/japan-small-area","census":"平成27年国勢調査 小地域（e-Stat 統計LOD）","license":"MIT（リポジトリ）／政府統計の総合窓口(e-Stat)の利用規約（元データ・出典表記必要）","fetched":"2026-07-06"},"towns":[{"code":"13209001081","name":"相原町","lat":35.608072,"lng":139.299036},{"code":"13209001090","name":"相原町","lat":35.611771,"lng":139.311361},{"code":"13209001091","name":"相原町","lat":35.611194,"lng":139.317775},{"code":"13209002001","name":"旭町１丁目","lat":35.554673,"lng":139.440212},{"code":"13209002002","name":"旭町２丁目","lat":35.557159,"lng":139.436517},{"code":"13209002003","name":"旭町３丁目","lat":35.557498,"lng":139.444098},{"code":"132090030","name":"大蔵町","lat":35.586314,"lng":139.466257},{"code":"132090040","name":"小川","lat":35.520024,"lng":139.472407},{"code":"13209004101","name":"小川１丁目","lat":35.528513,"lng":139.476502},{"code":"13209004102","name":"小川２丁目","lat":35.530262,"lng":139.471709},{"code":"13209004103","name":"小川３丁目","lat":35.526569,"lng":139.470436},{"code":"13209004104","name":"小川４丁目","lat":35.524992,"lng":139.47305},{"code":"132090050","name":"小野路町","lat":35.600746,"lng":139.441022},{"code":"13209006101","name":"小山田桜台１丁目","lat":35.58886,"lng":139.404207},{"code":"13209006102","name":"小山田桜台２丁目","lat":35.591035,"lng":139.400891},{"code":"13209007000","name":"小山町","lat":35.59657,"lng":139.371711},{"code":"13209007091","name":"小山町","lat":35.596133,"lng":139.377285},{"code":"13209008101","name":"金井１丁目","lat":35.575008,"lng":139.452458},{"code":"13209008104","name":"金井４丁目","lat":35.581767,"lng":139.465212},{"code":"13209008105","name":"金井５丁目","lat":35.577938,"lng":139.46169},{"code":"13209008106","name":"金井６丁目","lat":35.578002,"lng":139.464946},{"code":"13209008107","name":"金井７丁目","lat":35.573628,"lng":139.463646},{"code":"13209008108","name":"金井８丁目","lat":35.577026,"lng":139.46767},{"code":"13209008202","name":"金井２丁目","lat":35.574381,"lng":139.457481},{"code":"13209008203","name":"金井３丁目","lat":35.579612,"lng":139.458503},{"code":"13209008300","name":"金井町","lat":35.574371,"lng":139.465123},{"code":"13209008382","name":"金井町","lat":35.572674,"lng":139.450536},{"code":"13209009001","name":"金森１丁目","lat":35.535505,"lng":139.452258},{"code":"13209009002","name":"金森２丁目","lat":35.532462,"lng":139.458429},{"code":"13209009003","name":"金森３丁目","lat":35.527188,"lng":139.46146},{"code":"13209009004","name":"金森４丁目","lat":35.524013,"lng":139.464631},{"code":"13209009005","name":"金森５丁目","lat":35.520891,"lng":139.460262},{"code":"13209009006","name":"金森６丁目","lat":35.523268,"lng":139.458063},{"code":"13209009007","name":"金森７丁目","lat":35.531267,"lng":139.455708},{"code":"132090100","name":"上小山田町","lat":35.600793,"lng":139.397956},{"code":"13209011101","name":"木曽東１丁目","lat":35.557624,"lng":139.42902},{"code":"13209011102","name":"木曽東２丁目","lat":35.558718,"lng":139.423303},{"code":"13209011103","name":"木曽東３丁目","lat":35.562459,"lng":139.424567},{"code":"13209011104","name":"木曽東４丁目","lat":35.565169,"lng":139.429228},{"code":"13209011201","name":"木曽西１丁目","lat":35.564926,"lng":139.417363},{"code":"13209011204","name":"木曽西４丁目","lat":35.56737,"lng":139.420811},{"code":"13209011205","name":"木曽西５丁目","lat":35.569684,"lng":139.424986},{"code":"13209011390","name":"木曽町","lat":35.561178,"lng":139.429822},{"code":"13209011391","name":"木曽町","lat":35.559754,"lng":139.431261},{"code":"13209011402","name":"木曽西２丁目","lat":35.569239,"lng":139.414061},{"code":"13209011403","name":"木曽西３丁目","lat":35.571796,"lng":139.417952},{"code":"13209012001","name":"高ヶ坂１丁目","lat":35.546807,"lng":139.454478},{"code":"13209012002","name":"高ヶ坂２丁目","lat":35.542865,"lng":139.457336},{"code":"13209012003","name":"高ヶ坂３丁目","lat":35.546733,"lng":139.459654},{"code":"13209012004","name":"高ヶ坂４丁目","lat":35.547152,"lng":139.464753},{"code":"13209012005","name":"高ヶ坂５丁目","lat":35.543968,"lng":139.461469},{"code":"13209012006","name":"高ヶ坂６丁目","lat":35.541241,"lng":139.462689},{"code":"13209012007","name":"高ヶ坂７丁目","lat":35.538769,"lng":139.46122},{"code":"132090130","name":"下小山田町","lat":35.599544,"lng":139.414561},{"code":"13209014101","name":"真光寺１丁目","lat":35.603915,"lng":139.465509},{"code":"13209014102","name":"真光寺２丁目","lat":35.603463,"lng":139.468412},{"code":"13209014103","name":"真光寺３丁目","lat":35.598393,"lng":139.466841},{"code":"132090142","name":"真光寺町","lat":35.602433,"lng":139.459527},{"code":"132090150","name":"図師町","lat":35.586929,"lng":139.422948},{"code":"13209016101","name":"忠生１丁目","lat":35.574509,"lng":139.4215},{"code":"13209016102","name":"忠生２丁目","lat":35.577802,"lng":139.42345},{"code":"13209016103","name":"忠生３丁目","lat":35.577734,"lng":139.416308},{"code":"13209016104","name":"忠生４丁目","lat":35.580465,"lng":139.410222},{"code":"13209017001","name":"玉川学園１丁目","lat":35.558609,"lng":139.4587},{"code":"13209017002","name":"玉川学園２丁目","lat":35.562613,"lng":139.461105},{"code":"13209017003","name":"玉川学園３丁目","lat":35.562296,"lng":139.455652},{"code":"13209017004","name":"玉川学園４丁目","lat":35.565564,"lng":139.4563},{"code":"13209017005","name":"玉川学園５丁目","lat":35.5681,"lng":139.460318},{"code":"13209017006","name":"玉川学園６丁目","lat":35.568473,"lng":139.466759},{"code":"13209017007","name":"玉川学園７丁目","lat":35.562523,"lng":139.466303},{"code":"13209017008","name":"玉川学園８丁目","lat":35.55805,"lng":139.46401},{"code":"13209018101","name":"つくし野１丁目","lat":35.529203,"lng":139.482012},{"code":"13209018102","name":"つくし野２丁目","lat":35.525396,"lng":139.481081},{"code":"13209018103","name":"つくし野３丁目","lat":35.52123,"lng":139.48101},{"code":"13209018104","name":"つくし野４丁目","lat":35.524752,"lng":139.485418},{"code":"13209019001","name":"鶴川１丁目","lat":35.58714,"lng":139.477268},{"code":"13209019002","name":"鶴川２丁目","lat":35.588577,"lng":139.472577},{"code":"13209019003","name":"鶴川３丁目","lat":35.591459,"lng":139.463884},{"code":"13209019004","name":"鶴川４丁目","lat":35.595099,"lng":139.461665},{"code":"13209019005","name":"鶴川５丁目","lat":35.592941,"lng":139.468588},{"code":"13209019006","name":"鶴川６丁目","lat":35.591379,"lng":139.473763},{"code":"132090200","name":"鶴間","lat":35.511301,"lng":139.471864},{"code":"13209020101","name":"鶴間１丁目","lat":35.512216,"lng":139.467401},{"code":"13209020102","name":"鶴間２丁目","lat":35.508306,"lng":139.467688},{"code":"13209020103","name":"鶴間３丁目","lat":35.509503,"lng":139.470629},{"code":"132090210","name":"常盤町","lat":35.586376,"lng":139.398791},{"code":"13209022001","name":"中町１丁目","lat":35.548427,"lng":139.445991},{"code":"13209022002","name":"中町２丁目","lat":35.551777,"lng":139.443162},{"code":"13209022003","name":"中町３丁目","lat":35.550938,"lng":139.449702},{"code":"13209022004","name":"中町４丁目","lat":35.554178,"lng":139.447218},{"code":"13209023104","name":"成瀬４丁目","lat":35.543627,"lng":139.478201},{"code":"13209023105","name":"成瀬５丁目","lat":35.539459,"lng":139.481284},{"code":"13209023106","name":"成瀬６丁目","lat":35.537577,"lng":139.480936},{"code":"13209023107","name":"成瀬７丁目","lat":35.541179,"lng":139.475355},{"code":"13209023108","name":"成瀬８丁目","lat":35.542162,"lng":139.467597},{"code":"13209023201","name":"成瀬１丁目","lat":35.546995,"lng":139.474408},{"code":"13209023202","name":"成瀬２丁目","lat":35.546865,"lng":139.477445},{"code":"13209023203","name":"成瀬３丁目","lat":35.547636,"lng":139.480768},{"code":"13209024101","name":"成瀬が丘１丁目","lat":35.532299,"lng":139.47468},{"code":"13209024102","name":"成瀬が丘２丁目","lat":35.534287,"lng":139.471541},{"code":"13209024103","name":"成瀬が丘３丁目","lat":35.535031,"lng":139.467822},{"code":"13209025101","name":"成瀬台１丁目","lat":35.551411,"lng":139.47421},{"code":"13209025102","name":"成瀬台２丁目","lat":35.551825,"lng":139.479101},{"code":"13209025103","name":"成瀬台３丁目","lat":35.555781,"lng":139.477731},{"code":"13209025104","name":"成瀬台４丁目","lat":35.559297,"lng":139.47679},{"code":"13209026101","name":"根岸１丁目","lat":35.573127,"lng":139.411417},{"code":"13209026102","name":"根岸２丁目","lat":35.575472,"lng":139.413347},{"code":"132090262","name":"根岸町","lat":35.577768,"lng":139.407891},{"code":"13209027001","name":"能ケ谷１丁目","lat":35.582888,"lng":139.480866},{"code":"13209027002","name":"能ケ谷２丁目","lat":35.585202,"lng":139.479909},{"code":"13209027003","name":"能ケ谷３丁目","lat":35.584934,"lng":139.489768},{"code":"13209027004","name":"能ケ谷４丁目","lat":35.586469,"lng":139.485603},{"code":"13209027005","name":"能ケ谷５丁目","lat":35.587746,"lng":139.49067},{"code":"13209027006","name":"能ケ谷６丁目","lat":35.589444,"lng":139.48401},{"code":"13209027007","name":"能ケ谷７丁目","lat":35.592128,"lng":139.480604},{"code":"132090280","name":"野津田町","lat":35.586848,"lng":139.446285},{"code":"13209029001","name":"原町田１丁目","lat":35.53907,"lng":139.448647},{"code":"13209029002","name":"原町田２丁目","lat":35.539319,"lng":139.454457},{"code":"13209029003","name":"原町田３丁目","lat":35.541644,"lng":139.452626},{"code":"13209029004","name":"原町田４丁目","lat":35.543379,"lng":139.451577},{"code":"13209029005","name":"原町田５丁目","lat":35.546176,"lng":139.450394},{"code":"13209029006","name":"原町田６丁目","lat":35.543852,"lng":139.447139},{"code":"13209030001","name":"東玉川学園１丁目","lat":35.558753,"lng":139.471533},{"code":"13209030002","name":"東玉川学園２丁目","lat":35.555388,"lng":139.472686},{"code":"13209030003","name":"東玉川学園３丁目","lat":35.553941,"lng":139.469941},{"code":"13209030004","name":"東玉川学園４丁目","lat":35.557512,"lng":139.468154},{"code":"13209031101","name":"広袴１丁目","lat":35.594682,"lng":139.466022},{"code":"13209031102","name":"広袴２丁目","lat":35.596085,"lng":139.470061},{"code":"13209031103","name":"広袴３丁目","lat":35.59792,"lng":139.473731},{"code":"13209031104","name":"広袴４丁目","lat":35.597105,"lng":139.476457},{"code":"132090312","name":"広袴町","lat":35.595035,"lng":139.476527},{"code":"13209032081","name":"本町田","lat":35.5664,"lng":139.437146},{"code":"13209032082","name":"本町田","lat":35.569895,"lng":139.449857},{"code":"13209032083","name":"本町田","lat":35.558304,"lng":139.452989},{"code":"13209032090","name":"本町田","lat":35.567387,"lng":139.442756},{"code":"13209032091","name":"本町田","lat":35.56204,"lng":139.444657},{"code":"13209033000","name":"南大谷","lat":35.552624,"lng":139.458946},{"code":"13209033083","name":"南大谷","lat":35.555778,"lng":139.453572},{"code":"13209034101","name":"南つくし野１丁目","lat":35.521175,"lng":139.474818},{"code":"13209034102","name":"南つくし野２丁目","lat":35.515591,"lng":139.477606},{"code":"13209034103","name":"南つくし野３丁目","lat":35.518003,"lng":139.4801},{"code":"13209034104","name":"南つくし野４丁目","lat":35.522487,"lng":139.476917},{"code":"13209035101","name":"南成瀬１丁目","lat":35.537406,"lng":139.471626},{"code":"13209035102","name":"南成瀬２丁目","lat":35.539255,"lng":139.46739},{"code":"13209035103","name":"南成瀬３丁目","lat":35.540374,"lng":139.471529},{"code":"13209035104","name":"南成瀬４丁目","lat":35.538574,"lng":139.475565},{"code":"13209035105","name":"南成瀬５丁目","lat":35.535639,"lng":139.47751},{"code":"13209035106","name":"南成瀬６丁目","lat":35.533075,"lng":139.477758},{"code":"13209035107","name":"南成瀬７丁目","lat":35.534216,"lng":139.481537},{"code":"13209035108","name":"南成瀬８丁目","lat":35.533324,"lng":139.484146},{"code":"132090360","name":"三輪町","lat":35.57353,"lng":139.495807},{"code":"13209037101","name":"三輪緑山１丁目","lat":35.57162,"lng":139.490835},{"code":"13209037102","name":"三輪緑山２丁目","lat":35.570609,"lng":139.486003},{"code":"13209037103","name":"三輪緑山３丁目","lat":35.574354,"lng":139.486763},{"code":"13209037104","name":"三輪緑山４丁目","lat":35.577,"lng":139.492935},{"code":"13209038001","name":"森野１丁目","lat":35.544871,"lng":139.442623},{"code":"13209038002","name":"森野２丁目","lat":35.548197,"lng":139.439624},{"code":"13209038003","name":"森野３丁目","lat":35.552613,"lng":139.436966},{"code":"13209038004","name":"森野４丁目","lat":35.554584,"lng":139.433002},{"code":"13209038005","name":"森野５丁目","lat":35.549188,"lng":139.434877},{"code":"13209038006","name":"森野６丁目","lat":35.551908,"lng":139.430266},{"code":"13209039101","name":"薬師台１丁目","lat":35.578137,"lng":139.452725},{"code":"13209039102","name":"薬師台２丁目","lat":35.579761,"lng":139.452988},{"code":"13209039103","name":"薬師台３丁目","lat":35.581602,"lng":139.455134},{"code":"13209040000","name":"矢部町","lat":35.579893,"lng":139.403007},{"code":"13209040090","name":"矢部町","lat":35.576842,"lng":139.404637},{"code":"132090411","name":"山崎","lat":35.569036,"lng":139.428829},{"code":"13209041281","name":"山崎町","lat":35.571483,"lng":139.43466},{"code":"13209041282","name":"山崎町","lat":35.58216,"lng":139.433495},{"code":"13209041290","name":"山崎町","lat":35.577441,"lng":139.434575},{"code":"13209041291","name":"山崎町","lat":35.575524,"lng":139.432863},{"code":"13209042001","name":"小山ヶ丘１丁目","lat":35.59708,"lng":139.384712},{"code":"13209042002","name":"小山ヶ丘２丁目","lat":35.602934,"lng":139.374936},{"code":"13209042003","name":"小山ヶ丘３丁目","lat":35.600791,"lng":139.373073},{"code":"13209042004","name":"小山ヶ丘４丁目","lat":35.605752,"lng":139.36225},{"code":"13209042005","name":"小山ヶ丘５丁目","lat":35.60402,"lng":139.357925},{"code":"13209042006","name":"小山ヶ丘６丁目","lat":35.607905,"lng":139.347873},{"code":"13209043001","name":"金森東１丁目","lat":35.535829,"lng":139.461182},{"code":"13209043002","name":"金森東２丁目","lat":35.533117,"lng":139.462811},{"code":"13209043003","name":"金森東３丁目","lat":35.531185,"lng":139.465477},{"code":"13209043004","name":"金森東４丁目","lat":35.528158,"lng":139.467176},{"code":"13209044001","name":"西成瀬１丁目","lat":35.545211,"lng":139.467118},{"code":"13209044002","name":"西成瀬２丁目","lat":35.546233,"lng":139.471133},{"code":"13209044003","name":"西成瀬３丁目","lat":35.550496,"lng":139.46883}]}
