{"municipality":"13208","name":"調布市","prefecture":"東京都","source":{"dataset":"frogcat/japan-small-area","census":"平成27年国勢調査 小地域（e-Stat 統計LOD）","license":"MIT（リポジトリ）／政府統計の総合窓口(e-Stat)の利用規約（元データ・出典表記必要）","fetched":"2026-07-06"},"towns":[{"code":"13208001001","name":"飛田給１丁目","lat":35.661793,"lng":139.524106},{"code":"13208001002","name":"飛田給２丁目","lat":35.658735,"lng":139.52257},{"code":"13208001003","name":"飛田給３丁目","lat":35.655918,"lng":139.520674},{"code":"13208002001","name":"上石原１丁目","lat":35.659251,"lng":139.530309},{"code":"13208002002","name":"上石原２丁目","lat":35.6558,"lng":139.527932},{"code":"13208002003","name":"上石原３丁目","lat":35.651814,"lng":139.523956},{"code":"13208003001","name":"富士見町１丁目","lat":35.660501,"lng":139.535594},{"code":"13208003002","name":"富士見町２丁目","lat":35.658667,"lng":139.540402},{"code":"13208003003","name":"富士見町３丁目","lat":35.662585,"lng":139.540432},{"code":"13208003004","name":"富士見町４丁目","lat":35.665345,"lng":139.535719},{"code":"13208004001","name":"下石原１丁目","lat":35.656492,"lng":139.53592},{"code":"13208004002","name":"下石原２丁目","lat":35.653797,"lng":139.534473},{"code":"13208004003","name":"下石原３丁目","lat":35.651195,"lng":139.532842},{"code":"13208005001","name":"小島町１丁目","lat":35.65442,"lng":139.541656},{"code":"13208005002","name":"小島町２丁目","lat":35.651329,"lng":139.540587},{"code":"13208005003","name":"小島町３丁目","lat":35.64781,"lng":139.538859},{"code":"13208006001","name":"布田１丁目","lat":35.653285,"lng":139.545715},{"code":"13208006002","name":"布田２丁目","lat":35.652248,"lng":139.5492},{"code":"13208006003","name":"布田３丁目","lat":35.648857,"lng":139.548501},{"code":"13208006004","name":"布田４丁目","lat":35.649893,"lng":139.544898},{"code":"13208006005","name":"布田５丁目","lat":35.64601,"lng":139.54358},{"code":"13208006006","name":"布田６丁目","lat":35.645376,"lng":139.548047},{"code":"132080070","name":"下布田","lat":35.63922,"lng":139.542565},{"code":"13208008001","name":"国領町１丁目","lat":35.651347,"lng":139.554051},{"code":"13208008002","name":"国領町２丁目","lat":35.651782,"lng":139.559458},{"code":"13208008003","name":"国領町３丁目","lat":35.649844,"lng":139.561072},{"code":"13208008004","name":"国領町４丁目","lat":35.647243,"lng":139.558177},{"code":"13208008005","name":"国領町５丁目","lat":35.647726,"lng":139.553307},{"code":"13208008006","name":"国領町６丁目","lat":35.644879,"lng":139.553489},{"code":"13208008007","name":"国領町７丁目","lat":35.644019,"lng":139.560564},{"code":"13208008008","name":"国領町８丁目","lat":35.647928,"lng":139.564843},{"code":"13208009001","name":"染地１丁目","lat":35.642278,"lng":139.547486},{"code":"13208009002","name":"染地２丁目","lat":35.640497,"lng":139.551992},{"code":"13208009003","name":"染地３丁目","lat":35.639378,"lng":139.559156},{"code":"13208010001","name":"多摩川１丁目","lat":35.64996,"lng":139.529243},{"code":"13208010002","name":"多摩川２丁目","lat":35.647456,"lng":139.526714},{"code":"13208010003","name":"多摩川３丁目","lat":35.64581,"lng":139.531003},{"code":"13208010004","name":"多摩川４丁目","lat":35.644127,"lng":139.534191},{"code":"13208010005","name":"多摩川５丁目","lat":35.643569,"lng":139.537341},{"code":"13208010006","name":"多摩川６丁目","lat":35.643462,"lng":139.541765},{"code":"13208010007","name":"多摩川７丁目","lat":35.641391,"lng":139.541715},{"code":"13208011001","name":"佐須町１丁目","lat":35.661569,"lng":139.551561},{"code":"13208011002","name":"佐須町２丁目","lat":35.659927,"lng":139.55403},{"code":"13208011003","name":"佐須町３丁目","lat":35.657029,"lng":139.553982},{"code":"13208011004","name":"佐須町４丁目","lat":35.657921,"lng":139.558198},{"code":"13208011005","name":"佐須町５丁目","lat":35.661481,"lng":139.560423},{"code":"13208012001","name":"柴崎１丁目","lat":35.657001,"lng":139.562767},{"code":"13208012002","name":"柴崎２丁目","lat":35.662255,"lng":139.564678},{"code":"13208013001","name":"菊野台１丁目","lat":35.655623,"lng":139.566336},{"code":"13208013002","name":"菊野台２丁目","lat":35.651729,"lng":139.56659},{"code":"13208013003","name":"菊野台３丁目","lat":35.652502,"lng":139.570559},{"code":"13208014001","name":"東つつじケ丘１丁目","lat":35.660077,"lng":139.57774},{"code":"13208014002","name":"東つつじケ丘２丁目","lat":35.657127,"lng":139.57797},{"code":"13208014003","name":"東つつじケ丘３丁目","lat":35.653001,"lng":139.580439},{"code":"13208015001","name":"西つつじケ丘１丁目","lat":35.66066,"lng":139.569272},{"code":"13208015002","name":"西つつじケ丘２丁目","lat":35.661842,"lng":139.572906},{"code":"13208015003","name":"西つつじケ丘３丁目","lat":35.657583,"lng":139.572026},{"code":"13208015004","name":"西つつじケ丘４丁目","lat":35.653148,"lng":139.575809},{"code":"13208016001","name":"入間町１丁目","lat":35.65277,"lng":139.589274},{"code":"13208016002","name":"入間町２丁目","lat":35.649084,"lng":139.584854},{"code":"13208016003","name":"入間町３丁目","lat":35.647488,"lng":139.590126},{"code":"13208017001","name":"仙川町１丁目","lat":35.660958,"lng":139.586429},{"code":"13208017002","name":"仙川町２丁目","lat":35.662746,"lng":139.581228},{"code":"13208017003","name":"仙川町３丁目","lat":35.664477,"lng":139.585258},{"code":"13208018001","name":"緑ケ丘１丁目","lat":35.669132,"lng":139.580112},{"code":"13208018002","name":"緑ケ丘２丁目","lat":35.66812,"lng":139.585885},{"code":"13208019001","name":"野水１丁目","lat":35.682066,"lng":139.524336},{"code":"13208019002","name":"野水２丁目","lat":35.685918,"lng":139.52441},{"code":"132080200","name":"西町","lat":35.668077,"lng":139.528108},{"code":"13208021001","name":"若葉町１丁目","lat":35.658108,"lng":139.582729},{"code":"13208021002","name":"若葉町２丁目","lat":35.657118,"lng":139.588175},{"code":"13208021003","name":"若葉町３丁目","lat":35.654332,"lng":139.584159},{"code":"13208022001","name":"調布ケ丘１丁目","lat":35.657166,"lng":139.54514},{"code":"13208022002","name":"調布ケ丘２丁目","lat":35.655193,"lng":139.549702},{"code":"13208022003","name":"調布ケ丘３丁目","lat":35.659031,"lng":139.54908},{"code":"13208022004","name":"調布ケ丘４丁目","lat":35.661388,"lng":139.544735},{"code":"13208023001","name":"深大寺元町１丁目","lat":35.663588,"lng":139.54532},{"code":"13208023002","name":"深大寺元町２丁目","lat":35.664397,"lng":139.550218},{"code":"13208023003","name":"深大寺元町３丁目","lat":35.665928,"lng":139.546272},{"code":"13208023004","name":"深大寺元町４丁目","lat":35.670028,"lng":139.543256},{"code":"13208023005","name":"深大寺元町５丁目","lat":35.669366,"lng":139.549396},{"code":"13208024001","name":"深大寺北町１丁目","lat":35.674193,"lng":139.54751},{"code":"13208024002","name":"深大寺北町２丁目","lat":35.67318,"lng":139.552463},{"code":"13208024003","name":"深大寺北町３丁目","lat":35.676552,"lng":139.549743},{"code":"13208024004","name":"深大寺北町４丁目","lat":35.67942,"lng":139.552985},{"code":"13208024005","name":"深大寺北町５丁目","lat":35.678907,"lng":139.550012},{"code":"13208024006","name":"深大寺北町６丁目","lat":35.679099,"lng":139.545413},{"code":"13208024007","name":"深大寺北町７丁目","lat":35.674727,"lng":139.543873},{"code":"13208025001","name":"深大寺東町１丁目","lat":35.670277,"lng":139.5579},{"code":"13208025002","name":"深大寺東町２丁目","lat":35.667856,"lng":139.560771},{"code":"13208025003","name":"深大寺東町３丁目","lat":35.667756,"lng":139.563785},{"code":"13208025004","name":"深大寺東町４丁目","lat":35.671765,"lng":139.56184},{"code":"13208025005","name":"深大寺東町５丁目","lat":35.673549,"lng":139.555949},{"code":"13208025006","name":"深大寺東町６丁目","lat":35.675218,"lng":139.557772},{"code":"13208025007","name":"深大寺東町７丁目","lat":35.678326,"lng":139.560041},{"code":"13208025008","name":"深大寺東町８丁目","lat":35.680247,"lng":139.555757},{"code":"13208026001","name":"深大寺南町１丁目","lat":35.662291,"lng":139.555392},{"code":"13208026002","name":"深大寺南町２丁目","lat":35.662251,"lng":139.557885},{"code":"13208026003","name":"深大寺南町３丁目","lat":35.664422,"lng":139.560649},{"code":"13208026004","name":"深大寺南町４丁目","lat":35.6652,"lng":139.555681},{"code":"13208026005","name":"深大寺南町５丁目","lat":35.667376,"lng":139.557219},{"code":"13208027001","name":"八雲台１丁目","lat":35.65446,"lng":139.554131},{"code":"13208027002","name":"八雲台２丁目","lat":35.653711,"lng":139.559059}]}
