{"municipality":"13219","name":"狛江市","prefecture":"東京都","source":{"dataset":"frogcat/japan-small-area","census":"平成27年国勢調査 小地域（e-Stat 統計LOD）","license":"MIT（リポジトリ）／政府統計の総合窓口(e-Stat)の利用規約（元データ・出典表記必要）","fetched":"2026-07-06"},"towns":[{"code":"13219001001","name":"和泉本町１丁目","lat":35.637412,"lng":139.577595},{"code":"13219001002","name":"和泉本町２丁目","lat":35.641335,"lng":139.578454},{"code":"13219001003","name":"和泉本町３丁目","lat":35.641211,"lng":139.573922},{"code":"13219001004","name":"和泉本町４丁目","lat":35.643839,"lng":139.568868},{"code":"13219002001","name":"中和泉１丁目","lat":35.634877,"lng":139.575218},{"code":"13219002002","name":"中和泉２丁目","lat":35.638134,"lng":139.571551},{"code":"13219002003","name":"中和泉３丁目","lat":35.635239,"lng":139.569908},{"code":"13219002004","name":"中和泉４丁目","lat":35.636284,"lng":139.565993},{"code":"13219002005","name":"中和泉５丁目","lat":35.641325,"lng":139.566735},{"code":"13219003001","name":"西和泉１丁目","lat":35.639689,"lng":139.564385},{"code":"13219003002","name":"西和泉２丁目","lat":35.637042,"lng":139.56393},{"code":"13219004001","name":"元和泉１丁目","lat":35.63181,"lng":139.575392},{"code":"13219004002","name":"元和泉２丁目","lat":35.631912,"lng":139.570125},{"code":"13219004003","name":"元和泉３丁目","lat":35.628884,"lng":139.570694},{"code":"13219005001","name":"東和泉１丁目","lat":35.631432,"lng":139.578836},{"code":"13219005002","name":"東和泉２丁目","lat":35.62965,"lng":139.579404},{"code":"13219005003","name":"東和泉３丁目","lat":35.626565,"lng":139.574278},{"code":"13219005004","name":"東和泉４丁目","lat":35.62684,"lng":139.572523},{"code":"13219006001","name":"猪方１丁目","lat":35.628317,"lng":139.582539},{"code":"13219006002","name":"猪方２丁目","lat":35.626219,"lng":139.582244},{"code":"13219006003","name":"猪方３丁目","lat":35.626067,"lng":139.577897},{"code":"13219006004","name":"猪方４丁目","lat":35.626646,"lng":139.572557},{"code":"13219007001","name":"駒井町１丁目","lat":35.62528,"lng":139.585286},{"code":"13219007002","name":"駒井町２丁目","lat":35.624871,"lng":139.588034},{"code":"13219007003","name":"駒井町３丁目","lat":35.622269,"lng":139.586116},{"code":"13219008001","name":"岩戸南１丁目","lat":35.63067,"lng":139.583967},{"code":"13219008002","name":"岩戸南２丁目","lat":35.630452,"lng":139.587098},{"code":"13219008003","name":"岩戸南３丁目","lat":35.629755,"lng":139.59078},{"code":"13219008004","name":"岩戸南４丁目","lat":35.626202,"lng":139.590676},{"code":"13219009001","name":"岩戸北１丁目","lat":35.636275,"lng":139.581721},{"code":"13219009002","name":"岩戸北２丁目","lat":35.638196,"lng":139.583538},{"code":"13219009003","name":"岩戸北３丁目","lat":35.633784,"lng":139.583362},{"code":"13219009004","name":"岩戸北４丁目","lat":35.634239,"lng":139.587406},{"code":"13219010001","name":"東野川１丁目","lat":35.641777,"lng":139.58217},{"code":"13219010002","name":"東野川２丁目","lat":35.644635,"lng":139.579102},{"code":"13219010003","name":"東野川３丁目","lat":35.646801,"lng":139.581975},{"code":"13219010004","name":"東野川４丁目","lat":35.644303,"lng":139.584701},{"code":"13219011001","name":"西野川１丁目","lat":35.647373,"lng":139.577139},{"code":"13219011002","name":"西野川２丁目","lat":35.646598,"lng":139.574714},{"code":"13219011003","name":"西野川３丁目","lat":35.645189,"lng":139.570842},{"code":"13219011004","name":"西野川４丁目","lat":35.648035,"lng":139.571787}]}
