{"municipality":"13227","name":"羽村市","prefecture":"東京都","source":{"dataset":"frogcat/japan-small-area","census":"平成27年国勢調査 小地域（e-Stat 統計LOD）","license":"MIT（リポジトリ）／政府統計の総合窓口(e-Stat)の利用規約（元データ・出典表記必要）","fetched":"2026-07-06"},"towns":[{"code":"13227001000","name":"川崎","lat":35.754451,"lng":139.337687},{"code":"13227001001","name":"川崎１丁目","lat":35.754703,"lng":139.317273},{"code":"13227001002","name":"川崎２丁目","lat":35.751902,"lng":139.319459},{"code":"13227001003","name":"川崎３丁目","lat":35.750855,"lng":139.316714},{"code":"13227001004","name":"川崎４丁目","lat":35.753032,"lng":139.315054},{"code":"13227002000","name":"五ノ神","lat":35.769786,"lng":139.331311},{"code":"13227002001","name":"五ノ神１丁目","lat":35.758428,"lng":139.318129},{"code":"13227002002","name":"五ノ神２丁目","lat":35.760871,"lng":139.321096},{"code":"13227002003","name":"五ノ神３丁目","lat":35.762921,"lng":139.319609},{"code":"13227002004","name":"五ノ神４丁目","lat":35.76063,"lng":139.316523},{"code":"132270040","name":"羽","lat":35.763011,"lng":139.32666},{"code":"13227008001","name":"小作台１丁目","lat":35.777214,"lng":139.302915},{"code":"13227008002","name":"小作台２丁目","lat":35.779342,"lng":139.299126},{"code":"13227008003","name":"小作台３丁目","lat":35.776923,"lng":139.298546},{"code":"13227008004","name":"小作台４丁目","lat":35.775016,"lng":139.297095},{"code":"13227008005","name":"小作台５丁目","lat":35.77369,"lng":139.302268},{"code":"13227009001","name":"双葉町１丁目","lat":35.762422,"lng":139.331177},{"code":"13227009002","name":"双葉町２丁目","lat":35.759051,"lng":139.333885},{"code":"13227009003","name":"双葉町３丁目","lat":35.756167,"lng":139.33512},{"code":"13227010001","name":"神明台１丁目","lat":35.755129,"lng":139.320745},{"code":"13227010002","name":"神明台２丁目","lat":35.756879,"lng":139.32461},{"code":"13227010003","name":"神明台３丁目","lat":35.761112,"lng":139.327782},{"code":"13227010004","name":"神明台４丁目","lat":35.756199,"lng":139.330287},{"code":"13227011001","name":"栄町１丁目","lat":35.774994,"lng":139.30692},{"code":"13227011002","name":"栄町２丁目","lat":35.77119,"lng":139.309865},{"code":"13227011003","name":"栄町３丁目","lat":35.775049,"lng":139.315003},{"code":"13227012001","name":"緑ケ丘１丁目","lat":35.763474,"lng":139.314634},{"code":"13227012002","name":"緑ケ丘２丁目","lat":35.765554,"lng":139.317724},{"code":"13227012003","name":"緑ケ丘３丁目","lat":35.771038,"lng":139.321929},{"code":"13227012004","name":"緑ケ丘４丁目","lat":35.768824,"lng":139.315326},{"code":"13227012005","name":"緑ケ丘５丁目","lat":35.766698,"lng":139.312032},{"code":"13227013001","name":"玉川１丁目","lat":35.753622,"lng":139.311336},{"code":"13227013002","name":"玉川２丁目","lat":35.750007,"lng":139.314559},{"code":"13227014001","name":"富士見平１丁目","lat":35.765533,"lng":139.324603},{"code":"13227014002","name":"富士見平２丁目","lat":35.763579,"lng":139.326135},{"code":"13227014003","name":"富士見平３丁目","lat":35.766278,"lng":139.329019},{"code":"13227015001","name":"羽東１丁目","lat":35.759526,"lng":139.313407},{"code":"13227015002","name":"羽東２丁目","lat":35.75725,"lng":139.312335},{"code":"13227015003","name":"羽東３丁目","lat":35.756847,"lng":139.310245},{"code":"13227016001","name":"羽中１丁目","lat":35.764749,"lng":139.309858},{"code":"13227016002","name":"羽中２丁目","lat":35.764242,"lng":139.307368},{"code":"13227016003","name":"羽中３丁目","lat":35.761556,"lng":139.306121},{"code":"13227016004","name":"羽中４丁目","lat":35.759055,"lng":139.304651},{"code":"13227017001","name":"羽加美１丁目","lat":35.769282,"lng":139.305831},{"code":"13227017002","name":"羽加美２丁目","lat":35.766828,"lng":139.303856},{"code":"13227017003","name":"羽加美３丁目","lat":35.765939,"lng":139.301759},{"code":"13227017004","name":"羽加美４丁目","lat":35.76224,"lng":139.30011},{"code":"13227018001","name":"羽西１丁目","lat":35.77066,"lng":139.300351},{"code":"13227018002","name":"羽西２丁目","lat":35.769354,"lng":139.29772},{"code":"13227018003","name":"羽西３丁目","lat":35.773962,"lng":139.294602},{"code":"132270190","name":"多摩川","lat":35.757951,"lng":139.302708}]}
