{"municipality":"13303","name":"西多摩郡瑞穂町","prefecture":"東京都","source":{"dataset":"frogcat/japan-small-area","census":"平成27年国勢調査 小地域（e-Stat 統計LOD）","license":"MIT（リポジトリ）／政府統計の総合窓口(e-Stat)の利用規約（元データ・出典表記必要）","fetched":"2026-07-06"},"towns":[{"code":"133030010","name":"大字殿ケ谷","lat":35.76319,"lng":139.359741},{"code":"133030020","name":"大字石畑","lat":35.773819,"lng":139.366631},{"code":"13303003001","name":"大字箱根ヶ崎","lat":35.774628,"lng":139.347395},{"code":"13303003002","name":"大字箱根ヶ崎","lat":35.78539,"lng":139.337689},{"code":"133030040","name":"大字長岡下師岡","lat":35.78365,"lng":139.323567},{"code":"133030050","name":"大字長岡長谷部","lat":35.784535,"lng":139.329276},{"code":"133030060","name":"大字二本木","lat":35.790736,"lng":139.354208},{"code":"133030070","name":"大字駒形富士山","lat":35.785087,"lng":139.357237},{"code":"133030080","name":"大字高根","lat":35.782865,"lng":139.359638},{"code":"133030090","name":"大字富士山栗原新田","lat":35.789122,"lng":139.342883},{"code":"133030100","name":"大字武蔵","lat":35.763496,"lng":139.351837},{"code":"133030110","name":"大字長岡藤橋","lat":35.787784,"lng":139.321235},{"code":"133030120","name":"箱根ヶ崎東松原","lat":35.77261,"lng":139.339382},{"code":"133030130","name":"箱根ヶ崎西松原","lat":35.770265,"lng":139.335438},{"code":"13303014001","name":"南平一丁目","lat":35.767988,"lng":139.341114},{"code":"13303014002","name":"南平二丁目","lat":35.765461,"lng":139.338188},{"code":"13303015001","name":"長岡一丁目","lat":35.776024,"lng":139.333201},{"code":"13303015002","name":"長岡二丁目","lat":35.77365,"lng":139.329827},{"code":"13303015003","name":"長岡三丁目","lat":35.776107,"lng":139.32485},{"code":"13303015004","name":"長岡四丁目","lat":35.778684,"lng":139.326927},{"code":"13303016001","name":"むさし野一丁目","lat":35.762056,"lng":139.338839},{"code":"13303016002","name":"むさし野二丁目","lat":35.759159,"lng":139.338806},{"code":"13303016003","name":"むさし野三丁目","lat":35.759074,"lng":139.341959},{"code":"133030170","name":"横田基地","lat":35.754266,"lng":139.347739}]}
