{"municipality":"14115","name":"横浜市栄区","prefecture":"神奈川県","source":{"dataset":"frogcat/japan-small-area","census":"平成27年国勢調査 小地域（e-Stat 統計LOD）","license":"MIT（リポジトリ）／政府統計の総合窓口(e-Stat)の利用規約（元データ・出典表記必要）","fetched":"2026-07-06"},"towns":[{"code":"14115001001","name":"上郷町","lat":35.363391,"lng":139.569831},{"code":"14115001002","name":"上郷町","lat":35.348184,"lng":139.571166},{"code":"14115001003","name":"上郷町","lat":35.350726,"lng":139.581017},{"code":"14115002001","name":"公田町","lat":35.359854,"lng":139.556215},{"code":"14115002002","name":"公田町","lat":35.358659,"lng":139.559998},{"code":"14115002003","name":"公田町","lat":35.349432,"lng":139.561397},{"code":"14115002004","name":"公田町","lat":35.356039,"lng":139.553011},{"code":"141150030","name":"中野町","lat":35.363027,"lng":139.562735},{"code":"141150040","name":"鍛冶ケ谷町","lat":35.372934,"lng":139.558613},{"code":"14115005101","name":"小菅ケ谷一丁目","lat":35.365943,"lng":139.54771},{"code":"14115005102","name":"小菅ケ谷二丁目","lat":35.367017,"lng":139.544408},{"code":"14115005103","name":"小菅ケ谷三丁目","lat":35.371648,"lng":139.554045},{"code":"14115005104","name":"小菅ケ谷四丁目","lat":35.378342,"lng":139.553122},{"code":"14115005201","name":"小山台一丁目","lat":35.379328,"lng":139.558061},{"code":"14115005202","name":"小山台二丁目","lat":35.376417,"lng":139.556638},{"code":"141150053","name":"小菅ケ谷町","lat":35.369054,"lng":139.547655},{"code":"141150060","name":"桂町","lat":35.363516,"lng":139.551637},{"code":"141150070","name":"笠間町","lat":35.363684,"lng":139.537577},{"code":"14115007101","name":"笠間一丁目","lat":35.356875,"lng":139.531624},{"code":"14115007102","name":"笠間二丁目","lat":35.357767,"lng":139.536364},{"code":"14115007103","name":"笠間三丁目","lat":35.360892,"lng":139.533552},{"code":"14115007104","name":"笠間四丁目","lat":35.363433,"lng":139.534101},{"code":"14115007105","name":"笠間五丁目","lat":35.359728,"lng":139.541374},{"code":"141150080","name":"長尾台町","lat":35.361533,"lng":139.527084},{"code":"141150090","name":"田谷町","lat":35.367625,"lng":139.522461},{"code":"141150100","name":"金井町","lat":35.375644,"lng":139.525348},{"code":"14115011001","name":"飯島町","lat":35.372021,"lng":139.533821},{"code":"14115011002","name":"飯島町","lat":35.369781,"lng":139.538992},{"code":"141150120","name":"長沼町","lat":35.378768,"lng":139.536716},{"code":"14115013001","name":"本郷台一丁目","lat":35.371805,"lng":139.54824},{"code":"14115013002","name":"本郷台二丁目","lat":35.37083,"lng":139.545141},{"code":"14115013003","name":"本郷台三丁目","lat":35.375441,"lng":139.545389},{"code":"14115013004","name":"本郷台四丁目","lat":35.376218,"lng":139.548799},{"code":"14115013005","name":"本郷台五丁目","lat":35.381241,"lng":139.55132},{"code":"141150180","name":"若竹町","lat":35.367796,"lng":139.570456},{"code":"14115019001","name":"元大橋一丁目","lat":35.370839,"lng":139.568591},{"code":"14115019002","name":"元大橋二丁目","lat":35.367687,"lng":139.567057},{"code":"14115021001","name":"庄戸一丁目","lat":35.354739,"lng":139.583778},{"code":"14115021002","name":"庄戸二丁目","lat":35.355273,"lng":139.587914},{"code":"14115021003","name":"庄戸三丁目","lat":35.352268,"lng":139.587853},{"code":"14115021004","name":"庄戸四丁目","lat":35.35161,"lng":139.582299},{"code":"14115021005","name":"庄戸五丁目","lat":35.349095,"lng":139.58629},{"code":"141150260","name":"長倉町","lat":35.347107,"lng":139.583153},{"code":"141150270","name":"東上郷町","lat":35.359069,"lng":139.58306},{"code":"141150280","name":"犬山町","lat":35.354901,"lng":139.573134},{"code":"141150290","name":"尾月","lat":35.360643,"lng":139.572019},{"code":"141150300","name":"上之町","lat":35.355968,"lng":139.576518},{"code":"141150310","name":"亀井町","lat":35.360233,"lng":139.568383},{"code":"14115032001","name":"野七里一丁目","lat":35.348962,"lng":139.577625},{"code":"14115032002","name":"野七里二丁目","lat":35.344571,"lng":139.57965},{"code":"141150340","name":"柏陽","lat":35.366721,"lng":139.55524},{"code":"14115035001","name":"鍛冶ケ谷一丁目","lat":35.367739,"lng":139.563261},{"code":"14115035002","name":"鍛冶ケ谷ニ丁目","lat":35.369488,"lng":139.561015},{"code":"141150360","name":"桂台北","lat":35.357252,"lng":139.565697},{"code":"141150370","name":"桂台中","lat":35.354197,"lng":139.566036},{"code":"14115038001","name":"桂台西一丁目","lat":35.357793,"lng":139.561399},{"code":"14115038002","name":"桂台西二丁目","lat":35.354108,"lng":139.561896},{"code":"141150390","name":"桂台東","lat":35.355633,"lng":139.56978},{"code":"14115040001","name":"桂台南一丁目","lat":35.351975,"lng":139.567522},{"code":"14115040002","name":"桂台南ニ丁目","lat":35.349878,"lng":139.570467}]}
