{"municipality":"14135","name":"川崎市多摩区","prefecture":"神奈川県","source":{"dataset":"frogcat/japan-small-area","census":"平成27年国勢調査 小地域（e-Stat 統計LOD）","license":"MIT（リポジトリ）／政府統計の総合窓口(e-Stat)の利用規約（元データ・出典表記必要）","fetched":"2026-07-06"},"towns":[{"code":"14135601000","name":"登戸","lat":35.625234,"lng":139.567695},{"code":"14135601001","name":"登戸","lat":35.62153,"lng":139.570959},{"code":"14135601002","name":"登戸","lat":35.617172,"lng":139.568622},{"code":"14135601003","name":"登戸","lat":35.61925,"lng":139.564061},{"code":"14135601004","name":"登戸","lat":35.623001,"lng":139.557354},{"code":"14135601005","name":"登戸","lat":35.625232,"lng":139.561637},{"code":"14135602001","name":"生田１丁目","lat":35.625116,"lng":139.543067},{"code":"14135602002","name":"生田２丁目","lat":35.623248,"lng":139.549112},{"code":"14135602003","name":"生田３丁目","lat":35.622024,"lng":139.547256},{"code":"14135602004","name":"生田４丁目","lat":35.619868,"lng":139.544564},{"code":"14135602005","name":"生田５丁目","lat":35.620677,"lng":139.54029},{"code":"14135602006","name":"生田６丁目","lat":35.617134,"lng":139.53747},{"code":"14135602007","name":"生田７丁目","lat":35.616123,"lng":139.542207},{"code":"14135602008","name":"生田８丁目","lat":35.616985,"lng":139.547357},{"code":"14135603001","name":"菅馬場１丁目","lat":35.629819,"lng":139.542626},{"code":"14135603002","name":"菅馬場２丁目","lat":35.626157,"lng":139.538029},{"code":"14135603003","name":"菅馬場３丁目","lat":35.623168,"lng":139.533592},{"code":"14135603004","name":"菅馬場４丁目","lat":35.620261,"lng":139.529065},{"code":"14135604001","name":"菅仙谷１丁目","lat":35.629896,"lng":139.523599},{"code":"14135604002","name":"菅仙谷２丁目","lat":35.628889,"lng":139.52678},{"code":"14135604003","name":"菅仙谷３丁目","lat":35.624175,"lng":139.525255},{"code":"14135604004","name":"菅仙谷４丁目","lat":35.625571,"lng":139.519621},{"code":"14135605001","name":"菅北浦１丁目","lat":35.630718,"lng":139.538135},{"code":"14135605002","name":"菅北浦２丁目","lat":35.629471,"lng":139.535451},{"code":"14135605003","name":"菅北浦３丁目","lat":35.630822,"lng":139.531578},{"code":"14135605004","name":"菅北浦４丁目","lat":35.626411,"lng":139.529706},{"code":"14135605005","name":"菅北浦５丁目","lat":35.627082,"lng":139.533374},{"code":"14135606001","name":"菅１丁目","lat":35.632237,"lng":139.53786},{"code":"14135606002","name":"菅２丁目","lat":35.632861,"lng":139.531143},{"code":"14135606003","name":"菅３丁目","lat":35.635507,"lng":139.526299},{"code":"14135606004","name":"菅４丁目","lat":35.635735,"lng":139.528892},{"code":"14135606005","name":"菅５丁目","lat":35.637086,"lng":139.530702},{"code":"14135606006","name":"菅６丁目","lat":35.639205,"lng":139.525501},{"code":"141356070","name":"菅城下","lat":35.634482,"lng":139.524467},{"code":"141356080","name":"菅野戸呂","lat":35.640081,"lng":139.530477},{"code":"14135609001","name":"菅稲田堤１丁目","lat":35.63503,"lng":139.535737},{"code":"14135609002","name":"菅稲田堤２丁目","lat":35.63701,"lng":139.539641},{"code":"14135609003","name":"菅稲田堤３丁目","lat":35.633833,"lng":139.541688},{"code":"141356100","name":"布田","lat":35.633841,"lng":139.546855},{"code":"14135612000","name":"中野島","lat":35.627893,"lng":139.561948},{"code":"14135612001","name":"中野島１丁目","lat":35.628751,"lng":139.546982},{"code":"14135612002","name":"中野島２丁目","lat":35.625913,"lng":139.549434},{"code":"14135612003","name":"中野島３丁目","lat":35.627975,"lng":139.552885},{"code":"14135612004","name":"中野島４丁目","lat":35.629073,"lng":139.558359},{"code":"14135612005","name":"中野島５丁目","lat":35.631804,"lng":139.558949},{"code":"14135612006","name":"中野島６丁目","lat":35.631898,"lng":139.552111},{"code":"141356130","name":"和泉","lat":35.629197,"lng":139.564323},{"code":"141356140","name":"登戸新町","lat":35.623889,"lng":139.565596},{"code":"14135615001","name":"宿河原１丁目","lat":35.620016,"lng":139.575461},{"code":"14135615002","name":"宿河原２丁目","lat":35.614246,"lng":139.572675},{"code":"14135615003","name":"宿河原３丁目","lat":35.613718,"lng":139.579238},{"code":"14135615004","name":"宿河原４丁目","lat":35.617997,"lng":139.580619},{"code":"14135615005","name":"宿河原５丁目","lat":35.617431,"lng":139.584549},{"code":"14135615006","name":"宿河原６丁目","lat":35.611407,"lng":139.587482},{"code":"14135615007","name":"宿河原７丁目","lat":35.616633,"lng":139.588453},{"code":"14135616001","name":"堰１丁目","lat":35.615832,"lng":139.594627},{"code":"14135616002","name":"堰２丁目","lat":35.613134,"lng":139.595189},{"code":"14135616003","name":"堰３丁目","lat":35.611892,"lng":139.594858},{"code":"14135617001","name":"長尾１丁目","lat":35.611441,"lng":139.573778},{"code":"14135617002","name":"長尾２丁目","lat":35.608577,"lng":139.571517},{"code":"14135617003","name":"長尾３丁目","lat":35.608717,"lng":139.577693},{"code":"14135617004","name":"長尾４丁目","lat":35.610863,"lng":139.578668},{"code":"14135617005","name":"長尾５丁目","lat":35.610813,"lng":139.583157},{"code":"14135617006","name":"長尾６丁目","lat":35.607438,"lng":139.579954},{"code":"14135617007","name":"長尾７丁目","lat":35.607264,"lng":139.584239},{"code":"14135618001","name":"東生田１丁目","lat":35.613774,"lng":139.565529},{"code":"14135618002","name":"東生田２丁目","lat":35.610054,"lng":139.565357},{"code":"14135618003","name":"東生田３丁目","lat":35.606501,"lng":139.566365},{"code":"14135618004","name":"東生田４丁目","lat":35.604844,"lng":139.56477},{"code":"14135619001","name":"枡形１丁目","lat":35.619975,"lng":139.550871},{"code":"14135619002","name":"枡形２丁目","lat":35.618819,"lng":139.555537},{"code":"14135619003","name":"枡形３丁目","lat":35.616436,"lng":139.558955},{"code":"14135619004","name":"枡形４丁目","lat":35.61695,"lng":139.553116},{"code":"14135619005","name":"枡形５丁目","lat":35.613782,"lng":139.553084},{"code":"14135619006","name":"枡形６丁目","lat":35.612634,"lng":139.559471},{"code":"14135619007","name":"枡形７丁目","lat":35.606836,"lng":139.557763},{"code":"14135620001","name":"三田１丁目","lat":35.612975,"lng":139.542598},{"code":"14135620002","name":"三田２丁目","lat":35.613319,"lng":139.546333},{"code":"14135620003","name":"三田３丁目","lat":35.609758,"lng":139.545963},{"code":"14135620004","name":"三田４丁目","lat":35.608499,"lng":139.542364},{"code":"14135620005","name":"三田５丁目","lat":35.606386,"lng":139.546633},{"code":"14135621001","name":"東三田１丁目","lat":35.612451,"lng":139.549209},{"code":"14135621002","name":"東三田２丁目","lat":35.609955,"lng":139.553741},{"code":"14135621003","name":"東三田３丁目","lat":35.608245,"lng":139.550231},{"code":"14135622001","name":"寺尾台１丁目","lat":35.618869,"lng":139.534172},{"code":"14135622002","name":"寺尾台２丁目","lat":35.621336,"lng":139.537201},{"code":"14135623001","name":"西生田１丁目","lat":35.616005,"lng":139.527152},{"code":"14135623002","name":"西生田２丁目","lat":35.615368,"lng":139.534293},{"code":"14135623003","name":"西生田３丁目","lat":35.612253,"lng":139.52907},{"code":"14135623004","name":"西生田４丁目","lat":35.612243,"lng":139.525187},{"code":"14135623005","name":"西生田５丁目","lat":35.607216,"lng":139.525687},{"code":"14135624001","name":"栗谷１丁目","lat":35.612577,"lng":139.533325},{"code":"14135624002","name":"栗谷２丁目","lat":35.609034,"lng":139.534377},{"code":"14135624003","name":"栗谷３丁目","lat":35.612951,"lng":139.536607},{"code":"14135624004","name":"栗谷４丁目","lat":35.611341,"lng":139.538616},{"code":"14135625001","name":"南生田１丁目","lat":35.608651,"lng":139.530102},{"code":"14135625002","name":"南生田２丁目","lat":35.604353,"lng":139.529908},{"code":"14135625003","name":"南生田３丁目","lat":35.604946,"lng":139.53393},{"code":"14135625004","name":"南生田４丁目","lat":35.600816,"lng":139.533987},{"code":"14135625005","name":"南生田５丁目","lat":35.602601,"lng":139.538778},{"code":"14135625006","name":"南生田６丁目","lat":35.604485,"lng":139.538684},{"code":"14135625007","name":"南生田７丁目","lat":35.607904,"lng":139.540039},{"code":"14135625008","name":"南生田８丁目","lat":35.607413,"lng":139.537323},{"code":"14135626001","name":"長沢１丁目","lat":35.603542,"lng":139.544306},{"code":"14135626002","name":"長沢２丁目","lat":35.601101,"lng":139.546148},{"code":"14135626003","name":"長沢３丁目","lat":35.599934,"lng":139.541853},{"code":"14135626004","name":"長沢４丁目","lat":35.598414,"lng":139.535788}]}
