{"municipality":"14213","name":"大和市","prefecture":"神奈川県","source":{"dataset":"frogcat/japan-small-area","census":"平成27年国勢調査 小地域（e-Stat 統計LOD）","license":"MIT（リポジトリ）／政府統計の総合窓口(e-Stat)の利用規約（元データ・出典表記必要）","fetched":"2026-07-06"},"towns":[{"code":"14213001001","name":"中央林間１丁目","lat":35.503272,"lng":139.442636},{"code":"14213001002","name":"中央林間２丁目","lat":35.502996,"lng":139.44697},{"code":"14213001003","name":"中央林間３丁目","lat":35.507118,"lng":139.441402},{"code":"14213001004","name":"中央林間４丁目","lat":35.506834,"lng":139.446384},{"code":"14213001005","name":"中央林間５丁目","lat":35.510136,"lng":139.441469},{"code":"14213001006","name":"中央林間６丁目","lat":35.51005,"lng":139.446004},{"code":"14213002001","name":"下鶴間１丁目","lat":35.489279,"lng":139.457443},{"code":"14213002002","name":"下鶴間２丁目","lat":35.490364,"lng":139.460837},{"code":"14213002052","name":"下鶴間","lat":35.509672,"lng":139.44974},{"code":"14213002053","name":"下鶴間","lat":35.515073,"lng":139.460217},{"code":"14213002054","name":"下鶴間","lat":35.500248,"lng":139.452179},{"code":"14213002055","name":"下鶴間","lat":35.498621,"lng":139.461358},{"code":"14213004001","name":"つきみ野１丁目","lat":35.503838,"lng":139.457445},{"code":"14213004002","name":"つきみ野２丁目","lat":35.505213,"lng":139.462049},{"code":"14213004003","name":"つきみ野３丁目","lat":35.507484,"lng":139.456263},{"code":"14213004004","name":"つきみ野４丁目","lat":35.508431,"lng":139.460024},{"code":"14213004005","name":"つきみ野５丁目","lat":35.511106,"lng":139.456441},{"code":"14213004006","name":"つきみ野６丁目","lat":35.512794,"lng":139.453157},{"code":"14213004007","name":"つきみ野７丁目","lat":35.514134,"lng":139.455433},{"code":"14213004008","name":"つきみ野８丁目","lat":35.516716,"lng":139.452716},{"code":"14213007001","name":"林間１丁目","lat":35.495542,"lng":139.450726},{"code":"14213007002","name":"林間２丁目","lat":35.499179,"lng":139.448449},{"code":"14213008001","name":"鶴間１丁目","lat":35.48837,"lng":139.454271},{"code":"14213008002","name":"鶴間２丁目","lat":35.492128,"lng":139.452486},{"code":"14213009001","name":"南林間１丁目","lat":35.493891,"lng":139.447089},{"code":"14213009002","name":"南林間２丁目","lat":35.496662,"lng":139.445251},{"code":"14213009003","name":"南林間３丁目","lat":35.499091,"lng":139.443786},{"code":"14213009004","name":"南林間４丁目","lat":35.492382,"lng":139.444117},{"code":"14213009005","name":"南林間５丁目","lat":35.495098,"lng":139.442131},{"code":"14213009006","name":"南林間６丁目","lat":35.490234,"lng":139.439537},{"code":"14213009007","name":"南林間７丁目","lat":35.493181,"lng":139.437943},{"code":"14213009008","name":"南林間８丁目","lat":35.497259,"lng":139.439418},{"code":"14213009009","name":"南林間９丁目","lat":35.496203,"lng":139.435457},{"code":"14213010001","name":"西鶴間１丁目","lat":35.490687,"lng":139.448895},{"code":"14213010002","name":"西鶴間２丁目","lat":35.488795,"lng":139.445893},{"code":"14213010003","name":"西鶴間３丁目","lat":35.487101,"lng":139.450769},{"code":"14213010004","name":"西鶴間４丁目","lat":35.485388,"lng":139.447414},{"code":"14213010005","name":"西鶴間５丁目","lat":35.483289,"lng":139.443216},{"code":"14213010006","name":"西鶴間６丁目","lat":35.486995,"lng":139.442454},{"code":"14213010007","name":"西鶴間７丁目","lat":35.486596,"lng":139.438897},{"code":"14213010008","name":"西鶴間８丁目","lat":35.483379,"lng":139.439744},{"code":"14213012001","name":"上草柳１丁目","lat":35.475308,"lng":139.456812},{"code":"14213012002","name":"上草柳２丁目","lat":35.473655,"lng":139.453736},{"code":"14213012003","name":"上草柳３丁目","lat":35.476074,"lng":139.452323},{"code":"14213012004","name":"上草柳４丁目","lat":35.478307,"lng":139.455318},{"code":"14213012005","name":"上草柳５丁目","lat":35.480948,"lng":139.453771},{"code":"14213012006","name":"上草柳６丁目","lat":35.479012,"lng":139.450362},{"code":"14213012007","name":"上草柳７丁目","lat":35.483681,"lng":139.452418},{"code":"14213012008","name":"上草柳８丁目","lat":35.482294,"lng":139.448813},{"code":"14213012009","name":"上草柳９丁目","lat":35.481188,"lng":139.445404},{"code":"14213012051","name":"上草柳","lat":35.474931,"lng":139.44397},{"code":"14213013001","name":"桜森１丁目","lat":35.468433,"lng":139.442964},{"code":"14213013002","name":"桜森２丁目","lat":35.469319,"lng":139.438819},{"code":"14213013003","name":"桜森３丁目","lat":35.472325,"lng":139.439423},{"code":"142130140","name":"下草柳","lat":35.463619,"lng":139.453256},{"code":"14213015001","name":"深見西１丁目","lat":35.47623,"lng":139.459867},{"code":"14213015002","name":"深見西２丁目","lat":35.477126,"lng":139.463094},{"code":"14213015003","name":"深見西３丁目","lat":35.479801,"lng":139.458258},{"code":"14213015004","name":"深見西４丁目","lat":35.481518,"lng":139.462158},{"code":"14213015005","name":"深見西５丁目","lat":35.482565,"lng":139.456893},{"code":"14213015006","name":"深見西６丁目","lat":35.484745,"lng":139.461332},{"code":"14213015007","name":"深見西７丁目","lat":35.48489,"lng":139.455823},{"code":"14213015008","name":"深見西８丁目","lat":35.486621,"lng":139.460506},{"code":"14213016001","name":"深見東１丁目","lat":35.477498,"lng":139.466175},{"code":"14213016002","name":"深見東２丁目","lat":35.480845,"lng":139.465724},{"code":"14213016003","name":"深見東３丁目","lat":35.483956,"lng":139.465679},{"code":"14213017051","name":"深見","lat":35.48299,"lng":139.468555},{"code":"14213017052","name":"深見","lat":35.463375,"lng":139.470355},{"code":"14213019001","name":"大和東１丁目","lat":35.470506,"lng":139.46457},{"code":"14213019002","name":"大和東２丁目","lat":35.472961,"lng":139.461086},{"code":"14213019003","name":"大和東３丁目","lat":35.473102,"lng":139.463894},{"code":"14213020001","name":"大和南１丁目","lat":35.468961,"lng":139.464789},{"code":"14213020002","name":"大和南２丁目","lat":35.465857,"lng":139.464965},{"code":"14213021001","name":"深見台１丁目","lat":35.46575,"lng":139.468308},{"code":"14213021002","name":"深見台２丁目","lat":35.468574,"lng":139.469469},{"code":"14213021003","name":"深見台３丁目","lat":35.470638,"lng":139.469574},{"code":"14213021004","name":"深見台４丁目","lat":35.473588,"lng":139.466624},{"code":"14213022001","name":"中央１丁目","lat":35.467388,"lng":139.461674},{"code":"14213022002","name":"中央２丁目","lat":35.471977,"lng":139.458913},{"code":"14213022003","name":"中央３丁目","lat":35.471492,"lng":139.455756},{"code":"14213022004","name":"中央４丁目","lat":35.469291,"lng":139.457449},{"code":"14213022005","name":"中央５丁目","lat":35.467062,"lng":139.457853},{"code":"14213022006","name":"中央６丁目","lat":35.463063,"lng":139.459715},{"code":"14213022007","name":"中央７丁目","lat":35.463565,"lng":139.462583},{"code":"14213023001","name":"草柳１丁目","lat":35.465973,"lng":139.454621},{"code":"14213023002","name":"草柳２丁目","lat":35.462812,"lng":139.456472},{"code":"14213023003","name":"草柳３丁目","lat":35.458327,"lng":139.45781},{"code":"14213024001","name":"柳橋１丁目","lat":35.460577,"lng":139.463979},{"code":"14213024002","name":"柳橋２丁目","lat":35.457556,"lng":139.464337},{"code":"14213024003","name":"柳橋３丁目","lat":35.454467,"lng":139.463831},{"code":"14213024004","name":"柳橋４丁目","lat":35.45718,"lng":139.460509},{"code":"14213024005","name":"柳橋５丁目","lat":35.453898,"lng":139.456533},{"code":"14213025001","name":"福田１丁目","lat":35.451709,"lng":139.463859},{"code":"14213025002","name":"福田２丁目","lat":35.449089,"lng":139.463632},{"code":"14213025003","name":"福田３丁目","lat":35.445564,"lng":139.46477},{"code":"14213025004","name":"福田４丁目","lat":35.440854,"lng":139.463845},{"code":"14213025005","name":"福田５丁目","lat":35.444794,"lng":139.462735},{"code":"14213025006","name":"福田６丁目","lat":35.444273,"lng":139.460648},{"code":"14213025007","name":"福田７丁目","lat":35.449461,"lng":139.459775},{"code":"14213025008","name":"福田８丁目","lat":35.452465,"lng":139.460368},{"code":"14213025051","name":"福田","lat":35.451164,"lng":139.466325},{"code":"14213025052","name":"福田","lat":35.44224,"lng":139.465721},{"code":"14213025053","name":"福田","lat":35.438196,"lng":139.459209},{"code":"14213025054","name":"福田","lat":35.430368,"lng":139.455809},{"code":"14213025055","name":"福田","lat":35.432976,"lng":139.459718},{"code":"14213025056","name":"福田","lat":35.432966,"lng":139.463209},{"code":"14213025057","name":"福田","lat":35.431853,"lng":139.465362},{"code":"14213025058","name":"福田","lat":35.446018,"lng":139.453647},{"code":"14213027051","name":"上和田","lat":35.45901,"lng":139.472565},{"code":"14213027052","name":"上和田","lat":35.452216,"lng":139.469879},{"code":"14213027053","name":"上和田","lat":35.444625,"lng":139.473223},{"code":"14213027054","name":"上和田","lat":35.437781,"lng":139.473441},{"code":"14213028001","name":"代官１丁目","lat":35.443087,"lng":139.459124},{"code":"14213028002","name":"代官２丁目","lat":35.441831,"lng":139.457115},{"code":"14213028003","name":"代官３丁目","lat":35.4407,"lng":139.455006},{"code":"14213028004","name":"代官４丁目","lat":35.438454,"lng":139.455427},{"code":"14213033051","name":"下和田","lat":35.4328,"lng":139.467403},{"code":"14213033052","name":"下和田","lat":35.429151,"lng":139.469809},{"code":"14213033053","name":"下和田","lat":35.426816,"lng":139.472158},{"code":"14213035001","name":"渋谷１丁目","lat":35.438388,"lng":139.466024},{"code":"14213035002","name":"渋谷２丁目","lat":35.437804,"lng":139.463489},{"code":"14213035003","name":"渋谷３丁目","lat":35.438323,"lng":139.461149},{"code":"14213035004","name":"渋谷４丁目","lat":35.436833,"lng":139.461073},{"code":"14213035005","name":"渋谷５丁目","lat":35.436245,"lng":139.463767},{"code":"14213035006","name":"渋谷６丁目","lat":35.435887,"lng":139.465754},{"code":"14213036001","name":"中央林間西１丁目","lat":35.500382,"lng":139.441704},{"code":"14213036002","name":"中央林間西２丁目","lat":35.499888,"lng":139.437979},{"code":"14213036003","name":"中央林間西３丁目","lat":35.499585,"lng":139.434082},{"code":"14213036004","name":"中央林間西４丁目","lat":35.503698,"lng":139.439532},{"code":"14213036005","name":"中央林間西５丁目","lat":35.503163,"lng":139.436802},{"code":"14213036006","name":"中央林間西６丁目","lat":35.502786,"lng":139.433091},{"code":"14213036007","name":"中央林間西７丁目","lat":35.507072,"lng":139.43431}]}
