{"municipality":"14210","name":"三浦市","prefecture":"神奈川県","source":{"dataset":"frogcat/japan-small-area","census":"平成27年国勢調査 小地域（e-Stat 統計LOD）","license":"MIT（リポジトリ）／政府統計の総合窓口(e-Stat)の利用規約（元データ・出典表記必要）","fetched":"2026-07-06"},"towns":[{"code":"14210001001","name":"三崎１丁目","lat":35.142543,"lng":139.620812},{"code":"14210001002","name":"三崎２丁目","lat":35.140033,"lng":139.619534},{"code":"14210001003","name":"三崎３丁目","lat":35.140425,"lng":139.618202},{"code":"14210001004","name":"三崎４丁目","lat":35.142635,"lng":139.618368},{"code":"14210001005","name":"三崎５丁目","lat":35.142811,"lng":139.612533},{"code":"142100060","name":"城山町","lat":35.145104,"lng":139.622982},{"code":"142100070","name":"東岡町","lat":35.145648,"lng":139.619747},{"code":"142100080","name":"白石町","lat":35.144257,"lng":139.615686},{"code":"142100090","name":"海外町","lat":35.147875,"lng":139.617338},{"code":"142100100","name":"尾上町","lat":35.150255,"lng":139.617881},{"code":"142100110","name":"天神町","lat":35.147549,"lng":139.622405},{"code":"142100120","name":"栄町","lat":35.147004,"lng":139.627354},{"code":"142100130","name":"原町","lat":35.151413,"lng":139.631316},{"code":"142100140","name":"岬陽町","lat":35.146483,"lng":139.630078},{"code":"142100150","name":"宮川町","lat":35.143266,"lng":139.633346},{"code":"142100160","name":"諏訪町","lat":35.144013,"lng":139.624995},{"code":"142100170","name":"向ケ崎町","lat":35.141864,"lng":139.626342},{"code":"142100180","name":"晴海町","lat":35.139519,"lng":139.627042},{"code":"142100190","name":"三崎町六合","lat":35.150212,"lng":139.638945},{"code":"142100200","name":"三崎町諸磯","lat":35.152994,"lng":139.62023},{"code":"142100210","name":"三崎町小網代","lat":35.161298,"lng":139.628823},{"code":"142100220","name":"三崎町城ケ島","lat":35.133788,"lng":139.618883},{"code":"142100230","name":"南下浦町上宮田","lat":35.190375,"lng":139.652046},{"code":"142100240","name":"南下浦町菊名","lat":35.17368,"lng":139.64811},{"code":"142100250","name":"南下浦町金田","lat":35.160624,"lng":139.657966},{"code":"142100260","name":"南下浦町松輪","lat":35.147737,"lng":139.669304},{"code":"142100270","name":"南下浦町毘沙門","lat":35.146617,"lng":139.651575},{"code":"142100280","name":"初声町三戸","lat":35.172817,"lng":139.62618},{"code":"142100290","name":"初声町下宮田","lat":35.181168,"lng":139.634994},{"code":"142100300","name":"初声町入江","lat":35.186435,"lng":139.624937},{"code":"142100310","name":"初声町高円坊","lat":35.201407,"lng":139.647015},{"code":"142100320","name":"初声町和田","lat":35.195136,"lng":139.630012}]}
