{"municipality":"14218","name":"綾瀬市","prefecture":"神奈川県","source":{"dataset":"frogcat/japan-small-area","census":"平成27年国勢調査 小地域（e-Stat 統計LOD）","license":"MIT（リポジトリ）／政府統計の総合窓口(e-Stat)の利用規約（元データ・出典表記必要）","fetched":"2026-07-06"},"towns":[{"code":"14218001103","name":"深谷中３丁目","lat":35.433957,"lng":139.43549},{"code":"14218001104","name":"深谷中４丁目","lat":35.437218,"lng":139.432664},{"code":"14218001105","name":"深谷中５丁目","lat":35.438497,"lng":139.435442},{"code":"14218001106","name":"深谷中６丁目","lat":35.433062,"lng":139.437934},{"code":"14218001107","name":"深谷中７丁目","lat":35.436133,"lng":139.439194},{"code":"14218001108","name":"深谷中８丁目","lat":35.439976,"lng":139.440234},{"code":"14218001109","name":"深谷中９丁目","lat":35.437997,"lng":139.442264},{"code":"14218001201","name":"深谷南１丁目","lat":35.428223,"lng":139.436165},{"code":"14218001202","name":"深谷南２丁目","lat":35.430287,"lng":139.438356},{"code":"14218001203","name":"深谷南３丁目","lat":35.43255,"lng":139.441021},{"code":"14218001204","name":"深谷南４丁目","lat":35.434761,"lng":139.443796},{"code":"14218001205","name":"深谷南５丁目","lat":35.431051,"lng":139.444328},{"code":"14218001206","name":"深谷南６丁目","lat":35.430456,"lng":139.441498},{"code":"14218001207","name":"深谷南７丁目","lat":35.427111,"lng":139.440389},{"code":"14218001303","name":"深谷上３丁目","lat":35.444647,"lng":139.429295},{"code":"14218001304","name":"深谷上４丁目","lat":35.447897,"lng":139.431873},{"code":"14218001305","name":"深谷上５丁目","lat":35.444497,"lng":139.433689},{"code":"14218001306","name":"深谷上６丁目","lat":35.441116,"lng":139.430884},{"code":"14218001307","name":"深谷上７丁目","lat":35.441631,"lng":139.434667},{"code":"14218001308","name":"深谷上８丁目","lat":35.443538,"lng":139.439991},{"code":"142180014","name":"深谷","lat":35.436124,"lng":139.430054},{"code":"14218002001","name":"大上１丁目","lat":35.456319,"lng":139.430062},{"code":"14218002002","name":"大上２丁目","lat":35.459793,"lng":139.427317},{"code":"14218002003","name":"大上３丁目","lat":35.463999,"lng":139.424014},{"code":"14218002004","name":"大上４丁目","lat":35.461979,"lng":139.429692},{"code":"14218002005","name":"大上５丁目","lat":35.464396,"lng":139.427906},{"code":"14218002006","name":"大上６丁目","lat":35.465847,"lng":139.426756},{"code":"14218002007","name":"大上７丁目","lat":35.461109,"lng":139.434216},{"code":"14218002008","name":"大上８丁目","lat":35.464081,"lng":139.432638},{"code":"14218002009","name":"大上９丁目","lat":35.466151,"lng":139.43298},{"code":"142180030","name":"厚木基地","lat":35.454917,"lng":139.443211},{"code":"14218004101","name":"蓼川１丁目","lat":35.461953,"lng":139.437025},{"code":"14218004102","name":"蓼川２丁目","lat":35.464805,"lng":139.437735},{"code":"14218004103","name":"蓼川３丁目","lat":35.465379,"lng":139.441541},{"code":"142180042","name":"蓼川","lat":35.466277,"lng":139.436731},{"code":"14218005001","name":"寺尾北１丁目","lat":35.463991,"lng":139.417825},{"code":"14218005002","name":"寺尾北２丁目","lat":35.465804,"lng":139.420524},{"code":"14218005003","name":"寺尾北３丁目","lat":35.463017,"lng":139.421746},{"code":"14218005004","name":"寺尾北４丁目","lat":35.462439,"lng":139.420076},{"code":"14218006001","name":"寺尾中１丁目","lat":35.457607,"lng":139.424458},{"code":"14218006002","name":"寺尾中２丁目","lat":35.458043,"lng":139.421517},{"code":"14218006003","name":"寺尾中３丁目","lat":35.459554,"lng":139.422834},{"code":"14218006004","name":"寺尾中４丁目","lat":35.461135,"lng":139.422617},{"code":"14218007001","name":"寺尾台１丁目","lat":35.456833,"lng":139.419279},{"code":"14218007002","name":"寺尾台２丁目","lat":35.460016,"lng":139.416187},{"code":"14218007003","name":"寺尾台３丁目","lat":35.459482,"lng":139.418836},{"code":"14218007004","name":"寺尾台４丁目","lat":35.462332,"lng":139.418889},{"code":"14218008001","name":"寺尾本町１丁目","lat":35.453805,"lng":139.42282},{"code":"14218008002","name":"寺尾本町２丁目","lat":35.455411,"lng":139.42359},{"code":"14218008003","name":"寺尾本町３丁目","lat":35.455346,"lng":139.425777},{"code":"14218009001","name":"寺尾西１丁目","lat":35.450436,"lng":139.421356},{"code":"14218009002","name":"寺尾西２丁目","lat":35.451963,"lng":139.4201},{"code":"14218009003","name":"寺尾西３丁目","lat":35.454093,"lng":139.41912},{"code":"14218010001","name":"寺尾釜田１丁目","lat":35.445894,"lng":139.424502},{"code":"14218010002","name":"寺尾釜田２丁目","lat":35.447942,"lng":139.422175},{"code":"14218010003","name":"寺尾釜田３丁目","lat":35.44884,"lng":139.424397},{"code":"14218011001","name":"寺尾南１丁目","lat":35.448106,"lng":139.428556},{"code":"14218011002","name":"寺尾南２丁目","lat":35.450349,"lng":139.425878},{"code":"14218011003","name":"寺尾南３丁目","lat":35.452413,"lng":139.427982},{"code":"14218012001","name":"小園","lat":35.448481,"lng":139.408576},{"code":"14218012002","name":"小園","lat":35.451317,"lng":139.411928},{"code":"14218012003","name":"小園","lat":35.450911,"lng":139.416342},{"code":"14218012004","name":"小園","lat":35.455332,"lng":139.411444},{"code":"14218012005","name":"小園","lat":35.45304,"lng":139.408201},{"code":"14218013001","name":"小園南１丁目","lat":35.446716,"lng":139.411703},{"code":"14218013002","name":"小園南２丁目","lat":35.448625,"lng":139.411616},{"code":"14218014101","name":"早川城山１丁目","lat":35.440556,"lng":139.42383},{"code":"14218014102","name":"早川城山２丁目","lat":35.438321,"lng":139.421551},{"code":"14218014103","name":"早川城山３丁目","lat":35.438082,"lng":139.418676},{"code":"14218014104","name":"早川城山４丁目","lat":35.44139,"lng":139.420767},{"code":"14218014105","name":"早川城山５丁目","lat":35.443258,"lng":139.423089},{"code":"14218014201","name":"早川","lat":35.432087,"lng":139.424927},{"code":"14218014202","name":"早川","lat":35.435505,"lng":139.414278},{"code":"14218014203","name":"早川","lat":35.440662,"lng":139.409151},{"code":"14218014204","name":"早川","lat":35.440496,"lng":139.415165},{"code":"14218014205","name":"早川","lat":35.440044,"lng":139.421666},{"code":"14218014206","name":"早川","lat":35.443951,"lng":139.412497},{"code":"14218014207","name":"早川","lat":35.446673,"lng":139.405899},{"code":"14218015101","name":"吉岡東１丁目","lat":35.427193,"lng":139.420058},{"code":"14218015102","name":"吉岡東２丁目","lat":35.425839,"lng":139.425115},{"code":"14218015103","name":"吉岡東３丁目","lat":35.423782,"lng":139.423955},{"code":"14218015104","name":"吉岡東４丁目","lat":35.421925,"lng":139.428024},{"code":"14218015105","name":"吉岡東５丁目","lat":35.425122,"lng":139.43006},{"code":"14218015201","name":"吉岡","lat":35.428161,"lng":139.425165},{"code":"14218015202","name":"吉岡","lat":35.422201,"lng":139.423192},{"code":"14218015203","name":"吉岡","lat":35.420037,"lng":139.426636},{"code":"14218015204","name":"吉岡","lat":35.421824,"lng":139.417483},{"code":"14218015205","name":"吉岡","lat":35.429273,"lng":139.419926},{"code":"14218015206","name":"吉岡","lat":35.425468,"lng":139.412507},{"code":"14218015207","name":"吉岡","lat":35.414347,"lng":139.409431},{"code":"14218016001","name":"綾西１丁目","lat":35.432966,"lng":139.415543},{"code":"14218016002","name":"綾西２丁目","lat":35.431284,"lng":139.415983},{"code":"14218016003","name":"綾西３丁目","lat":35.430542,"lng":139.411317},{"code":"14218016004","name":"綾西４丁目","lat":35.432761,"lng":139.411394},{"code":"14218016005","name":"綾西５丁目","lat":35.434811,"lng":139.41053},{"code":"14218017101","name":"上土棚北１丁目","lat":35.425208,"lng":139.44386},{"code":"14218017102","name":"上土棚北２丁目","lat":35.424608,"lng":139.44592},{"code":"14218017103","name":"上土棚北３丁目","lat":35.422135,"lng":139.446231},{"code":"14218017104","name":"上土棚北４丁目","lat":35.421554,"lng":139.449093},{"code":"14218017105","name":"上土棚北５丁目","lat":35.420704,"lng":139.451979},{"code":"14218017201","name":"上土棚南１丁目","lat":35.414305,"lng":139.445518},{"code":"14218017202","name":"上土棚南２丁目","lat":35.412943,"lng":139.446718},{"code":"14218017203","name":"上土棚南３丁目","lat":35.411579,"lng":139.450045},{"code":"14218017204","name":"上土棚南４丁目","lat":35.410559,"lng":139.448104},{"code":"14218017205","name":"上土棚南５丁目","lat":35.408898,"lng":139.446281},{"code":"14218017206","name":"上土棚南６丁目","lat":35.409997,"lng":139.442976},{"code":"14218017301","name":"上土棚中１丁目","lat":35.418694,"lng":139.446984},{"code":"14218017302","name":"上土棚中２丁目","lat":35.415811,"lng":139.450439},{"code":"14218017303","name":"上土棚中３丁目","lat":35.417973,"lng":139.451873},{"code":"14218017304","name":"上土棚中４丁目","lat":35.416096,"lng":139.454672},{"code":"14218017305","name":"上土棚中５丁目","lat":35.412312,"lng":139.454225},{"code":"14218017306","name":"上土棚中６丁目","lat":35.4125,"lng":139.451702},{"code":"14218017307","name":"上土棚中７丁目","lat":35.414,"lng":139.449115},{"code":"142180200","name":"本蓼川","lat":35.436453,"lng":139.44668},{"code":"14218021001","name":"落合南１丁目","lat":35.418637,"lng":139.43671},{"code":"14218021002","name":"落合南２丁目","lat":35.417058,"lng":139.4378},{"code":"14218021003","name":"落合南３丁目","lat":35.415366,"lng":139.439905},{"code":"14218021004","name":"落合南４丁目","lat":35.414739,"lng":139.443434},{"code":"14218021005","name":"落合南５丁目","lat":35.416366,"lng":139.443279},{"code":"14218021006","name":"落合南６丁目","lat":35.417628,"lng":139.441042},{"code":"14218021007","name":"落合南７丁目","lat":35.41978,"lng":139.439947},{"code":"14218021008","name":"落合南８丁目","lat":35.420307,"lng":139.442341},{"code":"14218021009","name":"落合南９丁目","lat":35.418723,"lng":139.444181},{"code":"14218022001","name":"落合北１丁目","lat":35.426575,"lng":139.433295},{"code":"14218022002","name":"落合北２丁目","lat":35.423297,"lng":139.433882},{"code":"14218022003","name":"落合北３丁目","lat":35.420266,"lng":139.434844},{"code":"14218022004","name":"落合北４丁目","lat":35.421639,"lng":139.439616},{"code":"14218022005","name":"落合北５丁目","lat":35.423424,"lng":139.437064},{"code":"14218022006","name":"落合北６丁目","lat":35.425579,"lng":139.43652},{"code":"14218022007","name":"落合北７丁目","lat":35.423682,"lng":139.441125}]}
