{"municipality":"15211","name":"見附市","prefecture":"新潟県","source":{"dataset":"frogcat/japan-small-area","census":"平成27年国勢調査 小地域（e-Stat 統計LOD）","license":"MIT（リポジトリ）／政府統計の総合窓口(e-Stat)の利用規約（元データ・出典表記必要）","fetched":"2026-07-06"},"towns":[{"code":"15211001001","name":"本町１丁目","lat":37.528242,"lng":138.924193},{"code":"15211001002","name":"本町２丁目","lat":37.525364,"lng":138.924257},{"code":"15211001003","name":"本町３丁目","lat":37.529799,"lng":138.9285},{"code":"15211001004","name":"本町４丁目","lat":37.531014,"lng":138.925522},{"code":"15211002001","name":"新町１丁目","lat":37.526403,"lng":138.921398},{"code":"15211002002","name":"新町２丁目","lat":37.527894,"lng":138.917946},{"code":"15211002003","name":"新町３丁目","lat":37.525186,"lng":138.918167},{"code":"15211003001","name":"嶺崎１丁目","lat":37.524327,"lng":138.927523},{"code":"15211003002","name":"嶺崎２丁目","lat":37.52019,"lng":138.929145},{"code":"15211004001","name":"学校町１丁目","lat":37.530985,"lng":138.91927},{"code":"15211004002","name":"学校町２丁目","lat":37.534932,"lng":138.919312},{"code":"15211005001","name":"本所１丁目","lat":37.537652,"lng":138.911427},{"code":"15211005002","name":"本所２丁目","lat":37.539574,"lng":138.906088},{"code":"15211006001","name":"細越１丁目","lat":37.5243,"lng":138.931243},{"code":"15211006002","name":"細越２丁目","lat":37.524031,"lng":138.934763},{"code":"15211007001","name":"元町１丁目","lat":37.537543,"lng":138.927837},{"code":"15211007002","name":"元町２丁目","lat":37.533801,"lng":138.926839},{"code":"15211008001","name":"昭和町１丁目","lat":37.533371,"lng":138.911592},{"code":"15211008002","name":"昭和町２丁目","lat":37.530254,"lng":138.912795},{"code":"152110090","name":"戸代新田町","lat":37.53867,"lng":138.920528},{"code":"152110100","name":"島切窪町","lat":37.53726,"lng":138.943343},{"code":"152110110","name":"石地町","lat":37.531219,"lng":138.94544},{"code":"152110120","name":"庄川町","lat":37.525092,"lng":138.941521},{"code":"152110130","name":"庄川町","lat":37.52626,"lng":138.950516},{"code":"152110140","name":"堀溝町","lat":37.526064,"lng":138.963733},{"code":"152110150","name":"杉澤町","lat":37.521449,"lng":138.983188},{"code":"15211016001","name":"南本町１丁目","lat":37.521101,"lng":138.92578},{"code":"15211016002","name":"南本町２丁目","lat":37.521313,"lng":138.922686},{"code":"15211016003","name":"南本町３丁目","lat":37.521674,"lng":138.918691},{"code":"152110170","name":"双葉町","lat":37.517305,"lng":138.922168},{"code":"15211018001","name":"月見台１丁目","lat":37.516709,"lng":138.926566},{"code":"15211018002","name":"月見台２丁目","lat":37.517639,"lng":138.932145},{"code":"152110190","name":"緑町","lat":37.513892,"lng":138.921363},{"code":"152110200","name":"椿澤町","lat":37.491164,"lng":138.928525},{"code":"152110210","name":"田井町","lat":37.496331,"lng":138.918117},{"code":"152110220","name":"山崎町","lat":37.501081,"lng":138.922701},{"code":"152110230","name":"熱田町","lat":37.515825,"lng":138.917201},{"code":"152110240","name":"名木野町","lat":37.508226,"lng":138.938744},{"code":"152110250","name":"明晶町","lat":37.517533,"lng":138.94205},{"code":"152110260","name":"下新町","lat":37.514019,"lng":138.912666},{"code":"15211027001","name":"葛巻１丁目","lat":37.526887,"lng":138.910995},{"code":"15211027002","name":"葛巻２丁目","lat":37.522847,"lng":138.914119},{"code":"152110280","name":"反田町","lat":37.523889,"lng":138.890343},{"code":"152110290","name":"葛巻町","lat":37.517866,"lng":138.902583},{"code":"152110300","name":"葛巻町","lat":37.523544,"lng":138.905739},{"code":"152110310","name":"傍所町","lat":37.511729,"lng":138.893143},{"code":"152110320","name":"青木町","lat":37.518941,"lng":138.885465},{"code":"152110330","name":"柳橋町","lat":37.541257,"lng":138.900189},{"code":"152110340","name":"福島町","lat":37.534322,"lng":138.899706},{"code":"152110351","name":"市野坪町","lat":37.535397,"lng":138.904155},{"code":"152110352","name":"市野坪町","lat":37.531649,"lng":138.905128},{"code":"152110360","name":"漆山町","lat":37.51069,"lng":138.905174},{"code":"15211037001","name":"新潟町松の木町","lat":37.550895,"lng":138.920623},{"code":"15211037002","name":"新潟町東町","lat":37.548644,"lng":138.92472},{"code":"15211037003","name":"新潟町西の上町","lat":37.545811,"lng":138.916693},{"code":"15211037004","name":"新潟町西の下町","lat":37.548508,"lng":138.913993},{"code":"15211037005","name":"新潟町千刈町","lat":37.544993,"lng":138.907052},{"code":"15211037006","name":"新潟町四ツ屋町","lat":37.5418,"lng":138.917544},{"code":"15211037007","name":"新潟町白銀町","lat":37.542748,"lng":138.926164},{"code":"152110380","name":"小栗山町","lat":37.551335,"lng":138.933858},{"code":"152110390","name":"指出町","lat":37.561102,"lng":138.917791},{"code":"152110400","name":"下鳥町","lat":37.556179,"lng":138.914041},{"code":"152110410","name":"片桐町","lat":37.553944,"lng":138.906268},{"code":"152110420","name":"芝野町","lat":37.550991,"lng":138.897547},{"code":"152110430","name":"太田町","lat":37.502474,"lng":138.960436},{"code":"152110440","name":"本明町","lat":37.519851,"lng":138.955702},{"code":"152110450","name":"池之島町","lat":37.518488,"lng":138.969208},{"code":"152110460","name":"河野町","lat":37.511235,"lng":138.969867},{"code":"152110470","name":"牛ケ嶺町","lat":37.506329,"lng":138.981104},{"code":"152110480","name":"神保町","lat":37.503009,"lng":138.972445},{"code":"152110490","name":"栃窪町","lat":37.484173,"lng":138.947501},{"code":"15211050001","name":"今町１丁目","lat":37.547315,"lng":138.884763},{"code":"15211050002","name":"今町２丁目","lat":37.55086,"lng":138.883283},{"code":"15211050003","name":"今町３丁目","lat":37.550538,"lng":138.887562},{"code":"15211050004","name":"今町４丁目","lat":37.545733,"lng":138.891033},{"code":"15211050005","name":"今町５丁目","lat":37.551824,"lng":138.891086},{"code":"15211050006","name":"今町６丁目","lat":37.554849,"lng":138.88572},{"code":"15211050007","name":"今町７丁目","lat":37.558786,"lng":138.890915},{"code":"15211050008","name":"今町８丁目","lat":37.557754,"lng":138.894703},{"code":"152110510","name":"上新田町","lat":37.540093,"lng":138.885457},{"code":"152110520","name":"下関町","lat":37.563886,"lng":138.878144},{"code":"152110530","name":"釈迦塚町","lat":37.580842,"lng":138.888286},{"code":"152110540","name":"三林町","lat":37.584723,"lng":138.878021},{"code":"152110551","name":"坂井町","lat":37.561838,"lng":138.89159},{"code":"152110552","name":"坂井町","lat":37.567645,"lng":138.891773},{"code":"152110560","name":"堀溝町","lat":37.538393,"lng":138.977468},{"code":"152110570","name":"佐野町","lat":37.462455,"lng":138.951384},{"code":"152110580","name":"庄川町","lat":37.52174,"lng":138.940519},{"code":"152110590","name":"耳取町","lat":37.502466,"lng":138.919804},{"code":"152110600","name":"鳥屋脇町","lat":37.506494,"lng":138.9175},{"code":"152110610","name":"鹿熊町","lat":37.506707,"lng":138.897513},{"code":"152110620","name":"山吉町","lat":37.527156,"lng":138.882111},{"code":"152110630","name":"速水町","lat":37.53336,"lng":138.884652},{"code":"152110640","name":"加坪川町","lat":37.527464,"lng":138.899939},{"code":"152110650","name":"宮之原町","lat":37.515857,"lng":138.977281},{"code":"152110660","name":"田之尻町","lat":37.565232,"lng":138.905963},{"code":"152110670","name":"北野町","lat":37.520698,"lng":138.897515},{"code":"152110680","name":"新幸町","lat":37.535611,"lng":138.893389}]}
