{"municipality":"16211","name":"射水市","prefecture":"富山県","source":{"dataset":"frogcat/japan-small-area","census":"平成27年国勢調査 小地域（e-Stat 統計LOD）","license":"MIT（リポジトリ）／政府統計の総合窓口(e-Stat)の利用規約（元データ・出典表記必要）","fetched":"2026-07-06"},"towns":[{"code":"16211001001","name":"庄西町１丁目","lat":36.790223,"lng":137.070036},{"code":"16211001002","name":"庄西町２丁目","lat":36.787239,"lng":137.064249},{"code":"162110020","name":"港町","lat":36.786475,"lng":137.079214},{"code":"162110030","name":"庄川本町","lat":36.78427,"lng":137.071431},{"code":"16211004001","name":"本町１丁目","lat":36.783794,"lng":137.076626},{"code":"16211004002","name":"本町２丁目","lat":36.783003,"lng":137.079522},{"code":"16211004003","name":"本町３丁目","lat":36.781803,"lng":137.081841},{"code":"162110050","name":"放生津町","lat":36.78275,"lng":137.085762},{"code":"162110060","name":"中央町","lat":36.779968,"lng":137.084992},{"code":"162110070","name":"桜町","lat":36.777513,"lng":137.083316},{"code":"162110080","name":"立町","lat":36.779715,"lng":137.088422},{"code":"16211009101","name":"八幡町１丁目","lat":36.780509,"lng":137.091412},{"code":"16211009102","name":"八幡町２丁目","lat":36.779184,"lng":137.097484},{"code":"16211009103","name":"八幡町３丁目","lat":36.776647,"lng":137.097827},{"code":"16211009201","name":"八幡町１丁目","lat":36.781581,"lng":137.095279},{"code":"16211009203","name":"八幡町３丁目","lat":36.774024,"lng":137.101585},{"code":"162110100","name":"中新湊","lat":36.776944,"lng":137.088527},{"code":"162110110","name":"二の丸町","lat":36.773991,"lng":137.091854},{"code":"162110121","name":"海王町","lat":36.780709,"lng":137.105218},{"code":"162110122","name":"越の潟町","lat":36.776486,"lng":137.107098},{"code":"162110123","name":"越の潟町","lat":36.774131,"lng":137.108745},{"code":"162110130","name":"西新湊","lat":36.780445,"lng":137.076024},{"code":"162110140","name":"三日曽根","lat":36.778862,"lng":137.079701},{"code":"162110150","name":"善光寺","lat":36.775826,"lng":137.076925},{"code":"162110160","name":"緑町","lat":36.775231,"lng":137.081494},{"code":"162110170","name":"寺塚原","lat":36.75225,"lng":137.060402},{"code":"162110180","name":"沖塚原","lat":36.750829,"lng":137.072449},{"code":"162110190","name":"坂東","lat":36.756292,"lng":137.058728},{"code":"162110200","name":"朴木","lat":36.759147,"lng":137.078213},{"code":"162110210","name":"川口","lat":36.760659,"lng":137.057488},{"code":"162110220","name":"宮袋","lat":36.766719,"lng":137.056139},{"code":"162110230","name":"松木","lat":36.760354,"lng":137.069644},{"code":"162110240","name":"作道","lat":36.755917,"lng":137.089287},{"code":"162110250","name":"鏡宮","lat":36.751928,"lng":137.083089},{"code":"162110260","name":"野村","lat":36.750951,"lng":137.098079},{"code":"162110270","name":"沖","lat":36.736891,"lng":137.09657},{"code":"162110280","name":"久々湊","lat":36.756464,"lng":137.099693},{"code":"162110290","name":"津幡江","lat":36.746442,"lng":137.107203},{"code":"162110300","name":"殿村","lat":36.746032,"lng":137.095626},{"code":"162110310","name":"今井","lat":36.737986,"lng":137.089029},{"code":"162110320","name":"高木","lat":36.74267,"lng":137.082471},{"code":"162110330","name":"布目","lat":36.746949,"lng":137.079922},{"code":"162110340","name":"神楽町","lat":36.761088,"lng":137.08319},{"code":"162110350","name":"奈呉の江","lat":36.762659,"lng":137.103895},{"code":"162110360","name":"片口","lat":36.759754,"lng":137.114503},{"code":"16211037101","name":"高場新町一丁目","lat":36.756205,"lng":137.116887},{"code":"16211037102","name":"高場新町二丁目","lat":36.755683,"lng":137.114973},{"code":"16211037103","name":"高場新町三丁目","lat":36.753995,"lng":137.115263},{"code":"16211037104","name":"高場新町四丁目","lat":36.752541,"lng":137.115637},{"code":"162110372","name":"片口高場","lat":36.751757,"lng":137.115814},{"code":"162110380","name":"片口久々江","lat":36.744788,"lng":137.118083},{"code":"16211039001","name":"新片町１丁目","lat":36.758971,"lng":137.113517},{"code":"16211039002","name":"新片町２丁目","lat":36.759307,"lng":137.115348},{"code":"16211039003","name":"新片町３丁目","lat":36.758467,"lng":137.119538},{"code":"16211039004","name":"新片町４丁目","lat":36.7574,"lng":137.119473},{"code":"16211039005","name":"新片町５丁目","lat":36.757824,"lng":137.115888},{"code":"162110400","name":"新堀","lat":36.752981,"lng":137.124758},{"code":"162110411","name":"海竜町","lat":36.774791,"lng":137.128123},{"code":"162110412","name":"堀岡","lat":36.771937,"lng":137.123205},{"code":"162110420","name":"堀岡新明神","lat":36.773615,"lng":137.118333},{"code":"162110430","name":"堀岡古明神","lat":36.769552,"lng":137.132401},{"code":"162110440","name":"堀岡明神新","lat":36.772997,"lng":137.120282},{"code":"16211045001","name":"射水町１丁目","lat":36.768984,"lng":137.124615},{"code":"16211045002","name":"射水町２丁目","lat":36.768468,"lng":137.127442},{"code":"16211046001","name":"草岡町１丁目","lat":36.768679,"lng":137.130131},{"code":"16211046002","name":"草岡町２丁目","lat":36.767722,"lng":137.133504},{"code":"162110470","name":"堀江千石","lat":36.765469,"lng":137.126662},{"code":"162110480","name":"海老江","lat":36.765565,"lng":137.147142},{"code":"162110490","name":"海老江練合","lat":36.759932,"lng":137.159227},{"code":"162110500","name":"海老江七軒","lat":36.758326,"lng":137.155098},{"code":"162110510","name":"海老江浜開","lat":36.767921,"lng":137.138807},{"code":"162110520","name":"浜開新町","lat":36.766846,"lng":137.13925},{"code":"162110530","name":"東明西町","lat":36.765219,"lng":137.143737},{"code":"162110540","name":"東明中町","lat":36.763682,"lng":137.147479},{"code":"162110550","name":"東明東町","lat":36.762566,"lng":137.150233},{"code":"162110560","name":"東明七軒","lat":36.761532,"lng":137.153357},{"code":"16211057001","name":"有磯１丁目","lat":36.764563,"lng":137.138718},{"code":"16211057002","name":"有磯２丁目","lat":36.759364,"lng":137.148609},{"code":"162110581","name":"かもめ台","lat":36.7575,"lng":137.17619},{"code":"162110582","name":"本江","lat":36.754819,"lng":137.173429},{"code":"162110590","name":"本江針山","lat":36.756067,"lng":137.162082},{"code":"162110600","name":"本江針山新","lat":36.757973,"lng":137.160421},{"code":"162110610","name":"本江中新","lat":36.754165,"lng":137.16814},{"code":"162110621","name":"足洗新町","lat":36.758617,"lng":137.168062},{"code":"162110622","name":"本江三箇","lat":36.759666,"lng":137.167514},{"code":"162110630","name":"本江針山開","lat":36.759401,"lng":137.163619},{"code":"162110640","name":"本江利波","lat":36.746176,"lng":137.166906},{"code":"162110650","name":"本江後新","lat":36.757601,"lng":137.170308},{"code":"162110660","name":"本江西","lat":36.75375,"lng":137.165963},{"code":"162110670","name":"本江南","lat":36.74551,"lng":137.166414},{"code":"162110680","name":"本江東","lat":36.751085,"lng":137.177889},{"code":"162110690","name":"本江北","lat":36.754389,"lng":137.172304},{"code":"162110700","name":"本江中","lat":36.748736,"lng":137.170682},{"code":"16211071000","name":"七美","lat":36.751585,"lng":137.139001},{"code":"16211071001","name":"七美１丁目","lat":36.757339,"lng":137.141416},{"code":"16211071002","name":"七美２丁目","lat":36.755185,"lng":137.1429},{"code":"162110720","name":"七美中野","lat":36.759796,"lng":137.136834},{"code":"162110750","name":"海竜新町","lat":36.77145,"lng":137.136195},{"code":"16211076001","name":"三ケ愛宕","lat":36.731197,"lng":137.102245},{"code":"16211076002","name":"三ケ伊勢領","lat":36.719118,"lng":137.086102},{"code":"16211076003","name":"三ケ一番町","lat":36.721588,"lng":137.089169},{"code":"16211076004","name":"三ケ上新町","lat":36.72501,"lng":137.089422},{"code":"16211076005","name":"三ケ白銀町","lat":36.725805,"lng":137.092835},{"code":"16211076006","name":"三ケ新三ケ","lat":36.727216,"lng":137.097571},{"code":"16211076007","name":"三ケ新富町","lat":36.722772,"lng":137.090616},{"code":"16211076008","name":"三ケ水源町","lat":36.724593,"lng":137.085776},{"code":"16211076009","name":"三ケ住吉町","lat":36.724069,"lng":137.080892},{"code":"16211076010","name":"三ケ諏訪町","lat":36.723602,"lng":137.091303},{"code":"16211076012","name":"三ケ高寺","lat":36.725837,"lng":137.10123},{"code":"16211076013","name":"三ケ田町","lat":36.723731,"lng":137.097215},{"code":"16211076014","name":"三ケ常盤町","lat":36.722462,"lng":137.095305},{"code":"16211076015","name":"三ケ錦町","lat":36.720396,"lng":137.092974},{"code":"16211076016","name":"三ケ西町","lat":36.723352,"lng":137.084341},{"code":"16211076017","name":"三ケ初音町","lat":36.720851,"lng":137.095246},{"code":"16211076018","name":"三ケ本中町","lat":36.724351,"lng":137.094328},{"code":"16211076019","name":"三ケ水上","lat":36.722098,"lng":137.078561},{"code":"16211076020","name":"三ケ元町","lat":36.716443,"lng":137.092312},{"code":"16211076021","name":"三ケ夢美野","lat":36.717969,"lng":137.093042},{"code":"16211077001","name":"戸破荒町","lat":36.722015,"lng":137.101487},{"code":"16211077002","name":"戸破江上","lat":36.717514,"lng":137.1127},{"code":"16211077003","name":"戸破鍛冶屋橋","lat":36.721837,"lng":137.106692},{"code":"16211077004","name":"戸破神川町","lat":36.720486,"lng":137.104709},{"code":"16211077005","name":"戸破北手崎","lat":36.723364,"lng":137.111349},{"code":"16211077006","name":"戸破木舟町","lat":36.720662,"lng":137.103472},{"code":"16211077007","name":"戸破栄町","lat":36.714354,"lng":137.104304},{"code":"16211077008","name":"戸破さくら町","lat":36.721677,"lng":137.096266},{"code":"16211077009","name":"戸破昭和通り","lat":36.719323,"lng":137.107772},{"code":"16211077010","name":"戸破新栄町","lat":36.715982,"lng":137.104437},{"code":"16211077011","name":"戸破新町","lat":36.721092,"lng":137.099959},{"code":"16211077012","name":"戸破末永町","lat":36.722104,"lng":137.108662},{"code":"16211077013","name":"戸破高穂町","lat":36.720263,"lng":137.101265},{"code":"16211077014","name":"戸破宝町","lat":36.713425,"lng":137.101684},{"code":"16211077015","name":"戸破茶屋町","lat":36.722274,"lng":137.099475},{"code":"16211077016","name":"戸破中央通り１丁目","lat":36.71843,"lng":137.096793},{"code":"16211077017","name":"戸破中央通り２丁目","lat":36.719388,"lng":137.100514},{"code":"16211077018","name":"戸破中央通り３丁目","lat":36.719135,"lng":137.104271},{"code":"16211077019","name":"戸破手崎","lat":36.716269,"lng":137.12127},{"code":"16211077020","name":"戸破中町","lat":36.721594,"lng":137.097758},{"code":"16211077021","name":"戸破西楠町","lat":36.725708,"lng":137.105947},{"code":"16211077022","name":"戸破乗舟町","lat":36.722971,"lng":137.102866},{"code":"16211077023","name":"戸破針原","lat":36.714453,"lng":137.115564},{"code":"16211077024","name":"戸破南通り","lat":36.717543,"lng":137.104658},{"code":"16211077025","name":"戸破元町","lat":36.713955,"lng":137.097222},{"code":"16211077026","name":"戸破若葉町","lat":36.717386,"lng":137.100164},{"code":"16211077027","name":"戸破若宮町","lat":36.723676,"lng":137.113522},{"code":"16211077028","name":"戸破いぶき野","lat":36.722274,"lng":137.114656},{"code":"162110780","name":"橋下条","lat":36.707023,"lng":137.080335},{"code":"162110790","name":"青井谷","lat":36.671872,"lng":137.062774},{"code":"162110800","name":"大江","lat":36.731649,"lng":137.114278},{"code":"162110810","name":"黒河","lat":36.705085,"lng":137.108481},{"code":"162110820","name":"土代","lat":36.692626,"lng":137.116369},{"code":"16211083001","name":"太閤山１丁目","lat":36.708726,"lng":137.096215},{"code":"16211083002","name":"太閤山２丁目","lat":36.706679,"lng":137.094834},{"code":"16211083003","name":"太閤山３丁目","lat":36.706324,"lng":137.093055},{"code":"16211083004","name":"太閤山４丁目","lat":36.705156,"lng":137.093719},{"code":"16211083005","name":"太閤山５丁目","lat":36.704616,"lng":137.091765},{"code":"16211083006","name":"太閤山６丁目","lat":36.704883,"lng":137.088263},{"code":"16211083007","name":"太閤山７丁目","lat":36.706521,"lng":137.089239},{"code":"16211083008","name":"太閤山８丁目","lat":36.707298,"lng":137.09062},{"code":"16211083009","name":"太閤山９丁目","lat":36.709017,"lng":137.091304},{"code":"16211083010","name":"太閤山１０丁目","lat":36.710126,"lng":137.092733},{"code":"16211084001","name":"中太閤山１丁目","lat":36.70381,"lng":137.095699},{"code":"16211084002","name":"中太閤山２丁目","lat":36.703687,"lng":137.093186},{"code":"16211084003","name":"中太閤山３丁目","lat":36.702375,"lng":137.093286},{"code":"16211084004","name":"中太閤山４丁目","lat":36.703136,"lng":137.090667},{"code":"16211084005","name":"中太閤山５丁目","lat":36.703659,"lng":137.088103},{"code":"16211084006","name":"中太閤山６丁目","lat":36.700897,"lng":137.086386},{"code":"16211084007","name":"中太閤山７丁目","lat":36.70207,"lng":137.089179},{"code":"16211084008","name":"中太閤山８丁目","lat":36.700686,"lng":137.090874},{"code":"16211084009","name":"中太閤山９丁目","lat":36.699773,"lng":137.09189},{"code":"16211084010","name":"中太閤山１０丁目","lat":36.701153,"lng":137.092629},{"code":"16211084011","name":"中太閤山１１丁目","lat":36.701072,"lng":137.09459},{"code":"16211084012","name":"中太閤山１２丁目","lat":36.702319,"lng":137.096336},{"code":"16211084013","name":"中太閤山１３丁目","lat":36.700849,"lng":137.09593},{"code":"16211084014","name":"中太閤山１４丁目","lat":36.701115,"lng":137.097324},{"code":"16211084015","name":"中太閤山１５丁目","lat":36.704251,"lng":137.098107},{"code":"16211084016","name":"中太閤山１６丁目","lat":36.702,"lng":137.098744},{"code":"16211084017","name":"中太閤山１７丁目","lat":36.699864,"lng":137.099855},{"code":"16211085001","name":"南太閤山１丁目","lat":36.699598,"lng":137.096966},{"code":"16211085002","name":"南太閤山２丁目","lat":36.698918,"lng":137.093577},{"code":"16211085003","name":"南太閤山３丁目","lat":36.698393,"lng":137.091361},{"code":"16211085004","name":"南太閤山４丁目","lat":36.697519,"lng":137.090077},{"code":"16211085005","name":"南太閤山５丁目","lat":36.697588,"lng":137.088516},{"code":"16211085006","name":"南太閤山６丁目","lat":36.69777,"lng":137.087104},{"code":"16211085007","name":"南太閤山７丁目","lat":36.698797,"lng":137.083836},{"code":"16211085008","name":"南太閤山８丁目","lat":36.696035,"lng":137.08904},{"code":"16211085009","name":"南太閤山９丁目","lat":36.69501,"lng":137.094262},{"code":"16211085010","name":"南太閤山１０丁目","lat":36.696835,"lng":137.092078},{"code":"16211085011","name":"南太閤山１１丁目","lat":36.69691,"lng":137.094175},{"code":"16211085012","name":"南太閤山１２丁目","lat":36.696771,"lng":137.09614},{"code":"16211085013","name":"南太閤山１３丁目","lat":36.697528,"lng":137.097661},{"code":"16211085014","name":"南太閤山１４丁目","lat":36.698281,"lng":137.098751},{"code":"16211085015","name":"南太閤山１５丁目","lat":36.696399,"lng":137.099023},{"code":"162110860","name":"太閤町","lat":36.709779,"lng":137.097517},{"code":"162110870","name":"黒河新","lat":36.703195,"lng":137.106079},{"code":"162110880","name":"手崎","lat":36.718872,"lng":137.114425},{"code":"162110890","name":"稲積","lat":36.738554,"lng":137.106263},{"code":"162110900","name":"西高木","lat":36.739424,"lng":137.123658},{"code":"162110910","name":"白石","lat":36.729176,"lng":137.131676},{"code":"162110920","name":"鷲塚","lat":36.723021,"lng":137.124351},{"code":"162110930","name":"塚越","lat":36.699799,"lng":137.12068},{"code":"162110940","name":"中老田新","lat":36.699583,"lng":137.114502},{"code":"162110950","name":"椎土","lat":36.689386,"lng":137.119413},{"code":"162110960","name":"北野","lat":36.686241,"lng":137.116892},{"code":"162110970","name":"山本新","lat":36.688396,"lng":137.106628},{"code":"162110980","name":"上野","lat":36.687714,"lng":137.086226},{"code":"162110990","name":"平野","lat":36.687654,"lng":137.096378},{"code":"162111000","name":"浄土寺","lat":36.673365,"lng":137.081566},{"code":"162111010","name":"池多","lat":36.695915,"lng":137.11211},{"code":"16211102001","name":"東太閤山１丁目","lat":36.700198,"lng":137.117632},{"code":"16211102002","name":"東太閤山２丁目","lat":36.699224,"lng":137.117503},{"code":"16211102003","name":"東太閤山３丁目","lat":36.69812,"lng":137.11738},{"code":"16211102004","name":"東太閤山４丁目","lat":36.698151,"lng":137.115411},{"code":"162111030","name":"一条","lat":36.71334,"lng":137.088618},{"code":"162111040","name":"西広上","lat":36.701425,"lng":137.01512},{"code":"162111050","name":"広上","lat":36.703906,"lng":137.023315},{"code":"162111060","name":"上条","lat":36.71112,"lng":137.032376},{"code":"162111070","name":"島","lat":36.712124,"lng":137.039234},{"code":"162111080","name":"堀内","lat":36.714422,"lng":137.049741},{"code":"162111090","name":"下条","lat":36.716851,"lng":137.044736},{"code":"162111100","name":"土合","lat":36.721803,"lng":137.037297},{"code":"162111110","name":"串田","lat":36.692929,"lng":137.042176},{"code":"162111120","name":"串田新","lat":36.68322,"lng":137.040027},{"code":"162111130","name":"荒町","lat":36.688779,"lng":137.049471},{"code":"162111140","name":"円池","lat":36.699191,"lng":137.05327},{"code":"162111150","name":"生源寺新","lat":36.682953,"lng":137.04618},{"code":"162111160","name":"布目沢","lat":36.703113,"lng":137.04626},{"code":"162111170","name":"小泉","lat":36.704131,"lng":137.032706},{"code":"162111180","name":"水戸田","lat":36.706084,"lng":137.070163},{"code":"162111190","name":"生源寺","lat":36.70141,"lng":137.061673},{"code":"162111200","name":"市井","lat":36.705885,"lng":137.056029},{"code":"162111210","name":"若林","lat":36.711092,"lng":137.065512},{"code":"162111220","name":"竹鼻","lat":36.711229,"lng":137.062491},{"code":"162111230","name":"開口","lat":36.711918,"lng":137.056565},{"code":"162111240","name":"藤巻","lat":36.709709,"lng":137.052781},{"code":"162111250","name":"二口","lat":36.728867,"lng":137.04971},{"code":"162111260","name":"中村","lat":36.721919,"lng":137.054664},{"code":"162111270","name":"大門本江","lat":36.715343,"lng":137.056967},{"code":"162111280","name":"棚田","lat":36.721091,"lng":137.061071},{"code":"162111290","name":"安吉","lat":36.721228,"lng":137.067586},{"code":"162111300","name":"本田","lat":36.718346,"lng":137.070475},{"code":"162111310","name":"下若","lat":36.718203,"lng":137.07716},{"code":"162111320","name":"二口","lat":36.734638,"lng":137.047928},{"code":"162111330","name":"二口","lat":36.734995,"lng":137.045813},{"code":"162111340","name":"枇杷首","lat":36.734775,"lng":137.04078},{"code":"162111350","name":"倉垣小杉","lat":36.733547,"lng":137.144262},{"code":"162111360","name":"摺出寺","lat":36.744107,"lng":137.134057},{"code":"162111370","name":"八講","lat":36.742155,"lng":137.127549},{"code":"162111380","name":"白石","lat":36.733561,"lng":137.137268},{"code":"162111390","name":"下村三箇","lat":36.750791,"lng":137.156714},{"code":"162111400","name":"加茂中部","lat":36.741978,"lng":137.146539},{"code":"16211141001","name":"加茂東部新村","lat":36.747364,"lng":137.152127},{"code":"16211141002","name":"加茂東部馬々田","lat":36.747758,"lng":137.155533},{"code":"162111420","name":"今開発","lat":36.730779,"lng":137.090899},{"code":"162111430","name":"本開発","lat":36.728133,"lng":137.082094},{"code":"162111440","name":"新開発","lat":36.729311,"lng":137.07583},{"code":"162111450","name":"赤井","lat":36.727555,"lng":137.068901},{"code":"162111460","name":"鳥取","lat":36.736994,"lng":137.078539},{"code":"162111470","name":"南高木","lat":36.738773,"lng":137.074123},{"code":"162111480","name":"北高木","lat":36.742328,"lng":137.071924},{"code":"162111490","name":"小林","lat":36.735015,"lng":137.070317},{"code":"162111500","name":"八塚","lat":36.729429,"lng":137.060339},{"code":"162111510","name":"小島","lat":36.736282,"lng":137.060872},{"code":"162111520","name":"中野","lat":36.743748,"lng":137.060911},{"code":"162111530","name":"若杉","lat":36.744442,"lng":137.053735},{"code":"162111540","name":"北野","lat":36.734372,"lng":137.052071},{"code":"162111550","name":"二口","lat":36.731184,"lng":137.058803},{"code":"162111560","name":"山屋","lat":36.75288,"lng":137.155782},{"code":"162111570","name":"日宮","lat":36.704312,"lng":137.084835},{"code":"162111580","name":"大島北野","lat":36.74526,"lng":137.050248},{"code":"162111590","name":"あおば台","lat":36.717776,"lng":137.052067},{"code":"162111600","name":"鏡宮弥生","lat":36.758085,"lng":137.084159}]}
