{"municipality":"17207","name":"羽咋市","prefecture":"石川県","source":{"dataset":"frogcat/japan-small-area","census":"平成27年国勢調査 小地域（e-Stat 統計LOD）","license":"MIT（リポジトリ）／政府統計の総合窓口(e-Stat)の利用規約（元データ・出典表記必要）","fetched":"2026-07-06"},"towns":[{"code":"172070010","name":"川原町","lat":36.895631,"lng":136.78172},{"code":"172070020","name":"東川原町","lat":36.895893,"lng":136.786357},{"code":"172070030","name":"松ケ下町","lat":36.890873,"lng":136.785366},{"code":"172070040","name":"柳橋町","lat":36.892445,"lng":136.788661},{"code":"172070060","name":"御坊山町","lat":36.891132,"lng":136.783061},{"code":"172070070","name":"旭町","lat":36.894686,"lng":136.778858},{"code":"172070080","name":"的場町","lat":36.900098,"lng":136.780584},{"code":"172070090","name":"東的場町","lat":36.899714,"lng":136.785412},{"code":"172070100","name":"本町","lat":36.898736,"lng":136.777551},{"code":"172070110","name":"中央町","lat":36.893831,"lng":136.776259},{"code":"172070120","name":"南中央町","lat":36.890639,"lng":136.778833},{"code":"172070130","name":"島出町","lat":36.900052,"lng":136.771297},{"code":"172070140","name":"大川町","lat":36.906806,"lng":136.772068},{"code":"172070150","name":"釜屋町","lat":36.907122,"lng":136.784498},{"code":"172070160","name":"西釜屋町","lat":36.90871,"lng":136.775168},{"code":"172070170","name":"千里浜町","lat":36.884764,"lng":136.76718},{"code":"172070180","name":"新保町","lat":36.870307,"lng":136.771545},{"code":"172070190","name":"粟生町","lat":36.878128,"lng":136.772412},{"code":"172070200","name":"粟原町","lat":36.874482,"lng":136.785176},{"code":"172070210","name":"土橋町","lat":36.881632,"lng":136.789022},{"code":"172070220","name":"立開町","lat":36.890134,"lng":136.794384},{"code":"172070230","name":"兵庫町","lat":36.880594,"lng":136.783844},{"code":"172070240","name":"太田町","lat":36.891653,"lng":136.807216},{"code":"172070250","name":"三ツ屋町","lat":36.89755,"lng":136.806146},{"code":"172070260","name":"石野町","lat":36.893872,"lng":136.79863},{"code":"172070270","name":"深江町","lat":36.901643,"lng":136.802291},{"code":"172070280","name":"若草町","lat":36.896686,"lng":136.798094},{"code":"172070290","name":"次場町","lat":36.903391,"lng":136.794979},{"code":"172070300","name":"吉崎町","lat":36.916434,"lng":136.811982},{"code":"172070310","name":"飯山町","lat":36.902594,"lng":136.827238},{"code":"172070320","name":"宇土野町","lat":36.892668,"lng":136.825028},{"code":"172070330","name":"白瀬町","lat":36.895843,"lng":136.830821},{"code":"172070340","name":"上白瀬町","lat":36.896213,"lng":136.830507},{"code":"172070350","name":"白石町","lat":36.892278,"lng":136.829788},{"code":"172070360","name":"福水町","lat":36.880009,"lng":136.836958},{"code":"172070370","name":"中川町","lat":36.891557,"lng":136.81743},{"code":"172070380","name":"神子原町","lat":36.896105,"lng":136.85929},{"code":"172070390","name":"千石町","lat":36.877386,"lng":136.853834},{"code":"172070400","name":"菅池町","lat":36.876383,"lng":136.87151},{"code":"172070410","name":"千代町","lat":36.899546,"lng":136.817559},{"code":"172070420","name":"垣内田町","lat":36.904297,"lng":136.820028},{"code":"172070430","name":"四町","lat":36.901955,"lng":136.812036},{"code":"172070440","name":"上江町","lat":36.908141,"lng":136.81598},{"code":"172070450","name":"千田町","lat":36.912411,"lng":136.816299},{"code":"172070460","name":"円井町","lat":36.909036,"lng":136.80902},{"code":"172070470","name":"本江町","lat":36.911064,"lng":136.840419},{"code":"172070480","name":"尾長町","lat":36.911838,"lng":136.824113},{"code":"172070490","name":"志々見町","lat":36.910406,"lng":136.829221},{"code":"172070500","name":"堀替新町","lat":36.916842,"lng":136.834098},{"code":"172070510","name":"菱分町","lat":36.921075,"lng":136.835726},{"code":"172070520","name":"酒井町","lat":36.919927,"lng":136.861543},{"code":"172070530","name":"四柳町","lat":36.929614,"lng":136.853969},{"code":"172070540","name":"大町","lat":36.934859,"lng":136.854437},{"code":"172070550","name":"金丸出町","lat":36.933079,"lng":136.836961},{"code":"172070560","name":"下曾祢町","lat":36.941422,"lng":136.849972},{"code":"172070570","name":"鹿島路町","lat":36.932554,"lng":136.814218},{"code":"172070580","name":"千路町","lat":36.927002,"lng":136.800601},{"code":"172070590","name":"柳田町","lat":36.924843,"lng":136.788142},{"code":"172070600","name":"上中山町","lat":36.9447,"lng":136.800819},{"code":"172070610","name":"一ノ宮町","lat":36.928689,"lng":136.761983},{"code":"172070620","name":"寺家町","lat":36.925454,"lng":136.770853},{"code":"172070630","name":"滝町","lat":36.930575,"lng":136.754833},{"code":"172070640","name":"柴垣町","lat":36.947605,"lng":136.777324},{"code":"172070650","name":"滝谷町","lat":36.956365,"lng":136.77774},{"code":"172070660","name":"鶴多町","lat":36.898472,"lng":136.79034}]}
