{"municipality":"17211","name":"能美市","prefecture":"石川県","source":{"dataset":"frogcat/japan-small-area","census":"平成27年国勢調査 小地域（e-Stat 統計LOD）","license":"MIT（リポジトリ）／政府統計の総合窓口(e-Stat)の利用規約（元データ・出典表記必要）","fetched":"2026-07-06"},"towns":[{"code":"172110010","name":"寺井町","lat":36.440791,"lng":136.496689},{"code":"172110020","name":"小長野町","lat":36.433111,"lng":136.488765},{"code":"172110030","name":"大長野町","lat":36.427833,"lng":136.487295},{"code":"172110040","name":"小杉町","lat":36.420396,"lng":136.485885},{"code":"172110050","name":"末信町","lat":36.434531,"lng":136.500925},{"code":"172110060","name":"牛島町","lat":36.426574,"lng":136.49854},{"code":"172110070","name":"佐野町","lat":36.428865,"lng":136.509396},{"code":"172110080","name":"泉台町","lat":36.430852,"lng":136.521485},{"code":"172110090","name":"湯谷町","lat":36.437739,"lng":136.518637},{"code":"172110100","name":"石子町","lat":36.438041,"lng":136.509827},{"code":"172110110","name":"末寺町","lat":36.4469,"lng":136.509655},{"code":"172110120","name":"秋常町","lat":36.447228,"lng":136.515879},{"code":"172110130","name":"新保町","lat":36.453716,"lng":136.515867},{"code":"172110140","name":"粟生町","lat":36.457879,"lng":136.503308},{"code":"172110150","name":"三道山町","lat":36.447876,"lng":136.50528},{"code":"172110160","name":"吉光町","lat":36.449442,"lng":136.499155},{"code":"172110170","name":"東任田町","lat":36.448663,"lng":136.493592},{"code":"172110180","name":"和田町","lat":36.4423,"lng":136.507749},{"code":"172110190","name":"赤井町","lat":36.457865,"lng":136.486344},{"code":"172110200","name":"西任田町","lat":36.449951,"lng":136.487499},{"code":"172110210","name":"五間堂町","lat":36.444063,"lng":136.484813},{"code":"172110220","name":"中庄町","lat":36.44687,"lng":136.479006},{"code":"172110230","name":"福岡町","lat":36.450772,"lng":136.475577},{"code":"172110240","name":"西二口町","lat":36.444493,"lng":136.470667},{"code":"172110250","name":"中ノ江町","lat":36.439459,"lng":136.466993},{"code":"172110260","name":"高坂町","lat":36.437702,"lng":136.449687},{"code":"172110270","name":"下ノ江町","lat":36.439558,"lng":136.45675},{"code":"172110280","name":"浜開発町","lat":36.445223,"lng":136.460572},{"code":"17211029000","name":"大成町","lat":36.450584,"lng":136.463773},{"code":"17211029001","name":"大成町１丁目","lat":36.450076,"lng":136.466621},{"code":"17211029002","name":"大成町２丁目","lat":36.448365,"lng":136.466491},{"code":"17211029003","name":"大成町３丁目","lat":36.449181,"lng":136.469323},{"code":"172110300","name":"福島町","lat":36.457461,"lng":136.470628},{"code":"172110310","name":"吉原町","lat":36.463373,"lng":136.47982},{"code":"172110320","name":"吉原釜屋町","lat":36.466023,"lng":136.465434},{"code":"172110330","name":"大浜町","lat":36.457768,"lng":136.457885},{"code":"172110340","name":"中町","lat":36.451629,"lng":136.453334},{"code":"172110350","name":"浜町","lat":36.447166,"lng":136.450554},{"code":"172110360","name":"道林町","lat":36.441395,"lng":136.443224},{"code":"172110370","name":"山口町","lat":36.433153,"lng":136.434404},{"code":"172110380","name":"根上町","lat":36.436315,"lng":136.444846},{"code":"172110390","name":"和佐谷町","lat":36.425574,"lng":136.617389},{"code":"172110400","name":"岩本町","lat":36.44702,"lng":136.613224},{"code":"172110410","name":"灯台笹町","lat":36.448085,"lng":136.603527},{"code":"172110420","name":"大口町","lat":36.430472,"lng":136.603019},{"code":"172110430","name":"旭台","lat":36.446884,"lng":136.590932},{"code":"172110440","name":"宮竹町","lat":36.455213,"lng":136.588469},{"code":"172110450","name":"三ツ口町","lat":36.45649,"lng":136.577253},{"code":"172110460","name":"長滝町","lat":36.442737,"lng":136.581469},{"code":"172110470","name":"莇生町","lat":36.447467,"lng":136.573978},{"code":"172110480","name":"岩内町","lat":36.446017,"lng":136.572306},{"code":"172110490","name":"火釜町","lat":36.455118,"lng":136.561293},{"code":"172110500","name":"来丸町","lat":36.448881,"lng":136.554406},{"code":"172110510","name":"山田町","lat":36.457704,"lng":136.552828},{"code":"172110520","name":"三ツ屋町","lat":36.441648,"lng":136.559595},{"code":"172110530","name":"倉重町","lat":36.452536,"lng":136.542885},{"code":"172110540","name":"出口町","lat":36.458045,"lng":136.540568},{"code":"172110550","name":"辰口町","lat":36.446205,"lng":136.546014},{"code":"172110560","name":"湯屋町","lat":36.441367,"lng":136.554718},{"code":"172110570","name":"徳山町（上徳山町）","lat":36.43416,"lng":136.549483},{"code":"172110580","name":"徳山町（下徳山町）","lat":36.433485,"lng":136.536346},{"code":"172110590","name":"上開発町","lat":36.448522,"lng":136.538088},{"code":"172110600","name":"下開発町","lat":36.4451,"lng":136.531067},{"code":"172110610","name":"徳久町","lat":36.449366,"lng":136.526696},{"code":"172110620","name":"荒屋町","lat":36.443209,"lng":136.524957},{"code":"172110630","name":"高座町","lat":36.445842,"lng":136.520321},{"code":"172110640","name":"下清水町","lat":36.461851,"lng":136.517023},{"code":"172110650","name":"上清水町","lat":36.458208,"lng":136.527091},{"code":"172110660","name":"北市町","lat":36.453992,"lng":136.532925},{"code":"17211067001","name":"和光台１丁目","lat":36.42551,"lng":136.544376},{"code":"17211067002","name":"和光台２丁目","lat":36.428092,"lng":136.542839},{"code":"17211067003","name":"和光台３丁目","lat":36.427581,"lng":136.545119},{"code":"17211067004","name":"和光台４丁目","lat":36.429363,"lng":136.545182},{"code":"17211067005","name":"和光台５丁目","lat":36.43056,"lng":136.541161},{"code":"172110680","name":"和気町","lat":36.422232,"lng":136.540494},{"code":"172110690","name":"寺畠町","lat":36.422688,"lng":136.549875},{"code":"172110700","name":"舘町","lat":36.425734,"lng":136.559381},{"code":"172110710","name":"金剛寺町","lat":36.429033,"lng":136.574157},{"code":"172110720","name":"坪野町","lat":36.42448,"lng":136.590713},{"code":"172110730","name":"鍋谷町","lat":36.408298,"lng":136.58125},{"code":"172110740","name":"仏大寺町","lat":36.405767,"lng":136.556461},{"code":"17211075001","name":"緑が丘１丁目","lat":36.44503,"lng":136.542076},{"code":"17211075002","name":"緑が丘２丁目","lat":36.443621,"lng":136.542191},{"code":"17211075003","name":"緑が丘３丁目","lat":36.442176,"lng":136.541726},{"code":"17211075004","name":"緑が丘４丁目","lat":36.441947,"lng":136.53973},{"code":"17211075005","name":"緑が丘５丁目","lat":36.443578,"lng":136.537234},{"code":"17211075006","name":"緑が丘６丁目","lat":36.44017,"lng":136.541183},{"code":"17211075007","name":"緑が丘７丁目","lat":36.438524,"lng":136.540194},{"code":"17211075008","name":"緑が丘８丁目","lat":36.438159,"lng":136.537497},{"code":"17211075009","name":"緑が丘９丁目","lat":36.440564,"lng":136.537207},{"code":"17211075010","name":"緑が丘１０丁目","lat":36.438068,"lng":136.534516},{"code":"17211075011","name":"緑が丘１１丁目","lat":36.4409,"lng":136.533137},{"code":"17211076001","name":"松が岡１丁目","lat":36.44027,"lng":136.528711},{"code":"17211076002","name":"松が岡２丁目","lat":36.438276,"lng":136.525308},{"code":"17211076003","name":"松が岡３丁目","lat":36.435947,"lng":136.527076},{"code":"17211076004","name":"松が岡４丁目","lat":36.437424,"lng":136.528918},{"code":"17211076005","name":"松が岡５丁目","lat":36.437304,"lng":136.530921},{"code":"17211077001","name":"能美１丁目","lat":36.455085,"lng":136.491685},{"code":"17211077002","name":"能美２丁目","lat":36.45573,"lng":136.489053},{"code":"17211077003","name":"能美３丁目","lat":36.453535,"lng":136.48874}]}
