{"municipality":"19213","name":"甲州市","prefecture":"山梨県","source":{"dataset":"frogcat/japan-small-area","census":"平成27年国勢調査 小地域（e-Stat 統計LOD）","license":"MIT（リポジトリ）／政府統計の総合窓口(e-Stat)の利用規約（元データ・出典表記必要）","fetched":"2026-07-06"},"towns":[{"code":"19213001001","name":"千野千野上","lat":35.721076,"lng":138.73412},{"code":"19213001002","name":"千野千野下","lat":35.712075,"lng":138.734079},{"code":"19213002001","name":"上於曽上東","lat":35.707772,"lng":138.734748},{"code":"19213002002","name":"上於曽町屋","lat":35.708513,"lng":138.730759},{"code":"19213002003","name":"上於曽上西","lat":35.711273,"lng":138.724594},{"code":"19213002004","name":"上於曽中央","lat":35.706628,"lng":138.729947},{"code":"19213002005","name":"上於曽下東","lat":35.704414,"lng":138.734526},{"code":"19213002006","name":"上於曽下中","lat":35.704554,"lng":138.729817},{"code":"19213002007","name":"上於曽下西","lat":35.703549,"lng":138.724859},{"code":"19213003001","name":"上塩後上塩後","lat":35.704959,"lng":138.717624},{"code":"19213003002","name":"上塩後上塩後団地","lat":35.702686,"lng":138.713001},{"code":"192130040","name":"下塩後","lat":35.69629,"lng":138.715863},{"code":"19213005000","name":"下於曽下於曽東","lat":35.702668,"lng":138.7301},{"code":"19213005001","name":"下於曽下於曽東","lat":35.698775,"lng":138.731823},{"code":"19213005002","name":"下於曽下於曽西","lat":35.698761,"lng":138.724925},{"code":"192130060","name":"赤尾","lat":35.702722,"lng":138.738132},{"code":"192130070","name":"下萩原","lat":35.705374,"lng":138.748059},{"code":"192130080","name":"西野原","lat":35.687518,"lng":138.734345},{"code":"19213009001","name":"牛奥北牛奥","lat":35.69542,"lng":138.748384},{"code":"19213009002","name":"牛奥花園","lat":35.68382,"lng":138.739805},{"code":"19213009003","name":"牛奥嵯峨塩","lat":35.690764,"lng":138.800393},{"code":"192130100","name":"熊野","lat":35.691219,"lng":138.728288},{"code":"192130110","name":"西広門田","lat":35.689601,"lng":138.720079},{"code":"19213012001","name":"竹森下竹森","lat":35.730763,"lng":138.752036},{"code":"19213012002","name":"竹森上竹森","lat":35.741453,"lng":138.747127},{"code":"192130130","name":"福生里","lat":35.746186,"lng":138.746362},{"code":"192130140","name":"平沢","lat":35.76108,"lng":138.770534},{"code":"192130150","name":"上井尻","lat":35.71181,"lng":138.713847},{"code":"19213016001","name":"三日市場三日市場上","lat":35.720272,"lng":138.719053},{"code":"19213016002","name":"三日市場三日市場下","lat":35.718288,"lng":138.708973},{"code":"192130170","name":"小屋敷","lat":35.770532,"lng":138.755497},{"code":"192130180","name":"藤木","lat":35.735886,"lng":138.724269},{"code":"192130190","name":"下柚木","lat":35.749539,"lng":138.730204},{"code":"19213020001","name":"上萩原下切","lat":35.724303,"lng":138.76713},{"code":"19213020002","name":"上萩原上切下","lat":35.727256,"lng":138.777789},{"code":"19213020003","name":"上萩原上切上","lat":35.728155,"lng":138.798238},{"code":"19213020004","name":"上萩原裂石","lat":35.758646,"lng":138.808653},{"code":"19213020005","name":"上萩原萩原山","lat":35.721549,"lng":138.827999},{"code":"192130210","name":"下小田原","lat":35.739897,"lng":138.771311},{"code":"192130220","name":"上小田原","lat":35.74432,"lng":138.787437},{"code":"192130230","name":"一之瀬高橋","lat":35.817825,"lng":138.826377},{"code":"19213024001","name":"中萩原中萩原第一","lat":35.713013,"lng":138.758791},{"code":"19213024002","name":"中萩原中萩原第二","lat":35.708936,"lng":138.786125},{"code":"19213024003","name":"中萩原中萩原第三","lat":35.726047,"lng":138.75876},{"code":"192130250","name":"下粟生野","lat":35.713791,"lng":138.744793},{"code":"192130260","name":"上粟生野","lat":35.721162,"lng":138.74918},{"code":"192130270","name":"勝沼","lat":35.663396,"lng":138.731855},{"code":"192130280","name":"等々力","lat":35.667252,"lng":138.71414},{"code":"192130290","name":"深沢","lat":35.666023,"lng":138.779773},{"code":"192130300","name":"下岩崎","lat":35.65765,"lng":138.720129},{"code":"192130310","name":"上岩崎","lat":35.6427,"lng":138.739779},{"code":"192130320","name":"藤井","lat":35.649595,"lng":138.715913},{"code":"192130330","name":"小佐手","lat":35.674829,"lng":138.728549},{"code":"192130340","name":"山","lat":35.68271,"lng":138.72575},{"code":"192130350","name":"休息","lat":35.678652,"lng":138.714307},{"code":"192130360","name":"綿塚","lat":35.673923,"lng":138.706594},{"code":"192130370","name":"菱山","lat":35.673273,"lng":138.755793},{"code":"192130380","name":"中原","lat":35.684255,"lng":138.756916},{"code":"192130390","name":"木賊","lat":35.665472,"lng":138.810596},{"code":"192130400","name":"田野","lat":35.646976,"lng":138.82628},{"code":"192130410","name":"初鹿野","lat":35.654666,"lng":138.80592},{"code":"192130420","name":"鶴瀬","lat":35.648866,"lng":138.773172},{"code":"192130430","name":"日影","lat":35.627758,"lng":138.768512}]}
