{"municipality":"20323","name":"北佐久郡御代田町","prefecture":"長野県","source":{"dataset":"frogcat/japan-small-area","census":"平成27年国勢調査 小地域（e-Stat 統計LOD）","license":"MIT（リポジトリ）／政府統計の総合窓口(e-Stat)の利用規約（元データ・出典表記必要）","fetched":"2026-07-06"},"towns":[{"code":"203230010","name":"大字草越","lat":36.316218,"lng":138.540047},{"code":"203230020","name":"大字広戸","lat":36.307486,"lng":138.532438},{"code":"203230030","name":"大字豊昇","lat":36.300432,"lng":138.532904},{"code":"203230040","name":"大字面替","lat":36.297574,"lng":138.521502},{"code":"203230050","name":"大字馬瀬口","lat":36.324252,"lng":138.499222},{"code":"203230060","name":"大字御代田","lat":36.312225,"lng":138.509274},{"code":"203230070","name":"大字塩野","lat":36.364759,"lng":138.495856},{"code":"203230080","name":"大字茂沢","lat":36.292155,"lng":138.55223}]}
