{"municipality":"20349","name":"小県郡青木村","prefecture":"長野県","source":{"dataset":"frogcat/japan-small-area","census":"平成27年国勢調査 小地域（e-Stat 統計LOD）","license":"MIT（リポジトリ）／政府統計の総合窓口(e-Stat)の利用規約（元データ・出典表記必要）","fetched":"2026-07-06"},"towns":[{"code":"203490010","name":"大字当郷","lat":36.389473,"lng":138.134629},{"code":"203490020","name":"大字村松","lat":36.379568,"lng":138.128431},{"code":"20349003001","name":"大字田沢入田沢","lat":36.384562,"lng":138.092515},{"code":"20349003002","name":"大字田沢中村","lat":36.371449,"lng":138.111407},{"code":"20349003003","name":"大字田沢中挟み","lat":36.368304,"lng":138.120207},{"code":"20349003004","name":"大字田沢青木","lat":36.369908,"lng":138.127468},{"code":"20349004001","name":"大字奈良本下奈良本","lat":36.358627,"lng":138.112158},{"code":"20349004002","name":"大字奈良本入奈良本","lat":36.340324,"lng":138.085375},{"code":"203490050","name":"大字沓掛","lat":36.33697,"lng":138.112577},{"code":"20349006001","name":"大字夫神夫神","lat":36.356238,"lng":138.126064},{"code":"20349006002","name":"大字夫神細谷","lat":36.364943,"lng":138.135707},{"code":"203490070","name":"大字殿戸","lat":36.362193,"lng":138.143734}]}
