{"municipality":"21203","name":"高山市","prefecture":"岐阜県","source":{"dataset":"frogcat/japan-small-area","census":"平成27年国勢調査 小地域（e-Stat 統計LOD）","license":"MIT（リポジトリ）／政府統計の総合窓口(e-Stat)の利用規約（元データ・出典表記必要）","fetched":"2026-07-06"},"towns":[{"code":"212030010","name":"西洞町","lat":36.14326,"lng":137.268773},{"code":"212030020","name":"宗猷寺町","lat":36.141307,"lng":137.266473},{"code":"212030030","name":"天性寺町","lat":36.143685,"lng":137.266218},{"code":"212030040","name":"愛宕町","lat":36.144758,"lng":137.264857},{"code":"21203005001","name":"若達町１丁目","lat":36.145597,"lng":137.264014},{"code":"21203005002","name":"若達町２丁目","lat":36.146012,"lng":137.262793},{"code":"212030060","name":"春日町","lat":36.137727,"lng":137.266343},{"code":"212030070","name":"島川原町","lat":36.140684,"lng":137.264568},{"code":"212030080","name":"堀端町","lat":36.14057,"lng":137.262916},{"code":"21203009001","name":"馬場町１丁目","lat":36.140417,"lng":137.261669},{"code":"21203009002","name":"馬場町２丁目","lat":36.142997,"lng":137.26214},{"code":"212030100","name":"吹屋町","lat":36.142573,"lng":137.263827},{"code":"212030110","name":"大門町","lat":36.144084,"lng":137.262374},{"code":"212030120","name":"鉄砲町","lat":36.145258,"lng":137.261417},{"code":"21203013001","name":"森下町１丁目","lat":36.131084,"lng":137.25914},{"code":"21203013002","name":"森下町２丁目","lat":36.133256,"lng":137.257797},{"code":"212030140","name":"城山","lat":36.136656,"lng":137.262918},{"code":"21203015001","name":"神明町１丁目","lat":36.135511,"lng":137.25872},{"code":"21203015002","name":"神明町２丁目","lat":36.137425,"lng":137.259219},{"code":"21203015003","name":"神明町３丁目","lat":36.137831,"lng":137.260773},{"code":"21203015004","name":"神明町４丁目","lat":36.139458,"lng":137.2601},{"code":"212030160","name":"上一之町","lat":36.141839,"lng":137.261067},{"code":"212030170","name":"下一之町","lat":36.145069,"lng":137.260086},{"code":"212030180","name":"上二之町","lat":36.142253,"lng":137.260086},{"code":"212030190","name":"下二之町","lat":36.144763,"lng":137.259142},{"code":"212030200","name":"上三之町","lat":36.141935,"lng":137.259337},{"code":"212030210","name":"下三之町","lat":36.144661,"lng":137.258278},{"code":"212030220","name":"片原町","lat":36.141826,"lng":137.258779},{"code":"212030230","name":"左京町","lat":36.147709,"lng":137.262601},{"code":"212030240","name":"桜町","lat":36.147533,"lng":137.26063},{"code":"212030250","name":"八幡町","lat":36.148834,"lng":137.260039},{"code":"21203026001","name":"大新町１丁目","lat":36.146928,"lng":137.258336},{"code":"21203026002","name":"大新町２丁目","lat":36.1484,"lng":137.257947},{"code":"21203026003","name":"大新町３丁目","lat":36.150285,"lng":137.258375},{"code":"21203026004","name":"大新町４丁目","lat":36.152009,"lng":137.25727},{"code":"21203026005","name":"大新町５丁目","lat":36.155192,"lng":137.256683},{"code":"212030270","name":"上川原町","lat":36.135529,"lng":137.257173},{"code":"212030280","name":"川原町","lat":36.138459,"lng":137.258714},{"code":"212030290","name":"西町","lat":36.137545,"lng":137.257655},{"code":"21203030001","name":"本町１丁目","lat":36.140461,"lng":137.258045},{"code":"21203030002","name":"本町２丁目","lat":36.141982,"lng":137.258053},{"code":"21203030003","name":"本町３丁目","lat":36.14402,"lng":137.257227},{"code":"21203030004","name":"本町４丁目","lat":36.145535,"lng":137.256854},{"code":"21203031001","name":"八軒町１丁目","lat":36.139061,"lng":137.257515},{"code":"21203031002","name":"八軒町２丁目","lat":36.13878,"lng":137.256369},{"code":"21203031003","name":"八軒町３丁目","lat":36.138802,"lng":137.255527},{"code":"212030320","name":"有楽町","lat":36.141476,"lng":137.257421},{"code":"212030330","name":"相生町","lat":36.142439,"lng":137.256886},{"code":"212030340","name":"花川町","lat":36.142017,"lng":137.255912},{"code":"21203035001","name":"名田町１丁目","lat":36.132987,"lng":137.255953},{"code":"21203035002","name":"名田町２丁目","lat":36.13542,"lng":137.255867},{"code":"21203035003","name":"名田町３丁目","lat":36.137175,"lng":137.255708},{"code":"21203035004","name":"名田町４丁目","lat":36.139493,"lng":137.254799},{"code":"21203035005","name":"名田町５丁目","lat":36.14081,"lng":137.255542},{"code":"21203035006","name":"名田町６丁目","lat":36.142126,"lng":137.254642},{"code":"21203036001","name":"天満町１丁目","lat":36.132881,"lng":137.254715},{"code":"21203036002","name":"天満町２丁目","lat":36.135182,"lng":137.254555},{"code":"21203036003","name":"天満町３丁目","lat":36.137379,"lng":137.254323},{"code":"21203036004","name":"天満町４丁目","lat":36.139553,"lng":137.253962},{"code":"21203036005","name":"天満町５丁目","lat":36.14106,"lng":137.253784},{"code":"21203036006","name":"天満町６丁目","lat":36.14212,"lng":137.253821},{"code":"21203037001","name":"花里町１丁目","lat":36.132339,"lng":137.251885},{"code":"21203037002","name":"花里町２丁目","lat":36.13535,"lng":137.252895},{"code":"21203037003","name":"花里町３丁目","lat":36.137631,"lng":137.252647},{"code":"21203037004","name":"花里町４丁目","lat":36.139466,"lng":137.252481},{"code":"21203037005","name":"花里町５丁目","lat":36.140967,"lng":137.252722},{"code":"21203037006","name":"花里町６丁目","lat":36.142162,"lng":137.252425},{"code":"212030380","name":"朝日町","lat":36.14374,"lng":137.256269},{"code":"212030390","name":"末広町","lat":36.143839,"lng":137.255408},{"code":"21203040001","name":"七日町１丁目","lat":36.146766,"lng":137.256645},{"code":"21203040002","name":"七日町２丁目","lat":36.148532,"lng":137.25611},{"code":"21203040003","name":"七日町３丁目","lat":36.150994,"lng":137.255318},{"code":"21203041001","name":"神田町１丁目","lat":36.146144,"lng":137.255538},{"code":"21203041002","name":"神田町２丁目","lat":36.149044,"lng":137.254664},{"code":"21203042001","name":"総和町１丁目","lat":36.14365,"lng":137.254354},{"code":"21203042002","name":"総和町２丁目","lat":36.146095,"lng":137.254431},{"code":"21203042003","name":"総和町３丁目","lat":36.149649,"lng":137.25365},{"code":"21203043001","name":"初田町１丁目","lat":36.143756,"lng":137.253416},{"code":"21203043002","name":"初田町２丁目","lat":36.145995,"lng":137.253188},{"code":"21203043003","name":"初田町３丁目","lat":36.149495,"lng":137.25252},{"code":"21203044001","name":"花岡町１丁目","lat":36.14361,"lng":137.251998},{"code":"21203044002","name":"花岡町２丁目","lat":36.145764,"lng":137.251707},{"code":"21203044003","name":"花岡町３丁目","lat":36.14956,"lng":137.250954},{"code":"212030450","name":"江名子町","lat":36.126214,"lng":137.282833},{"code":"21203046001","name":"片野町１丁目","lat":36.119422,"lng":137.267428},{"code":"21203046002","name":"片野町２丁目","lat":36.122327,"lng":137.264998},{"code":"21203046003","name":"片野町３丁目","lat":36.125411,"lng":137.264676},{"code":"21203046004","name":"片野町４丁目","lat":36.12582,"lng":137.26081},{"code":"21203046005","name":"片野町５丁目","lat":36.130076,"lng":137.263942},{"code":"21203046006","name":"片野町６丁目","lat":36.128289,"lng":137.259673},{"code":"21203047001","name":"石浦町１丁目","lat":36.106995,"lng":137.26606},{"code":"21203047002","name":"石浦町２丁目","lat":36.11289,"lng":137.266043},{"code":"21203047003","name":"石浦町３丁目","lat":36.111107,"lng":137.261961},{"code":"21203047004","name":"石浦町４丁目","lat":36.115922,"lng":137.267811},{"code":"21203047005","name":"石浦町５丁目","lat":36.117379,"lng":137.263952},{"code":"21203047006","name":"石浦町６丁目","lat":36.11538,"lng":137.259788},{"code":"21203047007","name":"石浦町７丁目","lat":36.122119,"lng":137.261201},{"code":"21203047008","name":"石浦町８丁目","lat":36.116267,"lng":137.25496},{"code":"21203047009","name":"石浦町９丁目","lat":36.122354,"lng":137.258484},{"code":"21203047010","name":"石浦町","lat":36.107547,"lng":137.264789},{"code":"212030490","name":"松倉町","lat":36.111468,"lng":137.217603},{"code":"212030500","name":"越後町","lat":36.10356,"lng":137.231034},{"code":"212030510","name":"千島町","lat":36.122789,"lng":137.250757},{"code":"21203052001","name":"西之一色町１丁目","lat":36.134634,"lng":137.25011},{"code":"21203052002","name":"西之一色町２丁目","lat":36.137056,"lng":137.249489},{"code":"21203052003","name":"西之一色町３丁目","lat":36.131539,"lng":137.245732},{"code":"21203053001","name":"昭和町１丁目","lat":36.140621,"lng":137.249873},{"code":"21203053002","name":"昭和町２丁目","lat":36.144725,"lng":137.249332},{"code":"21203053003","name":"昭和町３丁目","lat":36.148513,"lng":137.248959},{"code":"21203054001","name":"岡本町１丁目","lat":36.140552,"lng":137.246504},{"code":"21203054002","name":"岡本町２丁目","lat":36.144638,"lng":137.246039},{"code":"21203054003","name":"岡本町３丁目","lat":36.148468,"lng":137.246312},{"code":"21203054004","name":"岡本町４丁目","lat":36.152248,"lng":137.24805},{"code":"21203055001","name":"上岡本町１丁目","lat":36.134524,"lng":137.237526},{"code":"21203055002","name":"上岡本町２丁目","lat":36.13457,"lng":137.230326},{"code":"21203055003","name":"上岡本町３丁目","lat":36.139882,"lng":137.243737},{"code":"21203055004","name":"上岡本町４丁目","lat":36.139489,"lng":137.240652},{"code":"21203055005","name":"上岡本町５丁目","lat":36.138785,"lng":137.236706},{"code":"21203055006","name":"上岡本町６丁目","lat":36.138184,"lng":137.232002},{"code":"21203055007","name":"上岡本町７丁目","lat":36.144028,"lng":137.24083},{"code":"21203055008","name":"上岡本町８丁目","lat":36.142834,"lng":137.236181},{"code":"21203055009","name":"上岡本町","lat":36.127211,"lng":137.234694},{"code":"212030560","name":"下岡本町","lat":36.151873,"lng":137.241412},{"code":"212030570","name":"本母町","lat":36.162344,"lng":137.248533},{"code":"212030580","name":"冬頭町","lat":36.162898,"lng":137.240667},{"code":"212030590","name":"松本町","lat":36.168204,"lng":137.255885},{"code":"212030600","name":"下切町","lat":36.182273,"lng":137.247534},{"code":"212030610","name":"中切町","lat":36.173879,"lng":137.23413},{"code":"212030620","name":"上切町","lat":36.16982,"lng":137.220936},{"code":"212030630","name":"赤保木町","lat":36.160188,"lng":137.219864},{"code":"212030640","name":"下林町","lat":36.152664,"lng":137.220957},{"code":"212030650","name":"山田町","lat":36.14381,"lng":137.225493},{"code":"212030660","name":"下之切町","lat":36.150888,"lng":137.207167},{"code":"212030670","name":"新宮町","lat":36.12748,"lng":137.208536},{"code":"212030680","name":"八日町","lat":36.147683,"lng":137.177086},{"code":"212030690","name":"前原町","lat":36.155931,"lng":137.183211},{"code":"212030700","name":"上野町","lat":36.167015,"lng":137.270733},{"code":"212030710","name":"三福寺町","lat":36.157929,"lng":137.275097},{"code":"212030720","name":"東山町","lat":36.146202,"lng":137.266916},{"code":"21203073001","name":"曙町１丁目","lat":36.147025,"lng":137.266079},{"code":"21203073002","name":"曙町２丁目","lat":36.147122,"lng":137.267748},{"code":"21203073003","name":"曙町３丁目","lat":36.14833,"lng":137.267432},{"code":"21203073004","name":"曙町４丁目","lat":36.148711,"lng":137.269169},{"code":"212030740","name":"松之木町","lat":36.149857,"lng":137.282383},{"code":"212030750","name":"大洞町","lat":36.157309,"lng":137.302271},{"code":"212030760","name":"漆垣内町","lat":36.146893,"lng":137.30356},{"code":"212030770","name":"塩屋町","lat":36.136688,"lng":137.310684},{"code":"212030780","name":"滝町","lat":36.147215,"lng":137.366305},{"code":"212030790","name":"岩井町","lat":36.128819,"lng":137.372664},{"code":"212030800","name":"大島町","lat":36.120811,"lng":137.310339},{"code":"212030810","name":"山口町","lat":36.135144,"lng":137.293858},{"code":"212030820","name":"長坂町","lat":36.146839,"lng":137.271479},{"code":"21203083001","name":"日の出町１丁目","lat":36.146144,"lng":137.272732},{"code":"21203083002","name":"日の出町２丁目","lat":36.147093,"lng":137.273343},{"code":"21203083003","name":"日の出町３丁目","lat":36.146434,"lng":137.274605},{"code":"21203084001","name":"緑ケ丘町１丁目","lat":36.141389,"lng":137.231191},{"code":"21203084002","name":"緑ケ丘町２丁目","lat":36.139996,"lng":137.233501},{"code":"212030850","name":"旭ケ丘町","lat":36.177864,"lng":137.243125},{"code":"212030860","name":"匠ケ丘町","lat":36.14103,"lng":137.220848},{"code":"212030870","name":"問屋町","lat":36.159047,"lng":137.245284},{"code":"21203088001","name":"桐生町１丁目","lat":36.154466,"lng":137.254686},{"code":"21203088002","name":"桐生町２丁目","lat":36.154112,"lng":137.253012},{"code":"21203088003","name":"桐生町３丁目","lat":36.154074,"lng":137.251332},{"code":"21203088004","name":"桐生町４丁目","lat":36.155022,"lng":137.249259},{"code":"21203088005","name":"桐生町５丁目","lat":36.158771,"lng":137.253776},{"code":"21203088006","name":"桐生町６丁目","lat":36.158379,"lng":137.252171},{"code":"21203088007","name":"桐生町７丁目","lat":36.158317,"lng":137.250772},{"code":"21203088008","name":"桐生町８丁目","lat":36.158223,"lng":137.248663},{"code":"212030890","name":"中山町","lat":36.153307,"lng":137.23439},{"code":"212030900","name":"丹生川町久手","lat":36.177633,"lng":137.5087},{"code":"212030910","name":"丹生川町池之俣","lat":36.151122,"lng":137.514391},{"code":"212030920","name":"丹生川町岩井谷","lat":36.133057,"lng":137.503178},{"code":"212030930","name":"丹生川町旗鉾","lat":36.19455,"lng":137.47279},{"code":"212030940","name":"丹生川町曽手","lat":36.181038,"lng":137.444927},{"code":"212030950","name":"丹生川町駄吉","lat":36.158274,"lng":137.434244},{"code":"212030960","name":"丹生川町日面","lat":36.186121,"lng":137.431525},{"code":"212030970","name":"丹生川町日影","lat":36.167413,"lng":137.415437},{"code":"212030980","name":"丹生川町芦谷","lat":36.185175,"lng":137.409099},{"code":"212030990","name":"丹生川町板殿","lat":36.187478,"lng":137.39978},{"code":"212031000","name":"丹生川町白井","lat":36.166547,"lng":137.401099},{"code":"212031010","name":"丹生川町根方","lat":36.181858,"lng":137.38412},{"code":"212031020","name":"丹生川町小野","lat":36.167933,"lng":137.38446},{"code":"212031030","name":"丹生川町大谷","lat":36.164958,"lng":137.364372},{"code":"212031040","name":"丹生川町瓜田","lat":36.184532,"lng":137.372306},{"code":"212031050","name":"丹生川町法力","lat":36.181276,"lng":137.352513},{"code":"212031060","name":"丹生川町北方","lat":36.179539,"lng":137.329176},{"code":"212031070","name":"丹生川町坊方","lat":36.16191,"lng":137.335668},{"code":"212031080","name":"丹生川町山口","lat":36.160983,"lng":137.324295},{"code":"212031090","name":"丹生川町町方","lat":36.167713,"lng":137.302027},{"code":"212031100","name":"丹生川町新張","lat":36.174766,"lng":137.276238},{"code":"212031110","name":"丹生川町塩屋","lat":36.170869,"lng":137.441197},{"code":"212031120","name":"丹生川町下保","lat":36.186875,"lng":137.288561},{"code":"212031130","name":"丹生川町細越","lat":36.17793,"lng":137.291833},{"code":"212031140","name":"丹生川町桐山","lat":36.185559,"lng":137.309756},{"code":"212031150","name":"丹生川町大萱","lat":36.192289,"lng":137.344143},{"code":"212031160","name":"丹生川町折敷地","lat":36.211218,"lng":137.405072},{"code":"212031170","name":"丹生川町大沼","lat":36.203193,"lng":137.326242},{"code":"212031180","name":"丹生川町森部","lat":36.230978,"lng":137.313768},{"code":"212031190","name":"丹生川町三之瀬","lat":36.205841,"lng":137.304265},{"code":"212031200","name":"丹生川町柏原","lat":36.208622,"lng":137.287976},{"code":"212031210","name":"丹生川町呂瀬金山","lat":36.238777,"lng":137.349123},{"code":"212031220","name":"清見町牧ケ洞","lat":36.143309,"lng":137.145696},{"code":"212031230","name":"清見町三日町","lat":36.127073,"lng":137.188074},{"code":"212031240","name":"清見町藤瀬","lat":36.100594,"lng":137.185668},{"code":"212031250","name":"清見町福寄","lat":36.098736,"lng":137.164776},{"code":"212031260","name":"清見町三ツ谷","lat":36.070596,"lng":137.156967},{"code":"212031270","name":"清見町坂下","lat":36.09469,"lng":137.12822},{"code":"212031280","name":"清見町巣野俣","lat":36.055203,"lng":137.096057},{"code":"212031290","name":"清見町上小鳥","lat":36.096412,"lng":137.071479},{"code":"212031300","name":"清見町楢谷","lat":35.996686,"lng":137.061899},{"code":"212031310","name":"清見町大原","lat":35.961763,"lng":137.093619},{"code":"212031320","name":"清見町森茂","lat":36.166721,"lng":136.978236},{"code":"212031330","name":"清見町大谷","lat":36.150734,"lng":137.030022},{"code":"212031340","name":"清見町江黒","lat":36.188211,"lng":137.054493},{"code":"212031350","name":"清見町池本","lat":36.174863,"lng":137.071427},{"code":"212031360","name":"清見町二本木","lat":36.156186,"lng":137.081339},{"code":"212031370","name":"清見町夏厩","lat":36.142937,"lng":137.092069},{"code":"212031380","name":"荘川町六厩","lat":36.10964,"lng":136.999495},{"code":"212031390","name":"荘川町三谷","lat":36.052981,"lng":137.017949},{"code":"212031400","name":"荘川町三尾河","lat":36.026025,"lng":136.992919},{"code":"212031410","name":"荘川町寺河戸","lat":36.005367,"lng":136.996005},{"code":"212031420","name":"荘川町黒谷","lat":36.018645,"lng":136.987967},{"code":"212031430","name":"荘川町惣則","lat":36.015474,"lng":136.975594},{"code":"212031440","name":"荘川町一色","lat":35.975679,"lng":136.995629},{"code":"212031450","name":"荘川町猿丸","lat":36.023819,"lng":136.968937},{"code":"212031460","name":"荘川町新渕","lat":36.034429,"lng":136.96248},{"code":"212031470","name":"荘川町町屋","lat":36.006313,"lng":136.956302},{"code":"212031480","name":"荘川町野々俣","lat":36.020908,"lng":136.930357},{"code":"212031490","name":"荘川町中畑","lat":36.042953,"lng":136.961163},{"code":"212031500","name":"荘川町牧戸","lat":36.047838,"lng":136.953526},{"code":"212031510","name":"荘川町牛丸","lat":36.053917,"lng":136.93979},{"code":"212031520","name":"荘川町岩瀬","lat":36.067679,"lng":136.940929},{"code":"212031530","name":"荘川町中野","lat":36.08806,"lng":136.960607},{"code":"212031540","name":"荘川町尾上郷","lat":36.062966,"lng":136.846738},{"code":"212031590","name":"一之宮町山下下","lat":36.094319,"lng":137.247939},{"code":"212031600","name":"一之宮町山下中","lat":36.089586,"lng":137.239304},{"code":"212031610","name":"一之宮町山下上","lat":36.087505,"lng":137.231128},{"code":"212031620","name":"一之宮町奥","lat":36.070623,"lng":137.207939},{"code":"212031630","name":"一之宮町寺元","lat":36.082732,"lng":137.220274},{"code":"212031640","name":"一之宮町寺","lat":36.072916,"lng":137.227676},{"code":"212031650","name":"一之宮町南","lat":36.070235,"lng":137.233513},{"code":"212031660","name":"一之宮町渡瀬","lat":36.083333,"lng":137.224016},{"code":"212031670","name":"一之宮町野下","lat":36.080726,"lng":137.234397},{"code":"212031680","name":"一之宮町野上","lat":36.080185,"lng":137.232204},{"code":"212031690","name":"一之宮町日影","lat":36.072672,"lng":137.241282},{"code":"212031700","name":"一之宮町洞上","lat":36.076532,"lng":137.246413},{"code":"212031710","name":"一之宮町洞下","lat":36.07791,"lng":137.250289},{"code":"212031720","name":"一之宮町問坂上","lat":36.082377,"lng":137.260349},{"code":"212031730","name":"一之宮町問坂下","lat":36.085409,"lng":137.256978},{"code":"212031740","name":"一之宮町宮元","lat":36.085385,"lng":137.250618},{"code":"212031750","name":"一之宮町宮下","lat":36.085311,"lng":137.249374},{"code":"212031760","name":"一之宮町一之宮上","lat":36.086725,"lng":137.251052},{"code":"212031770","name":"一之宮町一之宮下","lat":36.092476,"lng":137.257273},{"code":"212031780","name":"一之宮町本通上","lat":36.082079,"lng":137.23808},{"code":"212031790","name":"一之宮町本通中","lat":36.083306,"lng":137.242285},{"code":"212031800","name":"一之宮町本通下","lat":36.083756,"lng":137.244618},{"code":"212031810","name":"一之宮町駅前","lat":36.089,"lng":137.24902},{"code":"212031820","name":"一之宮町宮川","lat":36.084706,"lng":137.247402},{"code":"212031830","name":"一之宮町段","lat":36.044322,"lng":137.219422},{"code":"212031840","name":"一之宮町野添","lat":36.081995,"lng":137.241112},{"code":"212031850","name":"一之宮町","lat":36.039276,"lng":137.168303},{"code":"21203186001","name":"久々野町無数河","lat":36.035619,"lng":137.263658},{"code":"21203186002","name":"久々野町無数河","lat":36.037469,"lng":137.239401},{"code":"21203186003","name":"久々野町無数河","lat":36.056673,"lng":137.249028},{"code":"21203187004","name":"久々野町久々野","lat":36.061028,"lng":137.27389},{"code":"21203187005","name":"久々野町久々野","lat":36.053214,"lng":137.28007},{"code":"21203187006","name":"久々野町久々野","lat":36.06727,"lng":137.28552},{"code":"212031880","name":"久々野町山梨","lat":36.074102,"lng":137.268798},{"code":"212031890","name":"久々野町大西","lat":36.096156,"lng":137.290749},{"code":"212031900","name":"久々野町小屋名","lat":36.09612,"lng":137.307528},{"code":"212031910","name":"久々野町辻","lat":36.103699,"lng":137.314215},{"code":"212031920","name":"久々野町柳島","lat":36.075162,"lng":137.302568},{"code":"212031930","name":"久々野町久須母","lat":36.055616,"lng":137.2967},{"code":"212031940","name":"久々野町引下","lat":36.030264,"lng":137.283289},{"code":"21203195010","name":"久々野町小坊","lat":36.028011,"lng":137.305612},{"code":"21203195015","name":"久々野町小坊","lat":36.019087,"lng":137.293143},{"code":"212031960","name":"久々野町木賊洞","lat":36.019083,"lng":137.283285},{"code":"212031970","name":"久々野町長淀","lat":36.010537,"lng":137.287092},{"code":"21203198018","name":"久々野町渚","lat":36.007394,"lng":137.262565},{"code":"21203198019","name":"久々野町渚","lat":36.000701,"lng":137.296531},{"code":"212031990","name":"久々野町阿多粕","lat":36.003286,"lng":137.320312},{"code":"212032000","name":"久々野町有道","lat":36.039263,"lng":137.34032},{"code":"212032010","name":"朝日町見座","lat":36.098203,"lng":137.323514},{"code":"212032020","name":"朝日町小瀬","lat":36.101545,"lng":137.337379},{"code":"212032030","name":"朝日町立岩","lat":36.103883,"lng":137.356413},{"code":"212032040","name":"朝日町小谷","lat":36.084554,"lng":137.318663},{"code":"212032050","name":"朝日町甲","lat":36.071853,"lng":137.327746},{"code":"212032060","name":"朝日町万石","lat":36.076385,"lng":137.348109},{"code":"212032070","name":"朝日町上ケ見","lat":36.082952,"lng":137.355389},{"code":"212032080","name":"朝日町青屋","lat":36.109992,"lng":137.434431},{"code":"212032090","name":"朝日町寺沢","lat":36.085421,"lng":137.361252},{"code":"212032100","name":"朝日町浅井","lat":36.078467,"lng":137.389245},{"code":"212032110","name":"朝日町寺附","lat":36.078822,"lng":137.419485},{"code":"212032120","name":"朝日町大広","lat":36.07015,"lng":137.361806},{"code":"212032130","name":"朝日町小瀬ケ洞","lat":36.055243,"lng":137.405547},{"code":"212032140","name":"朝日町黒川","lat":36.054966,"lng":137.373719},{"code":"212032150","name":"朝日町黍生谷","lat":36.03817,"lng":137.405809},{"code":"212032160","name":"朝日町一之宿","lat":36.030925,"lng":137.391819},{"code":"212032170","name":"朝日町桑之島","lat":36.009669,"lng":137.399507},{"code":"212032180","name":"朝日町西洞","lat":36.001889,"lng":137.365138},{"code":"212032190","name":"朝日町宮之前","lat":36.013799,"lng":137.39869},{"code":"212032200","name":"朝日町胡桃島","lat":35.969578,"lng":137.425208},{"code":"212032210","name":"高根町阿多野郷","lat":36.062794,"lng":137.535034},{"code":"212032221","name":"高根町池ケ洞","lat":36.073682,"lng":137.49878},{"code":"212032222","name":"高根町黍生","lat":36.05855,"lng":137.506002},{"code":"212032230","name":"高根町猪之鼻","lat":36.017856,"lng":137.433906},{"code":"212032240","name":"高根町大古井","lat":36.001342,"lng":137.473194},{"code":"212032250","name":"高根町上ケ洞","lat":36.03702,"lng":137.499321},{"code":"212032260","name":"高根町小日和田","lat":35.989351,"lng":137.54459},{"code":"212032270","name":"高根町下之向","lat":36.023434,"lng":137.457669},{"code":"212032280","name":"高根町中之宿","lat":36.035544,"lng":137.446423},{"code":"212032290","name":"高根町中洞","lat":36.072803,"lng":137.459707},{"code":"212032300","name":"高根町野麦","lat":36.053407,"lng":137.570254},{"code":"212032310","name":"高根町日影","lat":36.011898,"lng":137.471246},{"code":"212032321","name":"高根町日和田","lat":36.010436,"lng":137.546067},{"code":"212032322","name":"高根町留之原","lat":35.964806,"lng":137.500305},{"code":"212032330","name":"国府町三川","lat":36.189881,"lng":137.26715},{"code":"212032340","name":"国府町上広瀬","lat":36.20381,"lng":137.253431},{"code":"212032350","name":"国府町村山","lat":36.195235,"lng":137.251731},{"code":"212032360","name":"国府町糠塚","lat":36.188727,"lng":137.234023},{"code":"212032370","name":"国府町金桶","lat":36.198612,"lng":137.229229},{"code":"212032380","name":"国府町瓜巣","lat":36.178562,"lng":137.178852},{"code":"212032390","name":"国府町名張","lat":36.204455,"lng":137.211249},{"code":"21203240000","name":"国府町宇津江","lat":36.19925,"lng":137.170777},{"code":"21203240002","name":"国府町宇津江","lat":36.216377,"lng":137.198015},{"code":"21203240003","name":"国府町宇津江","lat":36.217204,"lng":137.194709},{"code":"212032410","name":"国府町広瀬町","lat":36.211117,"lng":137.218636},{"code":"212032420","name":"国府町三日町","lat":36.214539,"lng":137.221981},{"code":"212032430","name":"国府町蓑輪","lat":36.213946,"lng":137.233918},{"code":"212032440","name":"国府町今","lat":36.215903,"lng":137.247496},{"code":"212032450","name":"国府町宮地","lat":36.232518,"lng":137.272944},{"code":"212032460","name":"国府町東門前","lat":36.22745,"lng":137.254909},{"code":"212032470","name":"国府町西門前","lat":36.230027,"lng":137.246201},{"code":"212032480","name":"国府町八日町","lat":36.238889,"lng":137.240743},{"code":"212032490","name":"国府町漆垣内","lat":36.222159,"lng":137.232398},{"code":"212032500","name":"国府町桐谷","lat":36.23978,"lng":137.223711},{"code":"212032510","name":"国府町半田","lat":36.221913,"lng":137.224399},{"code":"212032520","name":"国府町木曽垣内","lat":36.221538,"lng":137.216185},{"code":"212032530","name":"国府町鶴巣","lat":36.225499,"lng":137.208405},{"code":"212032540","name":"国府町山本","lat":36.234083,"lng":137.207391},{"code":"212032550","name":"上宝町新田","lat":36.272454,"lng":137.378388},{"code":"212032560","name":"上宝町荒原","lat":36.2629,"lng":137.265289},{"code":"212032570","name":"奥飛騨温泉郷今見","lat":36.255578,"lng":137.506341},{"code":"212032580","name":"上宝町岩井戸","lat":36.287617,"lng":137.401857},{"code":"212032590","name":"奥飛騨温泉郷柏当","lat":36.234936,"lng":137.506533},{"code":"212032600","name":"上宝町金木戸","lat":36.350935,"lng":137.507674},{"code":"212032610","name":"奥飛騨温泉郷神坂","lat":36.301548,"lng":137.594373},{"code":"212032620","name":"上宝町葛山","lat":36.264276,"lng":137.442961},{"code":"212032630","name":"上宝町蔵柱","lat":36.267948,"lng":137.318925},{"code":"212032640","name":"奥飛騨温泉郷笹島","lat":36.274919,"lng":137.483655},{"code":"212032650","name":"上宝町在家","lat":36.267117,"lng":137.367624},{"code":"212032660","name":"上宝町双六","lat":36.320748,"lng":137.394119},{"code":"212032670","name":"奥飛騨温泉郷田頃家","lat":36.283009,"lng":137.520745},{"code":"212032680","name":"奥飛騨温泉郷栃尾","lat":36.262364,"lng":137.525612},{"code":"212032690","name":"奥飛騨温泉郷中尾","lat":36.252802,"lng":137.589191},{"code":"212032700","name":"上宝町中山","lat":36.295113,"lng":137.376499},{"code":"212032710","name":"上宝町長倉","lat":36.274406,"lng":137.41234},{"code":"212032720","name":"上宝町鼠餅","lat":36.244957,"lng":137.400173},{"code":"212032730","name":"奥飛騨温泉郷一重ケ根","lat":36.227249,"lng":137.554143},{"code":"212032740","name":"奥飛騨温泉郷平湯","lat":36.178529,"lng":137.561529},{"code":"212032750","name":"奥飛騨温泉郷福地","lat":36.212194,"lng":137.522549},{"code":"212032760","name":"上宝町本郷","lat":36.280625,"lng":137.359592},{"code":"212032770","name":"上宝町見座","lat":36.292062,"lng":137.369622},{"code":"212032780","name":"上宝町宮原","lat":36.282784,"lng":137.375467},{"code":"212032790","name":"奥飛騨温泉郷村上","lat":36.245345,"lng":137.51634},{"code":"212032800","name":"上宝町吉野","lat":36.289038,"lng":137.343928},{"code":"212032810","name":"上宝町苧生茂","lat":36.244688,"lng":137.441146},{"code":"212032820","name":"奥飛騨温泉郷蓼之俣","lat":36.231946,"lng":137.491297},{"code":"212032830","name":"奥飛騨温泉郷赤桶","lat":36.238335,"lng":137.468875},{"code":"212032840","name":"上宝町下佐谷","lat":36.30175,"lng":137.469091}]}
