{"municipality":"21216","name":"瑞穂市","prefecture":"岐阜県","source":{"dataset":"frogcat/japan-small-area","census":"平成27年国勢調査 小地域（e-Stat 統計LOD）","license":"MIT（リポジトリ）／政府統計の総合窓口(e-Stat)の利用規約（元データ・出典表記必要）","fetched":"2026-07-06"},"towns":[{"code":"212160111","name":"馬場","lat":35.416378,"lng":136.680558},{"code":"212160112","name":"馬場北町","lat":35.41671,"lng":136.678914},{"code":"21216012001","name":"馬場前畑町１丁目","lat":35.414933,"lng":136.679651},{"code":"21216012002","name":"馬場前畑町２丁目","lat":35.412891,"lng":136.679593},{"code":"21216012003","name":"馬場前畑町３丁目","lat":35.413274,"lng":136.682165},{"code":"21216013001","name":"馬場上光町１丁目","lat":35.413322,"lng":136.684851},{"code":"21216013002","name":"馬場上光町２丁目","lat":35.410945,"lng":136.68538},{"code":"21216013003","name":"馬場上光町３丁目","lat":35.409419,"lng":136.687801},{"code":"21216014001","name":"馬場春雨町１丁目","lat":35.412226,"lng":136.687824},{"code":"21216014002","name":"馬場春雨町２丁目","lat":35.411048,"lng":136.691168},{"code":"21216015001","name":"馬場小城町１丁目","lat":35.409265,"lng":136.689774},{"code":"21216015002","name":"馬場小城町２丁目","lat":35.409037,"lng":136.692},{"code":"212160210","name":"生津","lat":35.404796,"lng":136.690125},{"code":"21216022001","name":"生津滝坪町１丁目","lat":35.410098,"lng":136.683293},{"code":"21216022002","name":"生津滝坪町２丁目","lat":35.408287,"lng":136.683774},{"code":"21216023001","name":"生津内宮町１丁目","lat":35.408633,"lng":136.685714},{"code":"21216023002","name":"生津内宮町２丁目","lat":35.407212,"lng":136.688066},{"code":"21216024001","name":"生津外宮東町１丁目","lat":35.406879,"lng":136.691177},{"code":"21216024002","name":"生津外宮東町２丁目","lat":35.405596,"lng":136.691282},{"code":"21216025001","name":"生津外宮前町１丁目","lat":35.403141,"lng":136.69083},{"code":"21216025002","name":"生津外宮前町２丁目","lat":35.403655,"lng":136.692385},{"code":"21216026001","name":"生津天王町１丁目","lat":35.404518,"lng":136.69459},{"code":"21216026002","name":"生津天王町２丁目","lat":35.401909,"lng":136.695527},{"code":"21216027001","name":"生津天王東町１丁目","lat":35.406114,"lng":136.697146},{"code":"21216027002","name":"生津天王東町２丁目","lat":35.403112,"lng":136.697558},{"code":"212160300","name":"本田","lat":35.408327,"lng":136.676071},{"code":"212160400","name":"只越","lat":35.399357,"lng":136.683875},{"code":"212160500","name":"別府","lat":35.394418,"lng":136.684759},{"code":"21216060001","name":"穂積","lat":35.380767,"lng":136.69636},{"code":"21216060002","name":"穂積","lat":35.391576,"lng":136.697612},{"code":"212160700","name":"稲里","lat":35.387463,"lng":136.684182},{"code":"212160800","name":"十九条","lat":35.394016,"lng":136.664307},{"code":"212160900","name":"牛牧","lat":35.383259,"lng":136.670476},{"code":"212161000","name":"宝江","lat":35.373133,"lng":136.667316},{"code":"212161100","name":"野田新田","lat":35.385652,"lng":136.679535},{"code":"212161200","name":"野白新田","lat":35.378578,"lng":136.679882},{"code":"212161300","name":"祖父江","lat":35.374848,"lng":136.686101},{"code":"212161310","name":"七崎","lat":35.424406,"lng":136.6369},{"code":"212161320","name":"居倉","lat":35.419899,"lng":136.643514},{"code":"212161330","name":"森","lat":35.418743,"lng":136.65111},{"code":"212161340","name":"田之上","lat":35.410749,"lng":136.650052},{"code":"212161350","name":"唐栗","lat":35.413946,"lng":136.640527},{"code":"212161360","name":"宮田","lat":35.405722,"lng":136.645238},{"code":"212161370","name":"大月","lat":35.399752,"lng":136.645364},{"code":"212161380","name":"重里","lat":35.418067,"lng":136.662984},{"code":"212161390","name":"美江寺","lat":35.411946,"lng":136.661188},{"code":"212161400","name":"十七条","lat":35.405756,"lng":136.661794},{"code":"212161410","name":"十八条","lat":35.40026,"lng":136.661525},{"code":"212161420","name":"古橋","lat":35.392058,"lng":136.654454},{"code":"212161430","name":"横屋","lat":35.382423,"lng":136.661581},{"code":"212161440","name":"中宮","lat":35.387802,"lng":136.649105},{"code":"212161450","name":"呂久","lat":35.392851,"lng":136.643823},{"code":"212161460","name":"東結","lat":35.369916,"lng":136.668153},{"code":"21216147001","name":"犀川一丁目","lat":35.369876,"lng":136.67331},{"code":"21216147002","name":"犀川二丁目","lat":35.368137,"lng":136.673041},{"code":"21216147003","name":"犀川三丁目","lat":35.369831,"lng":136.675348},{"code":"21216147004","name":"犀川四丁目","lat":35.367903,"lng":136.675199},{"code":"21216147005","name":"犀川五丁目","lat":35.369782,"lng":136.677876},{"code":"21216147006","name":"犀川六丁目","lat":35.36786,"lng":136.676946},{"code":"212161480","name":"犀川堤外地","lat":35.372789,"lng":136.676378}]}
