{"municipality":"21381","name":"安八郡神戸町","prefecture":"岐阜県","source":{"dataset":"frogcat/japan-small-area","census":"平成27年国勢調査 小地域（e-Stat 統計LOD）","license":"MIT（リポジトリ）／政府統計の総合窓口(e-Stat)の利用規約（元データ・出典表記必要）","fetched":"2026-07-06"},"towns":[{"code":"21381001001","name":"大字神戸三津屋","lat":35.420925,"lng":136.602565},{"code":"21381001002","name":"大字神戸宮町","lat":35.422645,"lng":136.604313},{"code":"21381001003","name":"大字神戸本町","lat":35.419791,"lng":136.604593},{"code":"21381001004","name":"大字神戸横町","lat":35.421201,"lng":136.606365},{"code":"21381001005","name":"大字神戸上新町","lat":35.419608,"lng":136.606613},{"code":"21381001006","name":"大字神戸鍛冶屋町","lat":35.417615,"lng":136.604641},{"code":"21381001007","name":"大字神戸下新町","lat":35.416414,"lng":136.608802},{"code":"21381001008","name":"大字神戸栄町","lat":35.423016,"lng":136.611833},{"code":"21381001009","name":"大字神戸福井","lat":35.419547,"lng":136.618784},{"code":"21381001010","name":"大字神戸","lat":35.425256,"lng":136.602962},{"code":"21381001011","name":"大字神戸井田","lat":35.424081,"lng":136.606145},{"code":"21381001012","name":"大字神戸栄町","lat":35.425238,"lng":136.615736},{"code":"21381001013","name":"大字神戸起","lat":35.421576,"lng":136.616235},{"code":"21381001014","name":"大字神戸","lat":35.421651,"lng":136.613258},{"code":"213810020","name":"大字西座倉","lat":35.422926,"lng":136.626131},{"code":"213810030","name":"大字新屋敷","lat":35.411451,"lng":136.623918},{"code":"213810040","name":"大字下宮","lat":35.41243,"lng":136.613598},{"code":"213810050","name":"大字前田","lat":35.407337,"lng":136.608858},{"code":"21381006001","name":"大字瀬古","lat":35.406153,"lng":136.618777},{"code":"21381006002","name":"大字瀬古","lat":35.404888,"lng":136.620847},{"code":"213810070","name":"大字柳瀬","lat":35.395369,"lng":136.62925},{"code":"21381008001","name":"大字落合","lat":35.406112,"lng":136.63327},{"code":"21381008002","name":"大字落合付寄","lat":35.403,"lng":136.630671},{"code":"213810090","name":"大字斉田","lat":35.397469,"lng":136.637469},{"code":"213810100","name":"大字更屋敷","lat":35.415736,"lng":136.588601},{"code":"213810110","name":"大字川西","lat":35.413601,"lng":136.605014},{"code":"21381012001","name":"大字末守昭和町","lat":35.417254,"lng":136.60159},{"code":"21381012002","name":"大字末守幸町","lat":35.417961,"lng":136.597159},{"code":"21381012003","name":"大字末守","lat":35.419685,"lng":136.600149},{"code":"21381012004","name":"大字末守清水町","lat":35.425503,"lng":136.60019},{"code":"21381012005","name":"大字末守","lat":35.422816,"lng":136.59284},{"code":"21381013001","name":"大字西保","lat":35.412621,"lng":136.594548},{"code":"21381013002","name":"大字西保東方","lat":35.410652,"lng":136.601922},{"code":"21381013003","name":"大字西保新西保","lat":35.411429,"lng":136.586061},{"code":"213810140","name":"大字南方","lat":35.40639,"lng":136.591978},{"code":"213810150","name":"大字八条","lat":35.407031,"lng":136.600829},{"code":"213810160","name":"大字和泉","lat":35.401234,"lng":136.597798},{"code":"213810170","name":"大字加納","lat":35.40182,"lng":136.605847},{"code":"213810180","name":"大字中沢","lat":35.395541,"lng":136.603769},{"code":"21381019001","name":"大字横井中島","lat":35.438157,"lng":136.591057},{"code":"21381019002","name":"大字横井","lat":35.441264,"lng":136.599869},{"code":"213810200","name":"大字安次","lat":35.431401,"lng":136.605423},{"code":"213810210","name":"大字田","lat":35.434006,"lng":136.599646},{"code":"21381022001","name":"大字北一色峰之井","lat":35.435361,"lng":136.594479},{"code":"21381022002","name":"大字北一色","lat":35.430585,"lng":136.591096},{"code":"21381022003","name":"大字北一色","lat":35.436691,"lng":136.589578},{"code":"21381022004","name":"大字北一色第一中島","lat":35.434964,"lng":136.589529},{"code":"21381022005","name":"大字北一色北島","lat":35.433043,"lng":136.592529},{"code":"21381023001","name":"大字丈六道","lat":35.427136,"lng":136.607644},{"code":"21381023002","name":"大字丈六道","lat":35.430184,"lng":136.612519}]}
