{"municipality":"22131","name":"浜松市中区","prefecture":"静岡県","source":{"dataset":"frogcat/japan-small-area","census":"平成27年国勢調査 小地域（e-Stat 統計LOD）","license":"MIT（リポジトリ）／政府統計の総合窓口(e-Stat)の利用規約（元データ・出典表記必要）","fetched":"2026-07-06"},"towns":[{"code":"221310010","name":"利町","lat":34.706045,"lng":137.725857},{"code":"221310020","name":"紺屋町","lat":34.707514,"lng":137.725955},{"code":"221310030","name":"松城町","lat":34.711208,"lng":137.724055},{"code":"221310040","name":"元城町","lat":34.711459,"lng":137.72691},{"code":"221310050","name":"神明町","lat":34.708059,"lng":137.728499},{"code":"221310060","name":"連尺町","lat":34.707342,"lng":137.727778},{"code":"221310070","name":"肴町","lat":34.706704,"lng":137.729378},{"code":"221310080","name":"田町","lat":34.708177,"lng":137.731318},{"code":"221310090","name":"池町","lat":34.709448,"lng":137.729482},{"code":"221310100","name":"尾張町","lat":34.711152,"lng":137.729888},{"code":"221310110","name":"元目町","lat":34.712925,"lng":137.729619},{"code":"221310120","name":"北田町","lat":34.712388,"lng":137.73147},{"code":"221310130","name":"旭町","lat":34.705142,"lng":137.733627},{"code":"221310140","name":"鍛冶町","lat":34.70476,"lng":137.73093},{"code":"221310150","name":"千歳町","lat":34.703827,"lng":137.730289},{"code":"221310160","name":"伝馬町","lat":34.705053,"lng":137.728226},{"code":"221310170","name":"大工町","lat":34.704614,"lng":137.727471},{"code":"221310180","name":"栄町","lat":34.704374,"lng":137.725539},{"code":"221310190","name":"西伊場町","lat":34.700465,"lng":137.70476},{"code":"221310200","name":"南伊場町","lat":34.697667,"lng":137.711113},{"code":"22131021001","name":"鴨江一丁目","lat":34.702554,"lng":137.720926},{"code":"22131021002","name":"鴨江二丁目","lat":34.703568,"lng":137.713223},{"code":"22131021003","name":"鴨江三丁目","lat":34.707288,"lng":137.712418},{"code":"22131021004","name":"鴨江四丁目","lat":34.705727,"lng":137.718829},{"code":"221310220","name":"鴨江町","lat":34.705319,"lng":137.722047},{"code":"221310230","name":"中山町","lat":34.706615,"lng":137.722819},{"code":"221310240","name":"三組町","lat":34.708906,"lng":137.720082},{"code":"221310250","name":"鹿谷町","lat":34.715938,"lng":137.7214},{"code":"22131026001","name":"広沢一丁目","lat":34.715696,"lng":137.717666},{"code":"22131026002","name":"広沢二丁目","lat":34.715462,"lng":137.713512},{"code":"22131026003","name":"広沢三丁目","lat":34.710799,"lng":137.716407},{"code":"221310270","name":"高町","lat":34.709675,"lng":137.722482},{"code":"22131028001","name":"城北一丁目","lat":34.719467,"lng":137.723906},{"code":"22131028002","name":"城北二丁目","lat":34.723815,"lng":137.721929},{"code":"22131028003","name":"城北三丁目","lat":34.72456,"lng":137.717494},{"code":"22131029001","name":"布橋一丁目","lat":34.719746,"lng":137.720514},{"code":"22131029002","name":"布橋二丁目","lat":34.720738,"lng":137.716364},{"code":"22131029003","name":"布橋三丁目","lat":34.720459,"lng":137.712561},{"code":"221310300","name":"文丘町","lat":34.725308,"lng":137.713813},{"code":"22131031001","name":"和地山一丁目","lat":34.726926,"lng":137.721034},{"code":"22131031002","name":"和地山二丁目","lat":34.729489,"lng":137.719627},{"code":"22131031003","name":"和地山三丁目","lat":34.728847,"lng":137.716976},{"code":"22131032001","name":"蜆塚一丁目","lat":34.712224,"lng":137.712687},{"code":"22131032002","name":"蜆塚二丁目","lat":34.713414,"lng":137.709176},{"code":"22131032003","name":"蜆塚三丁目","lat":34.715099,"lng":137.706786},{"code":"22131032004","name":"蜆塚四丁目","lat":34.711587,"lng":137.704876},{"code":"221310330","name":"山手町","lat":34.708151,"lng":137.70508},{"code":"221310340","name":"山下町","lat":34.716527,"lng":137.7301},{"code":"221310350","name":"中沢町","lat":34.721311,"lng":137.729601},{"code":"221310360","name":"元浜町","lat":34.715321,"lng":137.732517},{"code":"221310370","name":"下池川町","lat":34.716913,"lng":137.726976},{"code":"221310380","name":"野口町","lat":34.716814,"lng":137.739326},{"code":"221310390","name":"八幡町","lat":34.71507,"lng":137.735681},{"code":"221310400","name":"船越町","lat":34.717063,"lng":137.745076},{"code":"221310410","name":"常盤町","lat":34.710928,"lng":137.732345},{"code":"221310420","name":"早馬町","lat":34.710826,"lng":137.733603},{"code":"221310430","name":"東田町","lat":34.709131,"lng":137.733784},{"code":"221310440","name":"板屋町","lat":34.706977,"lng":137.735473},{"code":"221310460","name":"砂山町","lat":34.702327,"lng":137.73618},{"code":"221310470","name":"寺島町","lat":34.699192,"lng":137.73833},{"code":"221310480","name":"龍禅寺町","lat":34.695808,"lng":137.740176},{"code":"221310490","name":"北寺島町","lat":34.703117,"lng":137.742518},{"code":"221310500","name":"元魚町","lat":34.702852,"lng":137.726365},{"code":"221310510","name":"旅篭町","lat":34.702612,"lng":137.728207},{"code":"221310520","name":"平田町","lat":34.702257,"lng":137.729651},{"code":"221310530","name":"塩町","lat":34.701381,"lng":137.728179},{"code":"221310540","name":"成子町","lat":34.701003,"lng":137.726061},{"code":"221310550","name":"菅原町","lat":34.698659,"lng":137.724644},{"code":"22131056001","name":"東伊場一丁目","lat":34.700419,"lng":137.717806},{"code":"22131056002","name":"東伊場二丁目","lat":34.697197,"lng":137.717974},{"code":"22131057001","name":"佐鳴台一丁目","lat":34.703675,"lng":137.701595},{"code":"22131057002","name":"佐鳴台二丁目","lat":34.7031,"lng":137.694672},{"code":"22131057003","name":"佐鳴台三丁目","lat":34.706554,"lng":137.697062},{"code":"22131057004","name":"佐鳴台四丁目","lat":34.709368,"lng":137.700721},{"code":"22131057005","name":"佐鳴台五丁目","lat":34.713064,"lng":137.699074},{"code":"22131057006","name":"佐鳴台六丁目","lat":34.706634,"lng":137.692653},{"code":"221310580","name":"富塚町","lat":34.726216,"lng":137.700657},{"code":"22131059001","name":"住吉一丁目","lat":34.728151,"lng":137.724628},{"code":"22131059002","name":"住吉二丁目","lat":34.730869,"lng":137.725477},{"code":"22131059003","name":"住吉三丁目","lat":34.734911,"lng":137.724865},{"code":"22131059004","name":"住吉四丁目","lat":34.731037,"lng":137.729577},{"code":"22131059005","name":"住吉五丁目","lat":34.734644,"lng":137.729668},{"code":"22131060001","name":"幸一丁目","lat":34.739873,"lng":137.725045},{"code":"22131060002","name":"幸二丁目","lat":34.737972,"lng":137.730088},{"code":"22131060003","name":"幸三丁目","lat":34.741172,"lng":137.731031},{"code":"22131060004","name":"幸四丁目","lat":34.744935,"lng":137.73018},{"code":"22131060005","name":"幸五丁目","lat":34.745323,"lng":137.725305},{"code":"22131061001","name":"萩丘一丁目","lat":34.749098,"lng":137.72554},{"code":"22131061002","name":"萩丘二丁目","lat":34.74801,"lng":137.729667},{"code":"22131061003","name":"萩丘三丁目","lat":34.748735,"lng":137.733556},{"code":"22131061004","name":"萩丘四丁目","lat":34.74759,"lng":137.736428},{"code":"22131061005","name":"萩丘五丁目","lat":34.75192,"lng":137.73387},{"code":"22131062001","name":"小豆餅一丁目","lat":34.754371,"lng":137.724364},{"code":"22131062002","name":"小豆餅二丁目","lat":34.753752,"lng":137.726541},{"code":"22131062003","name":"小豆餅三丁目","lat":34.753729,"lng":137.72869},{"code":"22131062004","name":"小豆餅四丁目","lat":34.752756,"lng":137.731099},{"code":"22131063001","name":"葵西一丁目","lat":34.765298,"lng":137.713709},{"code":"22131063002","name":"葵西二丁目","lat":34.767896,"lng":137.711235},{"code":"22131063003","name":"葵西三丁目","lat":34.770372,"lng":137.70739},{"code":"22131063004","name":"葵西四丁目","lat":34.772976,"lng":137.705484},{"code":"22131063005","name":"葵西五丁目","lat":34.775476,"lng":137.703474},{"code":"22131063006","name":"葵西六丁目","lat":34.769756,"lng":137.701284},{"code":"22131064001","name":"葵東一丁目","lat":34.754288,"lng":137.719941},{"code":"22131064002","name":"葵東二丁目","lat":34.759438,"lng":137.723212},{"code":"22131064003","name":"葵東三丁目","lat":34.763401,"lng":137.719},{"code":"221310650","name":"高丘町","lat":34.752981,"lng":137.698488},{"code":"22131066001","name":"高丘東一丁目","lat":34.754762,"lng":137.707261},{"code":"22131066002","name":"高丘東二丁目","lat":34.756136,"lng":137.713682},{"code":"22131066003","name":"高丘東三丁目","lat":34.759977,"lng":137.717585},{"code":"22131066004","name":"高丘東四丁目","lat":34.75873,"lng":137.709702},{"code":"22131066005","name":"高丘東五丁目","lat":34.762481,"lng":137.713312},{"code":"22131067001","name":"高丘西一丁目","lat":34.756205,"lng":137.702221},{"code":"22131067002","name":"高丘西二丁目","lat":34.758173,"lng":137.698897},{"code":"22131067003","name":"高丘西三丁目","lat":34.760243,"lng":137.695627},{"code":"22131067004","name":"高丘西四丁目","lat":34.761765,"lng":137.692282},{"code":"22131068001","name":"高丘北一丁目","lat":34.762121,"lng":137.707698},{"code":"22131068002","name":"高丘北二丁目","lat":34.763878,"lng":137.704162},{"code":"22131068003","name":"高丘北三丁目","lat":34.765366,"lng":137.700535},{"code":"22131068004","name":"高丘北四丁目","lat":34.76639,"lng":137.696559},{"code":"221310700","name":"泉町","lat":34.749677,"lng":137.714432},{"code":"22131071001","name":"泉一丁目","lat":34.739232,"lng":137.721089},{"code":"22131071002","name":"泉二丁目","lat":34.743257,"lng":137.721718},{"code":"22131071003","name":"泉三丁目","lat":34.747626,"lng":137.722201},{"code":"22131071004","name":"泉四丁目","lat":34.746434,"lng":137.716965},{"code":"22131072101","name":"和合北一丁目","lat":34.73688,"lng":137.720662},{"code":"22131072102","name":"和合北二丁目","lat":34.739868,"lng":137.71737},{"code":"22131072103","name":"和合北三丁目","lat":34.739748,"lng":137.714666},{"code":"22131072104","name":"和合北四丁目","lat":34.743779,"lng":137.715369},{"code":"221310722","name":"和合町","lat":34.738776,"lng":137.708827},{"code":"221310730","name":"新津町","lat":34.722076,"lng":137.741559},{"code":"221310740","name":"茄子町","lat":34.721261,"lng":137.747433},{"code":"221310750","name":"助信町","lat":34.722401,"lng":137.736316},{"code":"22131076001","name":"高林一丁目","lat":34.725991,"lng":137.730767},{"code":"22131076002","name":"高林二丁目","lat":34.725284,"lng":137.734507},{"code":"22131076003","name":"高林三丁目","lat":34.727828,"lng":137.735489},{"code":"22131076004","name":"高林四丁目","lat":34.729442,"lng":137.732628},{"code":"22131076005","name":"高林五丁目","lat":34.733283,"lng":137.73505},{"code":"221310770","name":"曳馬町","lat":34.723893,"lng":137.745611},{"code":"22131078001","name":"曳馬一丁目","lat":34.728298,"lng":137.738183},{"code":"22131078002","name":"曳馬二丁目","lat":34.727275,"lng":137.741176},{"code":"22131078003","name":"曳馬三丁目","lat":34.726424,"lng":137.744898},{"code":"22131078004","name":"曳馬四丁目","lat":34.730717,"lng":137.742934},{"code":"22131078005","name":"曳馬五丁目","lat":34.732207,"lng":137.738456},{"code":"22131078006","name":"曳馬六丁目","lat":34.736373,"lng":137.73712},{"code":"221310790","name":"細島町","lat":34.722576,"lng":137.750535},{"code":"221310800","name":"十軒町","lat":34.733431,"lng":137.744595},{"code":"221310810","name":"早出町","lat":34.732437,"lng":137.749767},{"code":"22131082001","name":"上島一丁目","lat":34.738245,"lng":137.740594},{"code":"22131082002","name":"上島二丁目","lat":34.741162,"lng":137.741545},{"code":"22131082003","name":"上島三丁目","lat":34.739557,"lng":137.746863},{"code":"22131082004","name":"上島四丁目","lat":34.743548,"lng":137.748584},{"code":"22131082005","name":"上島五丁目","lat":34.744093,"lng":137.743848},{"code":"22131082006","name":"上島六丁目","lat":34.743263,"lng":137.736759},{"code":"22131082007","name":"上島七丁目","lat":34.747341,"lng":137.741307},{"code":"221310830","name":"木戸町","lat":34.708697,"lng":137.743205},{"code":"221310840","name":"相生町","lat":34.708032,"lng":137.747384},{"code":"22131085001","name":"佐藤一丁目","lat":34.712995,"lng":137.745473},{"code":"22131085002","name":"佐藤二丁目","lat":34.712745,"lng":137.748139},{"code":"22131085003","name":"佐藤三丁目","lat":34.713527,"lng":137.750811},{"code":"221310860","name":"天神町","lat":34.710445,"lng":137.75171},{"code":"221310870","name":"富吉町","lat":34.70894,"lng":137.75319},{"code":"22131088001","name":"向宿一丁目","lat":34.707232,"lng":137.751836},{"code":"22131088002","name":"向宿二丁目","lat":34.704618,"lng":137.752166},{"code":"22131088003","name":"向宿三丁目","lat":34.701892,"lng":137.752456},{"code":"221310890","name":"名塚町","lat":34.703276,"lng":137.757163},{"code":"22131090001","name":"領家一丁目","lat":34.699869,"lng":137.752425},{"code":"22131090002","name":"領家二丁目","lat":34.697246,"lng":137.752492},{"code":"22131090003","name":"領家三丁目","lat":34.694388,"lng":137.752437},{"code":"221310910","name":"中島町","lat":34.694644,"lng":137.749203},{"code":"22131092001","name":"中島一丁目","lat":34.704954,"lng":137.747131},{"code":"22131092002","name":"中島二丁目","lat":34.701732,"lng":137.74756},{"code":"22131092003","name":"中島三丁目","lat":34.698675,"lng":137.747428},{"code":"22131092004","name":"中島四丁目","lat":34.696415,"lng":137.747415},{"code":"221310930","name":"海老塚町","lat":34.699788,"lng":137.730976},{"code":"22131094001","name":"海老塚一丁目","lat":34.698917,"lng":137.730086},{"code":"22131094002","name":"海老塚二丁目","lat":34.698022,"lng":137.732353},{"code":"22131095001","name":"西浅田一丁目","lat":34.694528,"lng":137.72272},{"code":"22131095002","name":"西浅田二丁目","lat":34.693612,"lng":137.725293},{"code":"22131096001","name":"上浅田一丁目","lat":34.696228,"lng":137.727188},{"code":"22131096002","name":"上浅田二丁目","lat":34.694885,"lng":137.729894},{"code":"22131097001","name":"南浅田一丁目","lat":34.691645,"lng":137.729736},{"code":"22131097002","name":"南浅田二丁目","lat":34.688248,"lng":137.730603},{"code":"221310980","name":"浅田町","lat":34.694605,"lng":137.733946},{"code":"221310990","name":"森田町","lat":34.694038,"lng":137.718544},{"code":"221311000","name":"春日町","lat":34.689667,"lng":137.724842},{"code":"221311010","name":"神田町","lat":34.686974,"lng":137.721467},{"code":"221311020","name":"瓜内町","lat":34.683668,"lng":137.730988},{"code":"221311030","name":"法枝町","lat":34.684038,"lng":137.72752},{"code":"221311040","name":"花川町","lat":34.777297,"lng":137.691285},{"code":"221311050","name":"西丘町","lat":34.771825,"lng":137.694},{"code":"22131106001","name":"中央一丁目","lat":34.711058,"lng":137.735831},{"code":"22131106002","name":"中央二丁目","lat":34.710753,"lng":137.739606},{"code":"22131106003","name":"中央三丁目","lat":34.707186,"lng":137.739932}]}
