{"municipality":"22203","name":"沼津市","prefecture":"静岡県","source":{"dataset":"frogcat/japan-small-area","census":"平成27年国勢調査 小地域（e-Stat 統計LOD）","license":"MIT（リポジトリ）／政府統計の総合窓口(e-Stat)の利用規約（元データ・出典表記必要）","fetched":"2026-07-06"},"towns":[{"code":"22203003001","name":"三枚橋杉崎町","lat":35.110683,"lng":138.866579},{"code":"22203003002","name":"三枚橋竹ノ岬","lat":35.110014,"lng":138.871535},{"code":"22203003003","name":"三枚橋日ノ出町","lat":35.110553,"lng":138.868281},{"code":"22203003004","name":"三枚橋鐘突免","lat":35.112689,"lng":138.8671},{"code":"222030070","name":"八幡町","lat":35.098357,"lng":138.855185},{"code":"222030091","name":"市道町","lat":35.097175,"lng":138.850525},{"code":"22203009201","name":"本字出口町","lat":35.094618,"lng":138.853979},{"code":"22203009205","name":"本白銀町","lat":35.102304,"lng":138.852683},{"code":"22203009206","name":"本字仲町","lat":35.093695,"lng":138.857764},{"code":"22203009207","name":"本字浅間町","lat":35.094047,"lng":138.855225},{"code":"22203009208","name":"本字新町","lat":35.093888,"lng":138.856787},{"code":"22203009209","name":"本錦町","lat":35.102623,"lng":138.850823},{"code":"22203009210","name":"本丸子町","lat":35.103462,"lng":138.848434},{"code":"22203009213","name":"本字下小路町","lat":35.093432,"lng":138.855667},{"code":"22203009214","name":"本字宮町","lat":35.09284,"lng":138.856934},{"code":"22203009216","name":"本蛇松","lat":35.08523,"lng":138.860942},{"code":"22203009217","name":"本字下河原町","lat":35.091689,"lng":138.857459},{"code":"22203009218","name":"本字下河原街出口","lat":35.090256,"lng":138.858158},{"code":"22203009219","name":"本字下一丁田","lat":35.094589,"lng":138.852233},{"code":"22203009220","name":"本字前田","lat":35.09527,"lng":138.853191},{"code":"22203009221","name":"本字千本郷林","lat":35.088329,"lng":138.851228},{"code":"22203009222","name":"本字千本","lat":35.091034,"lng":138.849254},{"code":"22203009223","name":"本松下","lat":35.096159,"lng":138.8492},{"code":"22203009224","name":"本西松下","lat":35.098187,"lng":138.847409},{"code":"22203009225","name":"本字松下七反田","lat":35.093946,"lng":138.850902},{"code":"22203009226","name":"本字千本港口","lat":35.080419,"lng":138.854098},{"code":"222030110","name":"旭町","lat":35.092527,"lng":138.854842},{"code":"222030120","name":"下河原町","lat":35.089003,"lng":138.857328},{"code":"22203013000","name":"千本緑町１丁目","lat":35.091983,"lng":138.852298},{"code":"22203013002","name":"千本緑町２丁目","lat":35.092966,"lng":138.853195},{"code":"22203013003","name":"千本緑町３丁目","lat":35.0916,"lng":138.853711},{"code":"222030160","name":"千本常盤町","lat":35.088878,"lng":138.852479},{"code":"22203017001","name":"常盤町１丁目","lat":35.090445,"lng":138.853349},{"code":"22203017002","name":"常盤町２丁目","lat":35.089353,"lng":138.854},{"code":"22203017003","name":"常盤町３丁目","lat":35.088141,"lng":138.854551},{"code":"222030200","name":"千本東町","lat":35.086683,"lng":138.857208},{"code":"222030210","name":"千本中町","lat":35.086519,"lng":138.85595},{"code":"222030220","name":"千本西町","lat":35.086207,"lng":138.854598},{"code":"222030230","name":"千本港町","lat":35.083494,"lng":138.857218},{"code":"222030240","name":"春日町","lat":35.083648,"lng":138.859296},{"code":"222030250","name":"蓼原町","lat":35.082959,"lng":138.860688},{"code":"22203026001","name":"上香貫仰天峰","lat":35.089702,"lng":138.880083},{"code":"22203026002","name":"上香貫長ケ洞","lat":35.090911,"lng":138.881965},{"code":"22203026003","name":"上香貫東坂","lat":35.089791,"lng":138.881556},{"code":"22203026004","name":"上香貫蔓陀ケ原","lat":35.074882,"lng":138.863105},{"code":"22203026007","name":"上香貫三貫地","lat":35.082989,"lng":138.866388},{"code":"22203026008","name":"上香貫東本郷町","lat":35.096924,"lng":138.872996},{"code":"22203026009","name":"上香貫二瀬川町","lat":35.086454,"lng":138.87001},{"code":"22203026010","name":"上香貫槇島町","lat":35.08589,"lng":138.866529},{"code":"22203026011","name":"上香貫宮原町","lat":35.08825,"lng":138.871562},{"code":"22203026012","name":"上香貫獅子路","lat":35.089019,"lng":138.872941},{"code":"22203026013","name":"上香貫一ノ洞","lat":35.089381,"lng":138.874478},{"code":"22203026014","name":"上香貫三ノ洞","lat":35.090199,"lng":138.878149},{"code":"22203026015","name":"上香貫九十九洞","lat":35.091093,"lng":138.885546},{"code":"22203026016","name":"上香貫坂口","lat":35.089746,"lng":138.885922},{"code":"22203026017","name":"上香貫手城山","lat":35.088984,"lng":138.883847},{"code":"22203026018","name":"上香貫八重","lat":35.087366,"lng":138.881831},{"code":"22203026019","name":"上香貫鉛山","lat":35.088928,"lng":138.885327},{"code":"22203026020","name":"上香貫三園町","lat":35.086078,"lng":138.867941},{"code":"22203026021","name":"上香貫南本郷町","lat":35.089346,"lng":138.870719},{"code":"22203026022","name":"上香貫天神洞","lat":35.095632,"lng":138.879793},{"code":"22203026023","name":"上香貫大洞","lat":35.093599,"lng":138.875672},{"code":"22203026024","name":"上香貫内山","lat":35.091848,"lng":138.873514},{"code":"22203026025","name":"上香貫三ノ洞東","lat":35.093252,"lng":138.884407},{"code":"22203026026","name":"上香貫三ノ洞東","lat":35.092025,"lng":138.884243},{"code":"22203026027","name":"上香貫猿石","lat":35.090448,"lng":138.884449},{"code":"22203026028","name":"上香貫二ノ洞","lat":35.090174,"lng":138.876042},{"code":"222030271","name":"香貫ヶ丘","lat":35.085631,"lng":138.880242},{"code":"22203027201","name":"下香貫石原","lat":35.080666,"lng":138.875728},{"code":"22203027202","name":"下香貫藤井原","lat":35.07895,"lng":138.874312},{"code":"22203027203","name":"下香貫矢丸","lat":35.081523,"lng":138.87742},{"code":"22203027204","name":"下香貫牛臥","lat":35.076003,"lng":138.865691},{"code":"22203027205","name":"下香貫山宮前","lat":35.073841,"lng":138.863365},{"code":"22203027206","name":"下香貫木ノ宮","lat":35.082086,"lng":138.880582},{"code":"22203027207","name":"下香貫前角","lat":35.084528,"lng":138.885745},{"code":"22203027208","name":"下香貫猪沼","lat":35.080948,"lng":138.885607},{"code":"22203027209","name":"下香貫塩場","lat":35.078377,"lng":138.867008},{"code":"22203027210","name":"下香貫前原","lat":35.078746,"lng":138.871153},{"code":"22203027211","name":"下香貫浜田","lat":35.077211,"lng":138.869202},{"code":"22203027212","name":"下香貫善太夫","lat":35.07885,"lng":138.868765},{"code":"22203027213","name":"下香貫上障子","lat":35.083279,"lng":138.868758},{"code":"22203027214","name":"下香貫下障子","lat":35.081017,"lng":138.868484},{"code":"22203027215","name":"下香貫外原","lat":35.090808,"lng":138.885687},{"code":"22203027216","name":"下香貫島郷","lat":35.072305,"lng":138.873011},{"code":"22203027217","name":"下香貫塚田","lat":35.07213,"lng":138.877635},{"code":"22203027218","name":"下香貫大久保","lat":35.071207,"lng":138.882082},{"code":"22203027219","name":"下香貫柿原","lat":35.075341,"lng":138.869453},{"code":"22203027220","name":"下香貫清水","lat":35.074348,"lng":138.880176},{"code":"22203027221","name":"下香貫馬場","lat":35.083356,"lng":138.871912},{"code":"22203027222","name":"下香貫西村","lat":35.080572,"lng":138.872229},{"code":"22203027223","name":"下香貫上ノ原","lat":35.08193,"lng":138.874057},{"code":"22203027224","name":"下香貫給田","lat":35.08463,"lng":138.86985},{"code":"22203027225","name":"下香貫塩満","lat":35.077177,"lng":138.877666},{"code":"22203027226","name":"下香貫七面","lat":35.07998,"lng":138.879159},{"code":"22203027227","name":"下香貫林ノ下","lat":35.077217,"lng":138.883272},{"code":"22203027228","name":"下香貫汐入","lat":35.074242,"lng":138.876751},{"code":"22203027229","name":"下香貫樋ノ口","lat":35.076426,"lng":138.874515},{"code":"22203027230","name":"下香貫宮脇","lat":35.086011,"lng":138.87334},{"code":"22203027231","name":"下香貫宮原","lat":35.08739,"lng":138.873268},{"code":"22203027232","name":"下香貫八重","lat":35.087219,"lng":138.881939},{"code":"22203027233","name":"下香貫八重原","lat":35.082895,"lng":138.875608},{"code":"22203027234","name":"下香貫楊原","lat":35.084233,"lng":138.878092},{"code":"22203027235","name":"下香貫六反","lat":35.082738,"lng":138.877389},{"code":"222030280","name":"善太夫西原","lat":35.07903,"lng":138.867967},{"code":"22203029001","name":"我入道秋葉町","lat":35.07667,"lng":138.86281},{"code":"22203029002","name":"我入道稲荷町","lat":35.077646,"lng":138.861379},{"code":"22203029003","name":"我入道江川","lat":35.081175,"lng":138.864306},{"code":"22203029004","name":"我入道南条寺","lat":35.078869,"lng":138.865045},{"code":"22203029005","name":"我入道津島町","lat":35.078798,"lng":138.860524},{"code":"22203029006","name":"我入道浜町","lat":35.078044,"lng":138.859072},{"code":"22203029007","name":"我入道蔓陀ケ原","lat":35.07558,"lng":138.862376},{"code":"22203029008","name":"我入道八間割","lat":35.075892,"lng":138.859374},{"code":"22203029009","name":"我入道浜方","lat":35.078324,"lng":138.857217},{"code":"22203029010","name":"我入道林町","lat":35.076637,"lng":138.860349},{"code":"22203029011","name":"我入道東町","lat":35.079986,"lng":138.862557},{"code":"22203029012","name":"我入道一本松町","lat":35.078725,"lng":138.863066},{"code":"22203030001","name":"大岡石田ケ丘","lat":35.107741,"lng":138.875288},{"code":"22203030002","name":"大岡駅前町","lat":35.116939,"lng":138.877684},{"code":"22203030003","name":"大岡自由ケ丘","lat":35.116781,"lng":138.87013},{"code":"22203030004","name":"大岡上石田","lat":35.120225,"lng":138.883051},{"code":"22203030005","name":"大岡木瀬川","lat":35.10624,"lng":138.884545},{"code":"22203030006","name":"大岡平和郷","lat":35.107473,"lng":138.882589},{"code":"22203030007","name":"大岡北小林","lat":35.134798,"lng":138.882101},{"code":"22203030008","name":"大岡下石田","lat":35.105888,"lng":138.877341},{"code":"22203030009","name":"大岡仙岳町","lat":35.116727,"lng":138.872287},{"code":"22203030010","name":"大岡太田町","lat":35.118189,"lng":138.873451},{"code":"22203030011","name":"大岡高田","lat":35.113379,"lng":138.870521},{"code":"22203030012","name":"大岡竹ノ岬","lat":35.108998,"lng":138.870546},{"code":"22203030013","name":"大岡駅前町","lat":35.11452,"lng":138.877302},{"code":"22203030014","name":"大岡中石田","lat":35.113304,"lng":138.881872},{"code":"22203030015","name":"大岡富岳町","lat":35.117056,"lng":138.874755},{"code":"22203030016","name":"大岡富士町","lat":35.111725,"lng":138.888183},{"code":"22203030017","name":"大岡沼平町","lat":35.112554,"lng":138.874594},{"code":"22203030018","name":"大岡南小林","lat":35.13021,"lng":138.887618},{"code":"22203030019","name":"大岡柏葉尾","lat":35.13853,"lng":138.88295},{"code":"22203030020","name":"大岡日吉","lat":35.103281,"lng":138.871992},{"code":"22203030021","name":"大岡","lat":35.108387,"lng":138.872298},{"code":"22203030022","name":"大岡笹原","lat":35.111344,"lng":138.866871},{"code":"222030310","name":"岡一色","lat":35.131184,"lng":138.877121},{"code":"222030320","name":"岡宮","lat":35.132352,"lng":138.868202},{"code":"222030330","name":"東熊堂","lat":35.133202,"lng":138.861821},{"code":"222030340","name":"西熊堂","lat":35.13474,"lng":138.857935},{"code":"222030350","name":"沢田","lat":35.119088,"lng":138.849269},{"code":"222030360","name":"東沢田","lat":35.13155,"lng":138.85533},{"code":"222030370","name":"中沢田","lat":35.130692,"lng":138.851263},{"code":"222030380","name":"西沢田","lat":35.126039,"lng":138.845691},{"code":"222030390","name":"足高","lat":35.176051,"lng":138.836345},{"code":"222030400","name":"宮前町","lat":35.122069,"lng":138.874122},{"code":"222030410","name":"共栄町","lat":35.119667,"lng":138.869811},{"code":"222030420","name":"緑ケ丘","lat":35.119912,"lng":138.873904},{"code":"222030430","name":"花園町","lat":35.122332,"lng":138.870212},{"code":"22203044000","name":"東間門","lat":35.107664,"lng":138.846422},{"code":"22203044001","name":"東間門１丁目","lat":35.101232,"lng":138.846244},{"code":"22203044002","name":"東間門２丁目","lat":35.100204,"lng":138.846811},{"code":"22203044003","name":"東間門３丁目","lat":35.099765,"lng":138.84602},{"code":"22203045000","name":"西間門","lat":35.104278,"lng":138.842191},{"code":"22203045002","name":"西間門２丁目","lat":35.101577,"lng":138.844223},{"code":"22203045003","name":"西間門３丁目","lat":35.100839,"lng":138.844056},{"code":"222030460","name":"小諏訪","lat":35.107615,"lng":138.837272},{"code":"222030470","name":"大諏訪","lat":35.112191,"lng":138.831536},{"code":"222030480","name":"松長","lat":35.116221,"lng":138.823286},{"code":"222030490","name":"今沢","lat":35.118254,"lng":138.815635},{"code":"222030500","name":"志下","lat":35.064393,"lng":138.883495},{"code":"222030510","name":"馬込","lat":35.059422,"lng":138.883953},{"code":"222030520","name":"獅子浜","lat":35.054149,"lng":138.886831},{"code":"222030530","name":"江浦","lat":35.053309,"lng":138.892742},{"code":"222030540","name":"多比","lat":35.054535,"lng":138.902779},{"code":"222030550","name":"口野","lat":35.041293,"lng":138.905392},{"code":"222030580","name":"蛇松町","lat":35.086654,"lng":138.859793},{"code":"222030590","name":"北園町","lat":35.124269,"lng":138.875438},{"code":"222030610","name":"大平","lat":35.070664,"lng":138.903177},{"code":"222030620","name":"東椎路","lat":35.126587,"lng":138.837065},{"code":"222030630","name":"西椎路","lat":35.130601,"lng":138.828104},{"code":"222030640","name":"東原","lat":35.134613,"lng":138.823988},{"code":"222030650","name":"鳥谷","lat":35.136089,"lng":138.81931},{"code":"222030660","name":"柳沢","lat":35.147226,"lng":138.819866},{"code":"222030670","name":"青野","lat":35.142003,"lng":138.811941},{"code":"222030680","name":"宮本","lat":35.175778,"lng":138.814226},{"code":"222030700","name":"内浦重寺","lat":35.033481,"lng":138.896286},{"code":"222030710","name":"内浦小海","lat":35.028748,"lng":138.897557},{"code":"222030720","name":"内浦三津","lat":35.022978,"lng":138.903902},{"code":"222030730","name":"内浦長浜","lat":35.014984,"lng":138.895949},{"code":"222030740","name":"内浦重須","lat":35.013861,"lng":138.885731},{"code":"222030750","name":"本田町","lat":35.110498,"lng":138.853029},{"code":"222030760","name":"双葉町","lat":35.106997,"lng":138.851082},{"code":"222030770","name":"高沢町","lat":35.106066,"lng":138.854855},{"code":"222030780","name":"庄栄町","lat":35.10821,"lng":138.861695},{"code":"222030790","name":"米山町","lat":35.107505,"lng":138.863284},{"code":"222030800","name":"西浦河内","lat":35.006806,"lng":138.869791},{"code":"222030810","name":"西浦木負","lat":35.018857,"lng":138.878416},{"code":"222030820","name":"西浦久連","lat":35.013094,"lng":138.86593},{"code":"222030830","name":"西浦平沢","lat":35.016166,"lng":138.8605},{"code":"222030840","name":"西浦立保","lat":35.007564,"lng":138.852116},{"code":"222030850","name":"西浦古宇","lat":34.998317,"lng":138.83792},{"code":"222030860","name":"西浦足保","lat":35.012885,"lng":138.833543},{"code":"222030870","name":"西浦久料","lat":35.017243,"lng":138.823859},{"code":"222030880","name":"西浦江梨","lat":35.020047,"lng":138.799461},{"code":"222030900","name":"大塚","lat":35.12262,"lng":138.808048},{"code":"22203091001","name":"原新田","lat":35.133257,"lng":138.781226},{"code":"22203091002","name":"原西町","lat":35.130353,"lng":138.792777},{"code":"22203091003","name":"原東町","lat":35.126207,"lng":138.801822},{"code":"22203091005","name":"原六軒町","lat":35.125994,"lng":138.789174},{"code":"222030920","name":"一本松","lat":35.131991,"lng":138.774797},{"code":"222030930","name":"桃里","lat":35.134305,"lng":138.766007},{"code":"222030940","name":"植田","lat":35.136335,"lng":138.758773},{"code":"222030950","name":"根古屋","lat":35.144872,"lng":138.806314},{"code":"222030960","name":"井出","lat":35.146195,"lng":138.797699},{"code":"222030970","name":"平沼","lat":35.150189,"lng":138.787581},{"code":"222030980","name":"石川","lat":35.155415,"lng":138.778962},{"code":"222030990","name":"西野","lat":35.173917,"lng":138.78921},{"code":"222031000","name":"駿河台","lat":35.127506,"lng":138.859435},{"code":"222031010","name":"高砂町","lat":35.131836,"lng":138.857887},{"code":"222031020","name":"市場町","lat":35.095693,"lng":138.860718},{"code":"222031030","name":"吉田町","lat":35.091425,"lng":138.861543},{"code":"222031040","name":"御幸町","lat":35.095727,"lng":138.864949},{"code":"222031050","name":"三園町","lat":35.089617,"lng":138.866114},{"code":"222031060","name":"玉江町","lat":35.088318,"lng":138.868815},{"code":"222031070","name":"本郷町","lat":35.095023,"lng":138.870641},{"code":"222031080","name":"住吉町","lat":35.093643,"lng":138.867217},{"code":"222031090","name":"南本郷町","lat":35.091029,"lng":138.869387},{"code":"222031100","name":"平町","lat":35.099813,"lng":138.867341},{"code":"222031110","name":"富士見町","lat":35.106165,"lng":138.868932},{"code":"222031120","name":"山王台","lat":35.102986,"lng":138.867808},{"code":"222031130","name":"三芳町","lat":35.103614,"lng":138.865676},{"code":"222031140","name":"筒井町","lat":35.12004,"lng":138.864},{"code":"222031150","name":"三枚橋町","lat":35.100317,"lng":138.863583},{"code":"222031160","name":"杉崎町","lat":35.107319,"lng":138.86611},{"code":"222031170","name":"高島本町","lat":35.109199,"lng":138.858344},{"code":"222031180","name":"高島町","lat":35.10498,"lng":138.858263},{"code":"222031190","name":"新宿町","lat":35.107509,"lng":138.859817},{"code":"222031200","name":"柳町","lat":35.117016,"lng":138.862933},{"code":"22203121001","name":"沼北町１丁目","lat":35.113858,"lng":138.854878},{"code":"22203121002","name":"沼北町２丁目","lat":35.114017,"lng":138.851561},{"code":"222031230","name":"新沢田町","lat":35.118078,"lng":138.852024},{"code":"222031240","name":"松沢町","lat":35.127054,"lng":138.863313},{"code":"222031250","name":"豊町","lat":35.130503,"lng":138.861549},{"code":"222031260","name":"高尾台","lat":35.134505,"lng":138.861134},{"code":"222031270","name":"中瀬町","lat":35.100107,"lng":138.880006},{"code":"222031280","name":"西添町","lat":35.129732,"lng":138.789377},{"code":"222031290","name":"白銀町","lat":35.100663,"lng":138.853013},{"code":"222031300","name":"錦町","lat":35.100675,"lng":138.850609},{"code":"222031310","name":"丸子町","lat":35.100826,"lng":138.849489},{"code":"222031320","name":"真砂町","lat":35.0992,"lng":138.850737},{"code":"222031390","name":"北高島町","lat":35.112395,"lng":138.858838},{"code":"222031400","name":"神田町","lat":35.117166,"lng":138.865859},{"code":"222031410","name":"小林台","lat":35.134517,"lng":138.885323},{"code":"222031420","name":"寿町","lat":35.115634,"lng":138.858791},{"code":"22203143000","name":"大手町","lat":35.097939,"lng":138.858943},{"code":"22203143001","name":"大手町１丁目","lat":35.10322,"lng":138.860223},{"code":"22203143002","name":"大手町２丁目","lat":35.100823,"lng":138.861759},{"code":"22203143003","name":"大手町３丁目","lat":35.100689,"lng":138.860069},{"code":"22203143004","name":"大手町４丁目","lat":35.098671,"lng":138.85972},{"code":"22203143005","name":"大手町５丁目","lat":35.100535,"lng":138.858047},{"code":"222031460","name":"山ケ下町","lat":35.095235,"lng":138.883458},{"code":"222031490","name":"北今沢","lat":35.123514,"lng":138.817987},{"code":"222031500","name":"五月町","lat":35.114133,"lng":138.863791},{"code":"222031510","name":"泉町","lat":35.111824,"lng":138.86404},{"code":"222031520","name":"添地町","lat":35.101059,"lng":138.856359},{"code":"222031530","name":"西条町","lat":35.100813,"lng":138.854795},{"code":"222031540","name":"上土町","lat":35.097106,"lng":138.858563},{"code":"222031550","name":"町方町","lat":35.097666,"lng":138.857096},{"code":"222031560","name":"末広町","lat":35.096963,"lng":138.854058},{"code":"222031570","name":"幸町","lat":35.095851,"lng":138.853862},{"code":"222031580","name":"大門町","lat":35.096562,"lng":138.856058},{"code":"222031590","name":"通横町","lat":35.096301,"lng":138.857745},{"code":"222031600","name":"魚町","lat":35.095456,"lng":138.858093},{"code":"222031610","name":"本町","lat":35.095841,"lng":138.856684},{"code":"222031620","name":"東宮後町","lat":35.095923,"lng":138.855894},{"code":"222031630","name":"浅間町","lat":35.09497,"lng":138.855525},{"code":"222031640","name":"下本町","lat":35.094747,"lng":138.856297},{"code":"222031650","name":"くまたか町","lat":35.095003,"lng":138.856904},{"code":"222031660","name":"仲町","lat":35.094369,"lng":138.857783},{"code":"222031670","name":"新町","lat":35.094132,"lng":138.856802},{"code":"222031680","name":"中原町","lat":35.098089,"lng":138.875725},{"code":"222031690","name":"西島町","lat":35.08624,"lng":138.863517},{"code":"222031700","name":"黒瀬町","lat":35.098017,"lng":138.872252},{"code":"222031720","name":"日ノ出町","lat":35.109279,"lng":138.867992},{"code":"222031730","name":"若葉町","lat":35.118791,"lng":138.85613},{"code":"222031740","name":"沢田町","lat":35.11945,"lng":138.85853},{"code":"222031750","name":"江原町","lat":35.119791,"lng":138.860835},{"code":"22203176001","name":"原町中１丁目","lat":35.130119,"lng":138.796068},{"code":"22203176002","name":"原町中２丁目","lat":35.129706,"lng":138.799339},{"code":"22203176003","name":"原町中３丁目","lat":35.132295,"lng":138.800668},{"code":"22203177001","name":"戸田","lat":34.979494,"lng":138.775805},{"code":"22203177002","name":"戸田","lat":34.974905,"lng":138.78053},{"code":"22203177003","name":"戸田","lat":34.972898,"lng":138.78106},{"code":"22203177004","name":"戸田","lat":34.971617,"lng":138.778415},{"code":"22203177005","name":"戸田","lat":34.970693,"lng":138.780418},{"code":"22203177006","name":"戸田","lat":34.969578,"lng":138.778132},{"code":"22203177007","name":"戸田","lat":34.969005,"lng":138.777289},{"code":"22203177008","name":"戸田","lat":34.965704,"lng":138.774752},{"code":"22203177009","name":"戸田","lat":34.964801,"lng":138.768012},{"code":"22203177010","name":"戸田","lat":34.963322,"lng":138.781777},{"code":"22203177011","name":"戸田","lat":34.963267,"lng":138.786681},{"code":"22203177012","name":"戸田","lat":34.963262,"lng":138.79105},{"code":"22203177013","name":"戸田","lat":34.971679,"lng":138.798991},{"code":"22203177014","name":"戸田","lat":34.967912,"lng":138.805332},{"code":"22203177015","name":"戸田","lat":34.963632,"lng":138.821371},{"code":"22203177016","name":"戸田","lat":34.980855,"lng":138.789858},{"code":"22203177017","name":"戸田","lat":34.948946,"lng":138.78285},{"code":"222031780","name":"井田","lat":34.996276,"lng":138.787372}]}
