{"municipality":"22206","name":"三島市","prefecture":"静岡県","source":{"dataset":"frogcat/japan-small-area","census":"平成27年国勢調査 小地域（e-Stat 統計LOD）","license":"MIT（リポジトリ）／政府統計の総合窓口(e-Stat)の利用規約（元データ・出典表記必要）","fetched":"2026-07-06"},"towns":[{"code":"222061000","name":"三島","lat":35.165245,"lng":138.982351},{"code":"222061010","name":"加屋町","lat":35.116187,"lng":138.906144},{"code":"222061020","name":"清住町","lat":35.113609,"lng":138.907269},{"code":"222061030","name":"三好町","lat":35.110393,"lng":138.908846},{"code":"222061040","name":"西本町","lat":35.117671,"lng":138.908723},{"code":"222061050","name":"栄町","lat":35.119349,"lng":138.907365},{"code":"222061060","name":"西若町","lat":35.121568,"lng":138.906841},{"code":"222061070","name":"緑町","lat":35.115233,"lng":138.910909},{"code":"222061080","name":"南町","lat":35.111501,"lng":138.912569},{"code":"222061090","name":"広小路町","lat":35.118919,"lng":138.911013},{"code":"222061100","name":"泉町","lat":35.121312,"lng":138.910413},{"code":"222061110","name":"寿町","lat":35.12408,"lng":138.908146},{"code":"222062010","name":"本町","lat":35.119354,"lng":138.913964},{"code":"222062020","name":"南本町","lat":35.116243,"lng":138.914624},{"code":"222062030","name":"芝本町","lat":35.12152,"lng":138.914006},{"code":"222062040","name":"一番町","lat":35.124982,"lng":138.911868},{"code":"222062050","name":"中央町","lat":35.12006,"lng":138.917074},{"code":"222062060","name":"北田町","lat":35.117404,"lng":138.91805},{"code":"222062070","name":"中田町","lat":35.114695,"lng":138.917732},{"code":"222062080","name":"南田町","lat":35.112204,"lng":138.916836},{"code":"222062090","name":"富田町","lat":35.10894,"lng":138.917649},{"code":"22206301001","name":"大宮町１丁目","lat":35.122745,"lng":138.916766},{"code":"22206301002","name":"大宮町２丁目","lat":35.122925,"lng":138.91989},{"code":"22206301003","name":"大宮町３丁目","lat":35.126331,"lng":138.917392},{"code":"22206304001","name":"文教町１丁目","lat":35.130076,"lng":138.912321},{"code":"22206304002","name":"文教町２丁目","lat":35.132164,"lng":138.916183},{"code":"222063060","name":"加茂川町","lat":35.126196,"lng":138.923194},{"code":"222063070","name":"若松町","lat":35.131247,"lng":138.92583},{"code":"222063090","name":"大社町","lat":35.119709,"lng":138.920949},{"code":"22206310001","name":"東本町１丁目","lat":35.116256,"lng":138.921076},{"code":"22206310002","name":"東本町２丁目","lat":35.113975,"lng":138.923051},{"code":"222063120","name":"南二日町","lat":35.110386,"lng":138.924974},{"code":"222063130","name":"日の出町","lat":35.120665,"lng":138.924259},{"code":"222063140","name":"東町","lat":35.117345,"lng":138.925049},{"code":"222064010","name":"壱町田","lat":35.132533,"lng":138.920443},{"code":"222064020","name":"沢地","lat":35.152417,"lng":138.943334},{"code":"222064030","name":"千枚原","lat":35.137798,"lng":138.921433},{"code":"222064040","name":"末広町","lat":35.135266,"lng":138.911226},{"code":"22206406001","name":"幸原町１丁目","lat":35.136894,"lng":138.913615},{"code":"22206406002","name":"幸原町２丁目","lat":35.138804,"lng":138.910492},{"code":"22206408000","name":"徳倉","lat":35.152045,"lng":138.926618},{"code":"22206408001","name":"徳倉１丁目","lat":35.140547,"lng":138.912951},{"code":"22206408002","name":"徳倉２丁目","lat":35.137822,"lng":138.917888},{"code":"22206408003","name":"徳倉３丁目","lat":35.143184,"lng":138.918582},{"code":"22206408004","name":"徳倉４丁目","lat":35.143972,"lng":138.912293},{"code":"22206408005","name":"徳倉５丁目","lat":35.148076,"lng":138.914743},{"code":"222064130","name":"萩","lat":35.152644,"lng":138.909767},{"code":"222064140","name":"佐野","lat":35.16977,"lng":138.948738},{"code":"22206416001","name":"芙蓉台１丁目","lat":35.152999,"lng":138.914192},{"code":"22206416002","name":"芙蓉台２丁目","lat":35.154913,"lng":138.917585},{"code":"22206416003","name":"芙蓉台３丁目","lat":35.156779,"lng":138.918527},{"code":"222064270","name":"富士ビレッジ","lat":35.14085,"lng":138.920949},{"code":"22206429001","name":"光ケ丘","lat":35.136045,"lng":138.925139},{"code":"22206429002","name":"光ケ丘","lat":35.136565,"lng":138.927194},{"code":"22206429003","name":"光ケ丘","lat":35.135954,"lng":138.928643},{"code":"222064350","name":"加茂","lat":35.135462,"lng":138.93249},{"code":"222064400","name":"富士見台","lat":35.141569,"lng":138.932091},{"code":"222064500","name":"東壱町田","lat":35.132722,"lng":138.923359},{"code":"222064600","name":"平成台","lat":35.153047,"lng":138.942883},{"code":"22206470001","name":"佐野見晴台１丁目","lat":35.163447,"lng":138.943948},{"code":"22206470002","name":"佐野見晴台２丁目","lat":35.164148,"lng":138.9482},{"code":"222065010","name":"谷田","lat":35.118804,"lng":138.929033},{"code":"222065020","name":"谷田","lat":35.117931,"lng":138.93188},{"code":"222065030","name":"谷田","lat":35.120116,"lng":138.933555},{"code":"222065041","name":"錦が丘","lat":35.1117,"lng":138.946068},{"code":"222065042","name":"谷田","lat":35.113497,"lng":138.931369},{"code":"222065050","name":"谷田","lat":35.115756,"lng":138.927968},{"code":"222065060","name":"谷田","lat":35.11,"lng":138.932608},{"code":"222065070","name":"谷田","lat":35.109384,"lng":138.939647},{"code":"222065080","name":"中","lat":35.106038,"lng":138.931502},{"code":"222065090","name":"竹倉","lat":35.11911,"lng":138.945872},{"code":"222065100","name":"玉沢","lat":35.125074,"lng":138.963807},{"code":"222065110","name":"谷田","lat":35.129515,"lng":138.96345},{"code":"222065130","name":"谷田","lat":35.115243,"lng":138.932648},{"code":"222065140","name":"谷田","lat":35.116643,"lng":138.930995},{"code":"222065160","name":"谷田","lat":35.118492,"lng":138.936893},{"code":"222065190","name":"谷田","lat":35.114446,"lng":138.93724},{"code":"222065250","name":"柳郷地","lat":35.117711,"lng":138.940694},{"code":"222065261","name":"松が丘","lat":35.122901,"lng":138.935816},{"code":"222065262","name":"谷田","lat":35.124895,"lng":138.940537},{"code":"222065280","name":"谷田","lat":35.121433,"lng":138.933708},{"code":"222066000","name":"川原ケ谷初音","lat":35.127655,"lng":138.938014},{"code":"222066011","name":"旭ヶ丘","lat":35.129942,"lng":138.931342},{"code":"22206601201","name":"川原ケ谷","lat":35.123648,"lng":138.92843},{"code":"22206601202","name":"川原ケ谷","lat":35.122148,"lng":138.931835},{"code":"22206601203","name":"川原ケ谷","lat":35.135301,"lng":138.939759},{"code":"222066040","name":"初音台","lat":35.126038,"lng":138.934627},{"code":"222066060","name":"小沢","lat":35.145175,"lng":138.952187},{"code":"222066070","name":"元山中","lat":35.15517,"lng":138.964982},{"code":"222066080","name":"塚原新田","lat":35.134838,"lng":138.948931},{"code":"222066090","name":"谷田","lat":35.129103,"lng":138.949547},{"code":"222066100","name":"市ノ山新田","lat":35.13655,"lng":138.958404},{"code":"222066110","name":"三ツ谷新田","lat":35.140477,"lng":138.968369},{"code":"222066120","name":"笹原新田","lat":35.148303,"lng":138.983197},{"code":"222066130","name":"山中新田","lat":35.1618,"lng":138.999302},{"code":"222066140","name":"五輪","lat":35.162785,"lng":138.973611},{"code":"222066160","name":"西旭ケ丘","lat":35.128885,"lng":138.927671},{"code":"222066200","name":"三恵台","lat":35.130495,"lng":138.939976},{"code":"222067010","name":"梅名","lat":35.093946,"lng":138.92571},{"code":"222067020","name":"中島","lat":35.098363,"lng":138.932603},{"code":"222067030","name":"大場","lat":35.097593,"lng":138.944283},{"code":"222067040","name":"多呂","lat":35.098204,"lng":138.938506},{"code":"222067050","name":"北沢","lat":35.103623,"lng":138.940235},{"code":"222067060","name":"八反畑","lat":35.100711,"lng":138.925188},{"code":"222067070","name":"鶴喰","lat":35.103864,"lng":138.925968},{"code":"222067080","name":"青木","lat":35.105396,"lng":138.922481},{"code":"222067090","name":"藤代町","lat":35.106788,"lng":138.923713},{"code":"222067100","name":"新谷","lat":35.102117,"lng":138.918952},{"code":"222067110","name":"玉川","lat":35.106751,"lng":138.912987},{"code":"222067120","name":"平田","lat":35.100744,"lng":138.914987},{"code":"222067130","name":"松本","lat":35.090775,"lng":138.91863},{"code":"222067140","name":"長伏","lat":35.08609,"lng":138.913898},{"code":"222067150","name":"御園","lat":35.079117,"lng":138.920521},{"code":"222067160","name":"安久","lat":35.085776,"lng":138.929186},{"code":"222067170","name":"中","lat":35.105963,"lng":138.927466},{"code":"222067180","name":"青木","lat":35.10674,"lng":138.926555},{"code":"22206721001","name":"東大場１丁目","lat":35.109322,"lng":138.950556},{"code":"22206721002","name":"東大場２丁目","lat":35.108331,"lng":138.952616},{"code":"222067290","name":"大場","lat":35.115118,"lng":138.957481}]}
