{"municipality":"22226","name":"牧之原市","prefecture":"静岡県","source":{"dataset":"frogcat/japan-small-area","census":"平成27年国勢調査 小地域（e-Stat 統計LOD）","license":"MIT（リポジトリ）／政府統計の総合窓口(e-Stat)の利用規約（元データ・出典表記必要）","fetched":"2026-07-06"},"towns":[{"code":"222260010","name":"相良","lat":34.685614,"lng":138.202958},{"code":"222260020","name":"福岡","lat":34.684898,"lng":138.201541},{"code":"222260030","name":"波津","lat":34.680513,"lng":138.195313},{"code":"222260050","name":"須々木","lat":34.674749,"lng":138.184526},{"code":"222260060","name":"鬼女新田","lat":34.676273,"lng":138.177368},{"code":"222260070","name":"大沢","lat":34.689377,"lng":138.187699},{"code":"222260080","name":"大江","lat":34.706273,"lng":138.198905},{"code":"222260090","name":"片浜","lat":34.714393,"lng":138.210242},{"code":"222260100","name":"菅ケ谷","lat":34.700682,"lng":138.164574},{"code":"222260110","name":"松本","lat":34.702454,"lng":138.184814},{"code":"222260120","name":"西山寺","lat":34.704526,"lng":138.175522},{"code":"222260130","name":"中西","lat":34.719194,"lng":138.172693},{"code":"222260140","name":"黒子","lat":34.714804,"lng":138.180681},{"code":"222260150","name":"蛭ケ谷","lat":34.729439,"lng":138.172595},{"code":"222260160","name":"白井","lat":34.733236,"lng":138.181583},{"code":"222260170","name":"男神","lat":34.712291,"lng":138.188989},{"code":"222260180","name":"女神","lat":34.708534,"lng":138.181834},{"code":"222260190","name":"大寄","lat":34.717762,"lng":138.159561},{"code":"222260200","name":"和田","lat":34.721979,"lng":138.166718},{"code":"222260210","name":"西萩間","lat":34.733694,"lng":138.155803},{"code":"222260220","name":"東萩間","lat":34.747584,"lng":138.155456},{"code":"222260230","name":"東萩間","lat":34.747579,"lng":138.143987},{"code":"222260240","name":"地頭方","lat":34.637523,"lng":138.18724},{"code":"222260250","name":"落居","lat":34.653096,"lng":138.18563},{"code":"222260260","name":"笠名","lat":34.64166,"lng":138.175462},{"code":"222260270","name":"堀野新田","lat":34.629296,"lng":138.175605},{"code":"222260280","name":"新庄","lat":34.628752,"lng":138.192833},{"code":"222260290","name":"新庄","lat":34.622832,"lng":138.197821},{"code":"222260300","name":"汐見台","lat":34.678688,"lng":138.193756},{"code":"222260310","name":"静波","lat":34.736501,"lng":138.226428},{"code":"222260320","name":"細江","lat":34.753811,"lng":138.234429},{"code":"22226033001","name":"川崎静波","lat":34.732528,"lng":138.198054},{"code":"22226033003","name":"川崎勝俣","lat":34.739171,"lng":138.20474},{"code":"22226033004","name":"川崎仁田","lat":34.760318,"lng":138.215165},{"code":"22226033005","name":"川崎道場","lat":34.731503,"lng":138.212853},{"code":"22226033006","name":"川崎白井","lat":34.733356,"lng":138.192839},{"code":"22226034007","name":"勝間田中","lat":34.755574,"lng":138.207699},{"code":"22226034008","name":"勝間田勝間","lat":34.769203,"lng":138.191616},{"code":"22226034009","name":"勝間田切山","lat":34.787037,"lng":138.164831},{"code":"22226034010","name":"勝間田勝田","lat":34.770948,"lng":138.166871},{"code":"22226034011","name":"勝間田静谷","lat":34.754631,"lng":138.187212},{"code":"22226035006","name":"牧之原白井","lat":34.748366,"lng":138.171743},{"code":"22226035009","name":"牧之原切山","lat":34.788773,"lng":138.142714},{"code":"22226035010","name":"牧之原勝田","lat":34.783317,"lng":138.143416},{"code":"22226035011","name":"牧之原静谷","lat":34.761682,"lng":138.160955},{"code":"22226035014","name":"牧之原牧之原","lat":34.751652,"lng":138.171706},{"code":"22226035015","name":"牧之原嶋","lat":34.782167,"lng":138.141293},{"code":"22226035016","name":"牧之原布引原","lat":34.773307,"lng":138.146817},{"code":"22226036012","name":"坂部坂部","lat":34.775358,"lng":138.212644},{"code":"22226036013","name":"坂部坂口","lat":34.789155,"lng":138.19333}]}
