{"municipality":"23103","name":"名古屋市北区","prefecture":"愛知県","source":{"dataset":"frogcat/japan-small-area","census":"平成27年国勢調査 小地域（e-Stat 統計LOD）","license":"MIT（リポジトリ）／政府統計の総合窓口(e-Stat)の利用規約（元データ・出典表記必要）","fetched":"2026-07-06"},"towns":[{"code":"23103001001","name":"芦辺町１丁目","lat":35.194155,"lng":136.925628},{"code":"23103001002","name":"芦辺町２丁目","lat":35.193862,"lng":136.927102},{"code":"23103001003","name":"芦辺町３丁目","lat":35.193716,"lng":136.928453},{"code":"23103002001","name":"生駒町１丁目","lat":35.193667,"lng":136.916222},{"code":"23103002002","name":"生駒町２丁目","lat":35.193621,"lng":136.917452},{"code":"23103002003","name":"生駒町３丁目","lat":35.19356,"lng":136.91836},{"code":"23103002004","name":"生駒町４丁目","lat":35.193539,"lng":136.919412},{"code":"23103002005","name":"生駒町５丁目","lat":35.193553,"lng":136.920688},{"code":"23103002006","name":"生駒町６丁目","lat":35.19349,"lng":136.922062},{"code":"23103002007","name":"生駒町７丁目","lat":35.19345,"lng":136.923362},{"code":"231030030","name":"池花町","lat":35.230792,"lng":136.920549},{"code":"23103004001","name":"石園町１丁目","lat":35.195072,"lng":136.925612},{"code":"23103004002","name":"石園町２丁目","lat":35.195017,"lng":136.927122},{"code":"23103004003","name":"石園町３丁目","lat":35.19496,"lng":136.928498},{"code":"23103005001","name":"御成通１丁目","lat":35.197146,"lng":136.929439},{"code":"23103005002","name":"御成通２丁目","lat":35.198531,"lng":136.929674},{"code":"23103005003","name":"御成通３丁目","lat":35.199661,"lng":136.929822},{"code":"23103005004","name":"御成通４丁目","lat":35.201082,"lng":136.929854},{"code":"231030060","name":"尾上町","lat":35.200917,"lng":136.925935},{"code":"231030070","name":"大我麻町","lat":35.231247,"lng":136.908179},{"code":"231030080","name":"大蔵町","lat":35.195451,"lng":136.920338},{"code":"23103009001","name":"大杉町１丁目","lat":35.190989,"lng":136.916177},{"code":"23103009002","name":"大杉町２丁目","lat":35.190916,"lng":136.917193},{"code":"23103009003","name":"大杉町３丁目","lat":35.19087,"lng":136.918208},{"code":"23103009004","name":"大杉町４丁目","lat":35.19095,"lng":136.919232},{"code":"23103009005","name":"大杉町５丁目","lat":35.190926,"lng":136.9205},{"code":"23103009006","name":"大杉町６丁目","lat":35.190849,"lng":136.921929},{"code":"23103009007","name":"大杉町７丁目","lat":35.190769,"lng":136.923227},{"code":"23103010091","name":"大杉１丁目","lat":35.186674,"lng":136.916816},{"code":"23103010092","name":"大杉２丁目","lat":35.188165,"lng":136.916955},{"code":"23103010093","name":"大杉３丁目","lat":35.189725,"lng":136.917541},{"code":"23103013091","name":"大曽根１丁目","lat":35.190009,"lng":136.927442},{"code":"23103013092","name":"大曽根２丁目","lat":35.189863,"lng":136.931368},{"code":"23103013093","name":"大曽根３丁目","lat":35.191502,"lng":136.934937},{"code":"23103013094","name":"大曽根４丁目","lat":35.192104,"lng":136.931785},{"code":"23103016001","name":"大野町１丁目","lat":35.204637,"lng":136.914814},{"code":"23103016002","name":"大野町２丁目","lat":35.20477,"lng":136.91585},{"code":"23103016003","name":"大野町３丁目","lat":35.204802,"lng":136.91716},{"code":"23103016004","name":"大野町４丁目","lat":35.20491,"lng":136.91856},{"code":"23103016005","name":"大野町５丁目","lat":35.204823,"lng":136.920225},{"code":"231030170","name":"落合町","lat":35.223966,"lng":136.908556},{"code":"231030180","name":"織部町","lat":35.200829,"lng":136.928322},{"code":"231030190","name":"会所町","lat":35.238105,"lng":136.90753},{"code":"23103020001","name":"垣戸町１丁目","lat":35.197518,"lng":136.921108},{"code":"23103020002","name":"垣戸町２丁目","lat":35.19737,"lng":136.922144},{"code":"23103020003","name":"垣戸町３丁目","lat":35.197343,"lng":136.923277},{"code":"23103021001","name":"金田町１丁目","lat":35.207493,"lng":136.914395},{"code":"23103021002","name":"金田町２丁目","lat":35.207595,"lng":136.91567},{"code":"23103021003","name":"金田町３丁目","lat":35.207696,"lng":136.916953},{"code":"23103021004","name":"金田町４丁目","lat":35.207793,"lng":136.918207},{"code":"23103021005","name":"金田町５丁目","lat":35.207898,"lng":136.919482},{"code":"23103021006","name":"金田町６丁目","lat":35.207996,"lng":136.920674},{"code":"23103022001","name":"上飯田通１丁目","lat":35.202851,"lng":136.92981},{"code":"23103022002","name":"上飯田通２丁目","lat":35.204675,"lng":136.929695},{"code":"23103022003","name":"上飯田通３丁目","lat":35.206425,"lng":136.929933},{"code":"23103023001","name":"上飯田東町１丁目","lat":35.200842,"lng":136.938954},{"code":"23103023002","name":"上飯田東町２丁目","lat":35.204037,"lng":136.938063},{"code":"23103023003","name":"上飯田東町３丁目","lat":35.202781,"lng":136.937389},{"code":"23103023004","name":"上飯田東町４丁目","lat":35.20334,"lng":136.936192},{"code":"23103023005","name":"上飯田東町５丁目","lat":35.205122,"lng":136.935617},{"code":"23103024001","name":"上飯田西町１丁目","lat":35.202615,"lng":136.927711},{"code":"23103024002","name":"上飯田西町２丁目","lat":35.203581,"lng":136.927688},{"code":"23103024003","name":"上飯田西町３丁目","lat":35.204938,"lng":136.928086},{"code":"23103025001","name":"上飯田南町１丁目","lat":35.202268,"lng":136.930788},{"code":"23103025002","name":"上飯田南町２丁目","lat":35.202173,"lng":136.932074},{"code":"23103025003","name":"上飯田南町３丁目","lat":35.20204,"lng":136.93386},{"code":"23103025004","name":"上飯田南町４丁目","lat":35.200569,"lng":136.936357},{"code":"23103025005","name":"上飯田南町５丁目","lat":35.199595,"lng":136.933475},{"code":"23103026001","name":"上飯田北町１丁目","lat":35.2039,"lng":136.932442},{"code":"23103026002","name":"上飯田北町２丁目","lat":35.204908,"lng":136.932151},{"code":"23103026003","name":"上飯田北町３丁目","lat":35.20606,"lng":136.931878},{"code":"23103026004","name":"上飯田北町４丁目","lat":35.206698,"lng":136.934655},{"code":"231030270","name":"川中町","lat":35.212383,"lng":136.912669},{"code":"23103028091","name":"喜惣治１丁目","lat":35.233346,"lng":136.905519},{"code":"23103028092","name":"喜惣治２丁目","lat":35.237667,"lng":136.904368},{"code":"231030300","name":"木津根町","lat":35.198596,"lng":136.919717},{"code":"231030310","name":"北久手町","lat":35.24024,"lng":136.92424},{"code":"231030320","name":"桐畑町","lat":35.234846,"lng":136.927865},{"code":"23103033002","name":"金城町２丁目","lat":35.200703,"lng":136.906936},{"code":"23103033003","name":"金城町３丁目","lat":35.205501,"lng":136.906705},{"code":"23103033004","name":"金城町４丁目","lat":35.209182,"lng":136.906045},{"code":"23103034091","name":"金城１丁目","lat":35.193895,"lng":136.901642},{"code":"23103034092","name":"金城２丁目","lat":35.196308,"lng":136.901608},{"code":"23103034093","name":"金城３丁目","lat":35.19603,"lng":136.905124},{"code":"23103034094","name":"金城４丁目","lat":35.193725,"lng":136.905126},{"code":"231030380","name":"楠町大字如意","lat":35.242382,"lng":136.929547},{"code":"23103039001","name":"黒川本通１丁目","lat":35.196298,"lng":136.913251},{"code":"23103039002","name":"黒川本通２丁目","lat":35.198063,"lng":136.911852},{"code":"23103039003","name":"黒川本通３丁目","lat":35.198953,"lng":136.912014},{"code":"23103039004","name":"黒川本通４丁目","lat":35.200361,"lng":136.911811},{"code":"23103039005","name":"黒川本通５丁目","lat":35.202706,"lng":136.91172},{"code":"231030400","name":"玄馬町","lat":35.227435,"lng":136.906345},{"code":"231030410","name":"五反田町","lat":35.227503,"lng":136.91278},{"code":"231030420","name":"紅雲町","lat":35.195224,"lng":136.923638},{"code":"23103043001","name":"光音寺町１丁目","lat":35.207175,"lng":136.90238},{"code":"23103043002","name":"光音寺町２丁目","lat":35.208839,"lng":136.902856},{"code":"23103043003","name":"光音寺町３丁目","lat":35.207888,"lng":136.90494},{"code":"23103043004","name":"光音寺町４丁目","lat":35.209945,"lng":136.904506},{"code":"23103043011","name":"光音寺町字野方","lat":35.211464,"lng":136.905978},{"code":"23103044001","name":"駒止町１丁目","lat":35.198522,"lng":136.901656},{"code":"23103044002","name":"駒止町２丁目","lat":35.198526,"lng":136.905038},{"code":"231030450","name":"米が瀬町","lat":35.212018,"lng":136.926806},{"code":"231030460","name":"猿投町","lat":35.197485,"lng":136.918961},{"code":"23103047001","name":"彩紅橋通１丁目","lat":35.193437,"lng":136.929394},{"code":"23103047002","name":"彩紅橋通２丁目","lat":35.194531,"lng":136.929463},{"code":"231030490","name":"三軒町","lat":35.231795,"lng":136.924442},{"code":"23103050001","name":"志賀町１丁目","lat":35.19863,"lng":136.914704},{"code":"23103050002","name":"志賀町２丁目","lat":35.200238,"lng":136.91414},{"code":"23103050003","name":"志賀町３丁目","lat":35.200353,"lng":136.917125},{"code":"23103050004","name":"志賀町４丁目","lat":35.202476,"lng":136.913835},{"code":"23103050005","name":"志賀町５丁目","lat":35.201966,"lng":136.917111},{"code":"23103051001","name":"志賀本通１丁目","lat":35.196586,"lng":136.917427},{"code":"23103051002","name":"志賀本通２丁目","lat":35.196294,"lng":136.920395},{"code":"23103052001","name":"志賀南通１丁目","lat":35.197366,"lng":136.911209},{"code":"23103052002","name":"志賀南通２丁目","lat":35.197145,"lng":136.914167},{"code":"23103053091","name":"清水１丁目","lat":35.186693,"lng":136.911033},{"code":"23103053092","name":"清水２丁目","lat":35.188746,"lng":136.914024},{"code":"23103053093","name":"清水３丁目","lat":35.18925,"lng":136.911597},{"code":"23103053094","name":"清水４丁目","lat":35.19307,"lng":136.911247},{"code":"23103053095","name":"清水５丁目","lat":35.193597,"lng":136.914158},{"code":"231030580","name":"敷島町","lat":35.198459,"lng":136.908784},{"code":"23103059001","name":"下飯田町１丁目","lat":35.198198,"lng":136.925664},{"code":"23103059002","name":"下飯田町２丁目","lat":35.19803,"lng":136.926966},{"code":"23103059003","name":"下飯田町３丁目","lat":35.198226,"lng":136.927988},{"code":"23103059004","name":"下飯田町４丁目","lat":35.197848,"lng":136.928737},{"code":"23103061091","name":"成願寺１丁目","lat":35.215205,"lng":136.912249},{"code":"23103061092","name":"成願寺２丁目","lat":35.215709,"lng":136.917879},{"code":"23103063001","name":"城東町１丁目","lat":35.194801,"lng":136.91627},{"code":"23103063002","name":"城東町２丁目","lat":35.194714,"lng":136.917493},{"code":"23103063003","name":"城東町３丁目","lat":35.19464,"lng":136.91847},{"code":"23103063004","name":"城東町４丁目","lat":35.194586,"lng":136.919497},{"code":"23103063005","name":"城東町５丁目","lat":35.194532,"lng":136.920734},{"code":"23103063006","name":"城東町６丁目","lat":35.194423,"lng":136.922101},{"code":"23103063007","name":"城東町７丁目","lat":35.194351,"lng":136.923338},{"code":"23103064001","name":"城見通１丁目","lat":35.197407,"lng":136.901629},{"code":"23103064002","name":"城見通２丁目","lat":35.197386,"lng":136.905095},{"code":"23103064003","name":"城見通３丁目","lat":35.197432,"lng":136.908725},{"code":"231030650","name":"新沼町","lat":35.23751,"lng":136.910414},{"code":"231030660","name":"新堀町","lat":35.206488,"lng":136.928058},{"code":"231030670","name":"神明町","lat":35.195738,"lng":136.917219},{"code":"23103068002","name":"杉栄町２丁目","lat":35.19107,"lng":136.924472},{"code":"23103068003","name":"杉栄町３丁目","lat":35.192003,"lng":136.924487},{"code":"23103068004","name":"杉栄町４丁目","lat":35.192973,"lng":136.924533},{"code":"23103068005","name":"杉栄町５丁目","lat":35.194067,"lng":136.924358},{"code":"231030690","name":"杉村","lat":35.189525,"lng":136.921977},{"code":"23103070091","name":"田幡１丁目","lat":35.194617,"lng":136.908681},{"code":"23103070092","name":"田幡２丁目","lat":35.196263,"lng":136.909683},{"code":"23103072001","name":"龍ノ口町１丁目","lat":35.199668,"lng":136.920913},{"code":"23103072002","name":"龍ノ口町２丁目","lat":35.199647,"lng":136.922122},{"code":"23103072003","name":"龍ノ口町３丁目","lat":35.199649,"lng":136.923257},{"code":"23103073001","name":"稚児宮通１丁目","lat":35.197964,"lng":136.916457},{"code":"23103073002","name":"稚児宮通２丁目","lat":35.199064,"lng":136.917913},{"code":"23103074001","name":"中丸町１丁目","lat":35.20532,"lng":136.901253},{"code":"23103074002","name":"中丸町２丁目","lat":35.205016,"lng":136.903237},{"code":"23103074003","name":"中丸町３丁目","lat":35.205033,"lng":136.905268},{"code":"23103075001","name":"辻町１丁目","lat":35.205452,"lng":136.921801},{"code":"23103075002","name":"辻町２丁目","lat":35.206438,"lng":136.923084},{"code":"23103075003","name":"辻町３丁目","lat":35.206986,"lng":136.924134},{"code":"23103075004","name":"辻町４丁目","lat":35.207062,"lng":136.925263},{"code":"23103075005","name":"辻町５丁目","lat":35.207088,"lng":136.926721},{"code":"23103075006","name":"辻町６丁目","lat":35.207899,"lng":136.929094},{"code":"23103075007","name":"辻町７丁目","lat":35.208607,"lng":136.927301},{"code":"23103075008","name":"辻町８丁目","lat":35.209052,"lng":136.925592},{"code":"23103075009","name":"辻町９丁目","lat":35.209677,"lng":136.92334},{"code":"23103075011","name":"辻町字古新田","lat":35.209391,"lng":136.927735},{"code":"23103075012","name":"辻町字流","lat":35.202805,"lng":136.925103},{"code":"23103075013","name":"辻町字薬師浦","lat":35.210841,"lng":136.923009},{"code":"23103076001","name":"辻本通１丁目","lat":35.20109,"lng":136.920059},{"code":"23103076002","name":"辻本通２丁目","lat":35.202652,"lng":136.922627},{"code":"23103076003","name":"辻本通３丁目","lat":35.204111,"lng":136.924574},{"code":"23103076004","name":"辻本通４丁目","lat":35.205162,"lng":136.926065},{"code":"23103077001","name":"天道町１丁目","lat":35.206132,"lng":136.914577},{"code":"23103077002","name":"天道町２丁目","lat":35.206246,"lng":136.915846},{"code":"23103077003","name":"天道町３丁目","lat":35.206326,"lng":136.917095},{"code":"23103077004","name":"天道町４丁目","lat":35.206444,"lng":136.918383},{"code":"23103077005","name":"天道町５丁目","lat":35.206337,"lng":136.920133},{"code":"23103078001","name":"憧旛町１丁目","lat":35.198459,"lng":136.920927},{"code":"23103078002","name":"憧旛町２丁目","lat":35.198457,"lng":136.92213},{"code":"23103078003","name":"憧旛町３丁目","lat":35.198456,"lng":136.923276},{"code":"231030790","name":"苗田町","lat":35.236914,"lng":136.916887},{"code":"23103080001","name":"中切町１丁目","lat":35.214065,"lng":136.906071},{"code":"23103080002","name":"中切町２丁目","lat":35.214075,"lng":136.907396},{"code":"23103080003","name":"中切町３丁目","lat":35.214143,"lng":136.908533},{"code":"23103080004","name":"中切町４丁目","lat":35.214281,"lng":136.909796},{"code":"23103080005","name":"中切町５丁目","lat":35.216729,"lng":136.909075},{"code":"23103080006","name":"中切町６丁目","lat":35.218546,"lng":136.907268},{"code":"23103080011","name":"中切町字石原","lat":35.212588,"lng":136.908169},{"code":"23103080012","name":"中切町字新田","lat":35.212467,"lng":136.906241},{"code":"23103080013","name":"中切町字野間","lat":35.21281,"lng":136.911163},{"code":"23103081001","name":"中杉町１丁目","lat":35.191809,"lng":136.916193},{"code":"23103081002","name":"中杉町２丁目","lat":35.191753,"lng":136.917382},{"code":"23103081003","name":"中杉町３丁目","lat":35.191645,"lng":136.918286},{"code":"23103082001","name":"長喜町１丁目","lat":35.203391,"lng":136.915906},{"code":"23103082002","name":"長喜町２丁目","lat":35.203399,"lng":136.917221},{"code":"23103082003","name":"長喜町３丁目","lat":35.20338,"lng":136.918712},{"code":"23103082004","name":"長喜町４丁目","lat":35.203363,"lng":136.920173},{"code":"23103083001","name":"長田町１丁目","lat":35.191656,"lng":136.919317},{"code":"23103083002","name":"長田町２丁目","lat":35.191662,"lng":136.92052},{"code":"23103083003","name":"長田町３丁目","lat":35.191624,"lng":136.921971},{"code":"23103083004","name":"長田町４丁目","lat":35.191569,"lng":136.923258},{"code":"23103084001","name":"浪打町１丁目","lat":35.205856,"lng":136.909786},{"code":"23103084002","name":"浪打町２丁目","lat":35.209445,"lng":136.909414},{"code":"23103085091","name":"西味鋺１丁目","lat":35.221607,"lng":136.911841},{"code":"23103085092","name":"西味鋺２丁目","lat":35.224191,"lng":136.912832},{"code":"23103085093","name":"西味鋺３丁目","lat":35.223471,"lng":136.917193},{"code":"23103085094","name":"西味鋺４丁目","lat":35.221338,"lng":136.917479},{"code":"23103085095","name":"西味鋺５丁目","lat":35.218722,"lng":136.918077},{"code":"23103090001","name":"西志賀町１丁目","lat":35.200337,"lng":136.901069},{"code":"23103090002","name":"西志賀町２丁目","lat":35.20037,"lng":136.902657},{"code":"23103090003","name":"西志賀町３丁目","lat":35.200425,"lng":136.903882},{"code":"23103090004","name":"西志賀町４丁目","lat":35.20047,"lng":136.905137},{"code":"23103090005","name":"西志賀町５丁目","lat":35.200398,"lng":136.906188},{"code":"23103091091","name":"如意１丁目","lat":35.233593,"lng":136.918651},{"code":"23103091092","name":"如意２丁目","lat":35.235561,"lng":136.918494},{"code":"23103091093","name":"如意３丁目","lat":35.237821,"lng":136.92343},{"code":"23103091094","name":"如意４丁目","lat":35.236152,"lng":136.923307},{"code":"23103091095","name":"如意５丁目","lat":35.234507,"lng":136.923904},{"code":"231030960","name":"如来町","lat":35.234424,"lng":136.91471},{"code":"23103097001","name":"野方通１丁目","lat":35.210297,"lng":136.902653},{"code":"23103097002","name":"野方通２丁目","lat":35.210925,"lng":136.904688},{"code":"23103097003","name":"野方通３丁目","lat":35.211213,"lng":136.90702},{"code":"23103097004","name":"野方通４丁目","lat":35.211226,"lng":136.909164},{"code":"23103098001","name":"萩野通１丁目","lat":35.205843,"lng":136.911356},{"code":"23103098002","name":"萩野通２丁目","lat":35.209511,"lng":136.910669},{"code":"231030990","name":"八竜町","lat":35.199738,"lng":136.931348},{"code":"231031000","name":"鳩岡町","lat":35.205942,"lng":136.913013},{"code":"231031010","name":"鳩岡","lat":35.2096,"lng":136.912866},{"code":"23103102001","name":"東大杉町１丁目","lat":35.190735,"lng":136.925305},{"code":"23103102002","name":"東大杉町２丁目","lat":35.190739,"lng":136.92627},{"code":"23103102003","name":"東大杉町３丁目","lat":35.190657,"lng":136.927198},{"code":"23103102004","name":"東大杉町４丁目","lat":35.190642,"lng":136.928252},{"code":"231031030","name":"東大曽根町上","lat":35.192552,"lng":136.928869},{"code":"23103106001","name":"東長田町１丁目","lat":35.191488,"lng":136.925391},{"code":"23103106002","name":"東長田町２丁目","lat":35.191468,"lng":136.926214},{"code":"23103106003","name":"東長田町３丁目","lat":35.191428,"lng":136.92728},{"code":"23103106004","name":"東長田町４丁目","lat":35.191413,"lng":136.928242},{"code":"23103107001","name":"東水切町１丁目","lat":35.192893,"lng":136.925436},{"code":"23103107002","name":"東水切町２丁目","lat":35.192707,"lng":136.926315},{"code":"23103107003","name":"東水切町３丁目","lat":35.192516,"lng":136.927297},{"code":"23103107004","name":"東水切町４丁目","lat":35.192479,"lng":136.928333},{"code":"23103108001","name":"平手町１丁目","lat":35.20281,"lng":136.901687},{"code":"23103108002","name":"平手町２丁目","lat":35.202522,"lng":136.904953},{"code":"23103109001","name":"福徳町１丁目","lat":35.211315,"lng":136.896296},{"code":"23103109002","name":"福徳町２丁目","lat":35.211466,"lng":136.897811},{"code":"23103109003","name":"福徳町３丁目","lat":35.21174,"lng":136.898985},{"code":"23103109004","name":"福徳町４丁目","lat":35.212184,"lng":136.900293},{"code":"23103109005","name":"福徳町５丁目","lat":35.21289,"lng":136.901898},{"code":"23103109006","name":"福徳町６丁目","lat":35.213487,"lng":136.903213},{"code":"23103109007","name":"福徳町７丁目","lat":35.214247,"lng":136.904431},{"code":"23103109011","name":"福徳町字色田","lat":35.212167,"lng":136.904179},{"code":"23103109012","name":"福徳町字長直","lat":35.211525,"lng":136.902387},{"code":"23103109013","name":"福徳町字七合","lat":35.215089,"lng":136.89975},{"code":"23103109014","name":"福徳町字広瀬島","lat":35.210492,"lng":136.899968},{"code":"23103109015","name":"福徳町字孫六","lat":35.210477,"lng":136.897516},{"code":"231031110","name":"平安通","lat":35.195799,"lng":136.929497},{"code":"231031130","name":"真畔町","lat":35.201048,"lng":136.922785},{"code":"231031140","name":"桝形町","lat":35.209623,"lng":136.901675},{"code":"231031150","name":"丸新町","lat":35.232394,"lng":136.911456},{"code":"23103116001","name":"水切町１丁目","lat":35.192814,"lng":136.916272},{"code":"23103116002","name":"水切町２丁目","lat":35.192764,"lng":136.917385},{"code":"23103116003","name":"水切町３丁目","lat":35.1928,"lng":136.918418},{"code":"23103116004","name":"水切町４丁目","lat":35.19263,"lng":136.919337},{"code":"23103116005","name":"水切町５丁目","lat":35.19259,"lng":136.920598},{"code":"23103116006","name":"水切町６丁目","lat":35.192603,"lng":136.921966},{"code":"23103116007","name":"水切町７丁目","lat":35.192549,"lng":136.923349},{"code":"23103117001","name":"水草町１丁目","lat":35.205674,"lng":136.908085},{"code":"23103117002","name":"水草町２丁目","lat":35.209399,"lng":136.907584},{"code":"23103118091","name":"名城１丁目","lat":35.189041,"lng":136.901898},{"code":"23103118092","name":"名城２丁目","lat":35.191192,"lng":136.905135},{"code":"23103118093","name":"名城３丁目","lat":35.18811,"lng":136.905538},{"code":"23103121001","name":"元志賀町１丁目","lat":35.200472,"lng":136.908193},{"code":"23103121002","name":"元志賀町２丁目","lat":35.200499,"lng":136.910144},{"code":"231031220","name":"矢田町","lat":35.200601,"lng":136.941406},{"code":"23103123001","name":"八代町１丁目","lat":35.202649,"lng":136.908164},{"code":"23103123002","name":"八代町２丁目","lat":35.202718,"lng":136.910175},{"code":"23103124091","name":"安井１丁目","lat":35.209937,"lng":136.916577},{"code":"23103124092","name":"安井２丁目","lat":35.212583,"lng":136.916442},{"code":"23103124093","name":"安井３丁目","lat":35.212164,"lng":136.920199},{"code":"23103124094","name":"安井４丁目","lat":35.209999,"lng":136.920205},{"code":"23103128091","name":"柳原１丁目","lat":35.188,"lng":136.907601},{"code":"23103128092","name":"柳原２丁目","lat":35.19128,"lng":136.907436},{"code":"23103128093","name":"柳原３丁目","lat":35.191787,"lng":136.909075},{"code":"23103128094","name":"柳原４丁目","lat":35.188458,"lng":136.909365},{"code":"23103132003","name":"山田町３丁目","lat":35.196642,"lng":136.938042},{"code":"23103132004","name":"山田町４丁目","lat":35.198257,"lng":136.938566},{"code":"23103133001","name":"山田北町１丁目","lat":35.201288,"lng":136.940509},{"code":"23103133002","name":"山田北町２丁目","lat":35.203155,"lng":136.939406},{"code":"23103134002","name":"山田西町２丁目","lat":35.198329,"lng":136.932781},{"code":"23103134003","name":"山田西町３丁目","lat":35.198035,"lng":136.936622},{"code":"23103135092","name":"芳野２丁目","lat":35.188229,"lng":136.922201},{"code":"23103135093","name":"芳野３丁目","lat":35.18816,"lng":136.925669},{"code":"23103137001","name":"瑠璃光町１丁目","lat":35.197159,"lng":136.924351},{"code":"23103137002","name":"瑠璃光町２丁目","lat":35.198099,"lng":136.924316},{"code":"23103137003","name":"瑠璃光町３丁目","lat":35.199136,"lng":136.924298},{"code":"23103137004","name":"瑠璃光町４丁目","lat":35.200154,"lng":136.92427},{"code":"23103137005","name":"瑠璃光町５丁目","lat":35.201422,"lng":136.924023},{"code":"231031380","name":"六が池町","lat":35.239864,"lng":136.927933},{"code":"231031390","name":"若鶴町","lat":35.230974,"lng":136.916111},{"code":"23103140001","name":"若葉通１丁目","lat":35.19629,"lng":136.922694},{"code":"23103140002","name":"若葉通２丁目","lat":35.196201,"lng":136.924421},{"code":"23103140003","name":"若葉通３丁目","lat":35.196107,"lng":136.925716},{"code":"23103140004","name":"若葉通４丁目","lat":35.196082,"lng":136.927137},{"code":"23103140005","name":"若葉通５丁目","lat":35.196042,"lng":136.928535},{"code":"23103141091","name":"楠１丁目","lat":35.226479,"lng":136.917122},{"code":"23103141092","name":"楠２丁目","lat":35.226892,"lng":136.921114},{"code":"23103141093","name":"楠３丁目","lat":35.225698,"lng":136.923397},{"code":"23103141094","name":"楠４丁目","lat":35.228136,"lng":136.92599},{"code":"23103141095","name":"楠５丁目","lat":35.225331,"lng":136.92632},{"code":"23103142091","name":"楠味鋺１丁目","lat":35.217042,"lng":136.927977},{"code":"23103142092","name":"楠味鋺２丁目","lat":35.21906,"lng":136.926836},{"code":"23103142093","name":"楠味鋺３丁目","lat":35.222735,"lng":136.927425},{"code":"23103142094","name":"楠味鋺４丁目","lat":35.221617,"lng":136.93106},{"code":"23103142095","name":"楠味鋺５丁目","lat":35.217436,"lng":136.930805},{"code":"23103143091","name":"中味鋺１丁目","lat":35.216714,"lng":136.922923},{"code":"23103143092","name":"中味鋺２丁目","lat":35.219384,"lng":136.922474},{"code":"23103143093","name":"中味鋺３丁目","lat":35.222188,"lng":136.922222},{"code":"23103144091","name":"東味鋺１丁目","lat":35.22092,"lng":136.934346},{"code":"23103144092","name":"東味鋺２丁目","lat":35.222116,"lng":136.937716},{"code":"23103144093","name":"東味鋺３丁目","lat":35.218423,"lng":136.936238},{"code":"23103145091","name":"平安１丁目","lat":35.194215,"lng":136.931352},{"code":"23103145092","name":"平安２丁目","lat":35.196574,"lng":136.932199},{"code":"23103146091","name":"山田１丁目","lat":35.19442,"lng":136.936384},{"code":"23103146092","name":"山田２丁目","lat":35.196768,"lng":136.935185},{"code":"23103146093","name":"山田３丁目","lat":35.197963,"lng":136.939695},{"code":"23103146094","name":"山田４丁目","lat":35.200166,"lng":136.941229},{"code":"23103147001","name":"楠町大字喜惣治新田字中島","lat":35.235699,"lng":136.902027},{"code":"23103147041","name":"楠町大字喜惣治新田字中島","lat":35.238862,"lng":136.901845},{"code":"23103147042","name":"楠町大字喜惣治新田字５番割","lat":35.233409,"lng":136.904088}]}
