{"municipality":"23113","name":"名古屋市守山区","prefecture":"愛知県","source":{"dataset":"frogcat/japan-small-area","census":"平成27年国勢調査 小地域（e-Stat 統計LOD）","license":"MIT（リポジトリ）／政府統計の総合窓口(e-Stat)の利用規約（元データ・出典表記必要）","fetched":"2026-07-06"},"towns":[{"code":"23113001091","name":"天子田１丁目","lat":35.197247,"lng":136.998814},{"code":"23113001092","name":"天子田２丁目","lat":35.198884,"lng":137.004169},{"code":"23113001093","name":"天子田３丁目","lat":35.200303,"lng":137.008949},{"code":"23113001094","name":"天子田４丁目","lat":35.200068,"lng":137.013021},{"code":"231130050","name":"今尻町","lat":35.203097,"lng":137.008485},{"code":"23113006091","name":"大森１丁目","lat":35.203129,"lng":136.994529},{"code":"23113006092","name":"大森２丁目","lat":35.208154,"lng":136.993729},{"code":"23113006093","name":"大森３丁目","lat":35.207038,"lng":136.998915},{"code":"23113006094","name":"大森４丁目","lat":35.20446,"lng":136.99947},{"code":"23113006095","name":"大森５丁目","lat":35.20867,"lng":137.004379},{"code":"23113011091","name":"小幡１丁目","lat":35.203137,"lng":136.977749},{"code":"23113011092","name":"小幡２丁目","lat":35.206484,"lng":136.978093},{"code":"23113011093","name":"小幡３丁目","lat":35.209598,"lng":136.979338},{"code":"23113011094","name":"小幡４丁目","lat":35.207242,"lng":136.982313},{"code":"23113011095","name":"小幡５丁目","lat":35.203932,"lng":136.982424},{"code":"23113016091","name":"小幡中１丁目","lat":35.201339,"lng":136.972365},{"code":"23113016092","name":"小幡中２丁目","lat":35.204245,"lng":136.972611},{"code":"23113016093","name":"小幡中３丁目","lat":35.206991,"lng":136.972507},{"code":"231130210","name":"川上町","lat":35.215961,"lng":136.968624},{"code":"231130220","name":"川北町","lat":35.214092,"lng":136.965475},{"code":"231130230","name":"川宮町","lat":35.213912,"lng":136.959665},{"code":"231130240","name":"川村町","lat":35.212079,"lng":136.966135},{"code":"23113025091","name":"四軒家１丁目","lat":35.193761,"lng":137.014712},{"code":"23113025092","name":"四軒家２丁目","lat":35.191843,"lng":137.015022},{"code":"231130270","name":"白沢町","lat":35.213036,"lng":136.971448},{"code":"231130280","name":"城土町","lat":35.21289,"lng":136.975777},{"code":"231130290","name":"新守町","lat":35.208066,"lng":136.952958},{"code":"231130300","name":"大永寺町","lat":35.207725,"lng":136.958597},{"code":"231130310","name":"高島町","lat":35.209777,"lng":136.971023},{"code":"231130320","name":"茶臼前","lat":35.205777,"lng":136.986},{"code":"231130330","name":"鳥神町","lat":35.208011,"lng":136.955759},{"code":"231130340","name":"永森町","lat":35.205964,"lng":136.960406},{"code":"231130350","name":"西川原町","lat":35.213124,"lng":136.956138},{"code":"23113036091","name":"白山１丁目","lat":35.194586,"lng":137.02291},{"code":"23113036092","name":"白山２丁目","lat":35.196023,"lng":137.028266},{"code":"23113036093","name":"白山３丁目","lat":35.194712,"lng":137.029278},{"code":"23113036094","name":"白山４丁目","lat":35.193353,"lng":137.024528},{"code":"231130400","name":"原境町","lat":35.198057,"lng":136.997955},{"code":"231130410","name":"弁天が丘","lat":35.210253,"lng":136.997316},{"code":"231130420","name":"本地が丘","lat":35.199181,"lng":137.023218},{"code":"231130430","name":"松坂町","lat":35.214996,"lng":136.9795},{"code":"23113044091","name":"向台１丁目","lat":35.195547,"lng":137.00055},{"code":"23113044092","name":"向台２丁目","lat":35.196587,"lng":137.005235},{"code":"23113044093","name":"向台３丁目","lat":35.197752,"lng":137.009597},{"code":"231130470","name":"村合町","lat":35.206876,"lng":136.963191},{"code":"231130480","name":"村前町","lat":35.207205,"lng":136.965799},{"code":"23113049091","name":"元郷１丁目","lat":35.200383,"lng":136.996673},{"code":"23113049092","name":"元郷２丁目","lat":35.20167,"lng":137.001258},{"code":"231130510","name":"守牧町","lat":35.201724,"lng":136.953797},{"code":"23113052091","name":"森孝１丁目","lat":35.193433,"lng":137.003602},{"code":"23113052092","name":"森孝２丁目","lat":35.194037,"lng":137.007263},{"code":"23113052093","name":"森孝３丁目","lat":35.194707,"lng":137.010044},{"code":"23113052094","name":"森孝４丁目","lat":35.191488,"lng":137.009326},{"code":"23113056091","name":"森孝東１丁目","lat":35.192,"lng":137.0216},{"code":"23113056092","name":"森孝東２丁目","lat":35.191619,"lng":137.028228},{"code":"231130580","name":"森宮町","lat":35.209558,"lng":136.96553},{"code":"23113059091","name":"八剣１丁目","lat":35.205881,"lng":137.002997},{"code":"23113059092","name":"八剣２丁目","lat":35.206231,"lng":137.005961},{"code":"231130610","name":"薮田町","lat":35.199468,"lng":136.993528},{"code":"231130620","name":"脇田町","lat":35.203116,"lng":137.005058},{"code":"23113063000","name":"大字牛牧字中山","lat":35.209922,"lng":136.975857},{"code":"23113063004","name":"大字牛牧字離レ松，長根","lat":35.218541,"lng":136.987965},{"code":"231130660","name":"大字小幡","lat":35.216179,"lng":136.991781},{"code":"231130680","name":"大字上志段味","lat":35.249985,"lng":137.043869},{"code":"231130700","name":"大字吉根","lat":35.228093,"lng":136.999319},{"code":"231130720","name":"大字下志段味","lat":35.241297,"lng":137.018361},{"code":"231130730","name":"大字瀬古","lat":35.215906,"lng":136.942985},{"code":"231130750","name":"大字中志段味","lat":35.245829,"lng":137.028554},{"code":"231130761","name":"長栄","lat":35.19588,"lng":136.963791},{"code":"231130762","name":"廿軒家","lat":35.195691,"lng":136.959654},{"code":"231130763","name":"八反","lat":35.192099,"lng":136.964901},{"code":"231130780","name":"市場","lat":35.197205,"lng":136.94937},{"code":"231130790","name":"太田井","lat":35.196291,"lng":136.987062},{"code":"231130800","name":"大牧町","lat":35.20285,"lng":136.959833},{"code":"231130810","name":"大屋敷","lat":35.202676,"lng":136.965415},{"code":"231130820","name":"小幡太田","lat":35.193962,"lng":136.97732},{"code":"231130830","name":"小幡千代田","lat":35.192355,"lng":136.973172},{"code":"231130840","name":"小幡宮ノ腰","lat":35.193409,"lng":136.97528},{"code":"23113085091","name":"金屋１丁目","lat":35.204423,"lng":136.951641},{"code":"23113085092","name":"金屋２丁目","lat":35.204182,"lng":136.955797},{"code":"231130860","name":"小六町","lat":35.192941,"lng":136.96833},{"code":"231130870","name":"更屋敷","lat":35.193316,"lng":136.959662},{"code":"231130880","name":"新城","lat":35.196774,"lng":136.969055},{"code":"231130890","name":"城南町","lat":35.200654,"lng":136.968351},{"code":"23113090091","name":"鳥羽見１丁目","lat":35.199329,"lng":136.947368},{"code":"23113090092","name":"鳥羽見２丁目","lat":35.201568,"lng":136.949866},{"code":"23113090093","name":"鳥羽見３丁目","lat":35.199312,"lng":136.951084},{"code":"23113093091","name":"苗代１丁目","lat":35.194551,"lng":136.979612},{"code":"23113093092","name":"苗代２丁目","lat":35.195131,"lng":136.982165},{"code":"231130950","name":"中新","lat":35.19709,"lng":136.971577},{"code":"23113096091","name":"西城１丁目","lat":35.203598,"lng":136.963392},{"code":"23113096092","name":"西城２丁目","lat":35.205073,"lng":136.967532},{"code":"231130980","name":"西新","lat":35.196277,"lng":136.966523},{"code":"231130990","name":"西島町","lat":35.20023,"lng":136.965403},{"code":"231131000","name":"東山町","lat":35.199352,"lng":136.962967},{"code":"231131010","name":"菱池町","lat":35.196557,"lng":136.984843},{"code":"231131020","name":"町北","lat":35.198641,"lng":136.953905},{"code":"231131030","name":"町南","lat":35.194261,"lng":136.955174},{"code":"23113104091","name":"守山１丁目","lat":35.197881,"lng":136.955486},{"code":"23113104092","name":"守山２丁目","lat":35.200978,"lng":136.958668},{"code":"23113104093","name":"守山３丁目","lat":35.198555,"lng":136.959166},{"code":"231131070","name":"川東山","lat":35.218949,"lng":136.977737},{"code":"231131080","name":"小幡常燈","lat":35.197807,"lng":136.973574},{"code":"23113109091","name":"小幡南１丁目","lat":35.198354,"lng":136.976091},{"code":"23113109092","name":"小幡南２丁目","lat":35.199144,"lng":136.978823},{"code":"23113109093","name":"小幡南３丁目","lat":35.199916,"lng":136.981383},{"code":"231131100","name":"大谷町","lat":35.200538,"lng":136.984063},{"code":"231131110","name":"野萩町","lat":35.201266,"lng":136.986855},{"code":"231131120","name":"喜多山南","lat":35.202075,"lng":136.989699},{"code":"23113120091","name":"川西１丁目","lat":35.20953,"lng":136.93196},{"code":"23113120092","name":"川西２丁目","lat":35.21396,"lng":136.931624},{"code":"23113121091","name":"喜多山１丁目","lat":35.205083,"lng":136.990024},{"code":"23113121092","name":"喜多山２丁目","lat":35.206984,"lng":136.989028},{"code":"23113122091","name":"幸心１丁目","lat":35.206644,"lng":136.945641},{"code":"23113122092","name":"幸心２丁目","lat":35.20988,"lng":136.947408},{"code":"23113122093","name":"幸心３丁目","lat":35.214291,"lng":136.949566},{"code":"23113122094","name":"幸心４丁目","lat":35.212929,"lng":136.952512},{"code":"231131230","name":"新守西","lat":35.208518,"lng":136.950213},{"code":"231131240","name":"新守山","lat":35.203277,"lng":136.945689},{"code":"23113125091","name":"瀬古１丁目","lat":35.210506,"lng":136.934859},{"code":"23113125092","name":"瀬古２丁目","lat":35.21379,"lng":136.935601},{"code":"23113125093","name":"瀬古３丁目","lat":35.214066,"lng":136.941834},{"code":"23113126091","name":"大森八龍１丁目","lat":35.214455,"lng":136.998868},{"code":"23113126092","name":"大森八龍２丁目","lat":35.217832,"lng":136.999272},{"code":"231131270","name":"小幡北","lat":35.21453,"lng":136.986309},{"code":"231131280","name":"御膳洞","lat":35.212527,"lng":137.002059},{"code":"23113129091","name":"翠松園１丁目","lat":35.210134,"lng":136.987965},{"code":"23113129092","name":"翠松園２丁目","lat":35.212045,"lng":136.991599},{"code":"23113129093","name":"翠松園３丁目","lat":35.214523,"lng":136.993366},{"code":"23113130091","name":"瀬古東１丁目","lat":35.205819,"lng":136.940908},{"code":"23113130092","name":"瀬古東２丁目","lat":35.208846,"lng":136.942427},{"code":"23113130093","name":"瀬古東３丁目","lat":35.21134,"lng":136.941865},{"code":"231131310","name":"緑ヶ丘","lat":35.211545,"lng":136.983463},{"code":"23113132091","name":"竜泉寺１丁目","lat":35.224309,"lng":136.98563},{"code":"23113132092","name":"竜泉寺２丁目","lat":35.222126,"lng":136.98793},{"code":"231131330","name":"青葉台","lat":35.227083,"lng":136.993961},{"code":"231131340","name":"青山台","lat":35.230193,"lng":137.01597},{"code":"231131350","name":"泉が丘","lat":35.234438,"lng":137.013731},{"code":"23113136091","name":"大森北１丁目","lat":35.220532,"lng":137.005206},{"code":"23113136092","name":"大森北２丁目","lat":35.223333,"lng":137.01046},{"code":"23113137091","name":"桔梗平１丁目","lat":35.229285,"lng":136.993441},{"code":"23113137092","name":"桔梗平２丁目","lat":35.233363,"lng":136.995216},{"code":"23113137093","name":"桔梗平３丁目","lat":35.235833,"lng":136.993826},{"code":"23113138091","name":"吉根１丁目","lat":35.23406,"lng":136.997672},{"code":"23113138092","name":"吉根２丁目","lat":35.236593,"lng":137.000332},{"code":"23113138093","name":"吉根３丁目","lat":35.238592,"lng":136.998161},{"code":"231131390","name":"吉根南","lat":35.231946,"lng":136.99944},{"code":"23113140091","name":"笹ヶ根１丁目","lat":35.231312,"lng":137.003599},{"code":"23113140092","name":"笹ヶ根２丁目","lat":35.23282,"lng":137.003942},{"code":"23113140093","name":"笹ヶ根３丁目","lat":35.23471,"lng":137.002889},{"code":"23113141091","name":"鼓が丘１丁目","lat":35.227673,"lng":137.009415},{"code":"23113141092","name":"鼓が丘２丁目","lat":35.231443,"lng":137.011081},{"code":"23113142091","name":"花咲台１丁目","lat":35.233241,"lng":137.007657},{"code":"23113142092","name":"花咲台２丁目","lat":35.234945,"lng":137.00997},{"code":"231131430","name":"日の後","lat":35.237935,"lng":137.01197},{"code":"231131440","name":"平池東","lat":35.236607,"lng":137.007223},{"code":"23113145091","name":"深沢１丁目","lat":35.23824,"lng":137.004799},{"code":"23113145092","name":"深沢２丁目","lat":35.240665,"lng":137.009601},{"code":"231131460","name":"百合が丘","lat":35.2282,"lng":137.012658}]}
