{"municipality":"23116","name":"名古屋市天白区","prefecture":"愛知県","source":{"dataset":"frogcat/japan-small-area","census":"平成27年国勢調査 小地域（e-Stat 統計LOD）","license":"MIT（リポジトリ）／政府統計の総合窓口(e-Stat)の利用規約（元データ・出典表記必要）","fetched":"2026-07-06"},"towns":[{"code":"23116001091","name":"相川１丁目","lat":35.102485,"lng":136.96766},{"code":"23116001092","name":"相川２丁目","lat":35.10248,"lng":136.972074},{"code":"23116003091","name":"荒池１丁目","lat":35.117048,"lng":137.011641},{"code":"23116003092","name":"荒池２丁目","lat":35.114695,"lng":137.014381},{"code":"23116005091","name":"井口１丁目","lat":35.12761,"lng":136.99322},{"code":"23116005092","name":"井口２丁目","lat":35.128854,"lng":136.996801},{"code":"23116007091","name":"池場１丁目","lat":35.124258,"lng":136.980962},{"code":"23116007092","name":"池場２丁目","lat":35.121489,"lng":136.98082},{"code":"23116007093","name":"池場３丁目","lat":35.122231,"lng":136.985755},{"code":"23116007094","name":"池場４丁目","lat":35.119664,"lng":136.98634},{"code":"23116007095","name":"池場５丁目","lat":35.118994,"lng":136.98136},{"code":"23116012091","name":"池見１丁目","lat":35.124924,"lng":136.96338},{"code":"23116012092","name":"池見２丁目","lat":35.126033,"lng":136.967419},{"code":"231160140","name":"井の森町","lat":35.10584,"lng":136.951235},{"code":"23116015091","name":"植田１丁目","lat":35.130496,"lng":136.985775},{"code":"23116015092","name":"植田２丁目","lat":35.130868,"lng":136.989808},{"code":"23116015093","name":"植田３丁目","lat":35.128143,"lng":136.989295},{"code":"23116018091","name":"植田西１丁目","lat":35.135371,"lng":136.983593},{"code":"23116018092","name":"植田西２丁目","lat":35.132869,"lng":136.982372},{"code":"23116018093","name":"植田西３丁目","lat":35.130514,"lng":136.98223},{"code":"23116021091","name":"植田南１丁目","lat":35.126594,"lng":136.978471},{"code":"23116021092","name":"植田南２丁目","lat":35.127355,"lng":136.982436},{"code":"23116021093","name":"植田南３丁目","lat":35.125906,"lng":136.988491},{"code":"23116024091","name":"植田山１丁目","lat":35.147132,"lng":136.982888},{"code":"23116024092","name":"植田山２丁目","lat":35.146679,"lng":136.986158},{"code":"23116024093","name":"植田山３丁目","lat":35.146119,"lng":136.989958},{"code":"23116024094","name":"植田山４丁目","lat":35.143685,"lng":136.988145},{"code":"23116024095","name":"植田山５丁目","lat":35.142825,"lng":136.985085},{"code":"23116029091","name":"梅が丘１丁目","lat":35.137633,"lng":137.001371},{"code":"23116029092","name":"梅が丘２丁目","lat":35.137114,"lng":137.006888},{"code":"23116029093","name":"梅が丘３丁目","lat":35.134444,"lng":137.005386},{"code":"23116029094","name":"梅が丘４丁目","lat":35.132048,"lng":137.00547},{"code":"23116029095","name":"梅が丘５丁目","lat":35.133142,"lng":137.001124},{"code":"231160320","name":"海老山町","lat":35.115052,"lng":136.972373},{"code":"23116033091","name":"大坪１丁目","lat":35.139497,"lng":136.98349},{"code":"23116033092","name":"大坪２丁目","lat":35.136782,"lng":136.980999},{"code":"231160350","name":"大根町","lat":35.113127,"lng":136.990484},{"code":"231160360","name":"音聞山","lat":35.131969,"lng":136.967591},{"code":"231160370","name":"表台","lat":35.128241,"lng":136.966186},{"code":"23116038091","name":"表山１丁目","lat":35.130625,"lng":136.960835},{"code":"23116038092","name":"表山２丁目","lat":35.131114,"lng":136.964933},{"code":"23116038093","name":"表山３丁目","lat":35.127541,"lng":136.962173},{"code":"231160410","name":"御前場町","lat":35.110841,"lng":136.993626},{"code":"231160420","name":"境根町","lat":35.106359,"lng":136.974145},{"code":"231160430","name":"笹原町","lat":35.112419,"lng":136.961222},{"code":"231160440","name":"山郷町","lat":35.114546,"lng":136.979959},{"code":"23116045091","name":"塩釜口１丁目","lat":35.135113,"lng":136.976529},{"code":"23116045092","name":"塩釜口２丁目","lat":35.133252,"lng":136.979323},{"code":"23116047091","name":"島田１丁目","lat":35.120654,"lng":136.972175},{"code":"23116047092","name":"島田２丁目","lat":35.122988,"lng":136.976003},{"code":"23116047093","name":"島田３丁目","lat":35.120715,"lng":136.977322},{"code":"23116047094","name":"島田４丁目","lat":35.117677,"lng":136.975901},{"code":"23116047095","name":"島田５丁目","lat":35.119138,"lng":136.9741},{"code":"23116052091","name":"菅田１丁目","lat":35.115013,"lng":136.964244},{"code":"23116052092","name":"菅田２丁目","lat":35.116732,"lng":136.970307},{"code":"23116052093","name":"菅田３丁目","lat":35.112148,"lng":136.968292},{"code":"231160550","name":"高坂町","lat":35.108875,"lng":136.986814},{"code":"23116056091","name":"高島１丁目","lat":35.107854,"lng":136.997682},{"code":"23116056092","name":"高島２丁目","lat":35.104142,"lng":137.000376},{"code":"231160570","name":"高宮町","lat":35.115195,"lng":136.977092},{"code":"23116058091","name":"土原１丁目","lat":35.115441,"lng":136.981723},{"code":"23116058092","name":"土原２丁目","lat":35.116169,"lng":136.984044},{"code":"23116058093","name":"土原３丁目","lat":35.113686,"lng":136.987228},{"code":"23116058094","name":"土原４丁目","lat":35.110926,"lng":136.984662},{"code":"23116058095","name":"土原５丁目","lat":35.112597,"lng":136.98265},{"code":"23116063040","name":"天白町大字平針字黒石","lat":35.110306,"lng":137.006565},{"code":"23116063041","name":"天白町大字平針字荒池下","lat":35.111382,"lng":137.015261},{"code":"23116063042","name":"天白町大字平針字大根ケ越","lat":35.116772,"lng":137.008491},{"code":"231160640","name":"道明町","lat":35.124841,"lng":136.974193},{"code":"23116065091","name":"中平１丁目","lat":35.1225,"lng":136.998528},{"code":"23116065092","name":"中平２丁目","lat":35.117725,"lng":136.997703},{"code":"23116065093","name":"中平３丁目","lat":35.117317,"lng":137.00087},{"code":"23116065094","name":"中平４丁目","lat":35.112636,"lng":136.999751},{"code":"23116065095","name":"中平５丁目","lat":35.113276,"lng":136.996343},{"code":"231160700","name":"中砂町","lat":35.120627,"lng":136.966298},{"code":"231160710","name":"中坪町","lat":35.109038,"lng":136.951724},{"code":"231160720","name":"西入町","lat":35.112708,"lng":136.975329},{"code":"23116073091","name":"野並１丁目","lat":35.10784,"lng":136.956427},{"code":"23116073092","name":"野並２丁目","lat":35.104882,"lng":136.955234},{"code":"23116073093","name":"野並３丁目","lat":35.102016,"lng":136.959342},{"code":"23116073094","name":"野並４丁目","lat":35.10456,"lng":136.959587},{"code":"231160770","name":"八幡山","lat":35.1326,"lng":136.973644},{"code":"23116078091","name":"原１丁目","lat":35.126245,"lng":136.997569},{"code":"23116078092","name":"原２丁目","lat":35.123683,"lng":136.991241},{"code":"23116078093","name":"原３丁目","lat":35.120841,"lng":136.991055},{"code":"23116078094","name":"原４丁目","lat":35.121843,"lng":136.995322},{"code":"23116078095","name":"原５丁目","lat":35.117213,"lng":136.994137},{"code":"23116083091","name":"久方１丁目","lat":35.106498,"lng":136.977465},{"code":"23116083092","name":"久方２丁目","lat":35.106457,"lng":136.982764},{"code":"23116083093","name":"久方３丁目","lat":35.104118,"lng":136.97934},{"code":"23116086091","name":"一つ山１丁目","lat":35.112345,"lng":136.980565},{"code":"23116086092","name":"一つ山２丁目","lat":35.111281,"lng":136.979179},{"code":"23116086093","name":"一つ山３丁目","lat":35.109556,"lng":136.978272},{"code":"23116086094","name":"一つ山４丁目","lat":35.108897,"lng":136.9809},{"code":"23116086095","name":"一つ山５丁目","lat":35.109221,"lng":136.982649},{"code":"23116091091","name":"平針１丁目","lat":35.126472,"lng":137.001855},{"code":"23116091092","name":"平針２丁目","lat":35.124185,"lng":137.005587},{"code":"23116091093","name":"平針３丁目","lat":35.120811,"lng":137.008963},{"code":"23116091094","name":"平針４丁目","lat":35.121262,"lng":137.004543},{"code":"23116091095","name":"平針５丁目","lat":35.122147,"lng":137.001268},{"code":"23116096091","name":"福池１丁目","lat":35.111791,"lng":136.954907},{"code":"23116096092","name":"福池２丁目","lat":35.109903,"lng":136.9581},{"code":"231160980","name":"古川町","lat":35.1025,"lng":136.951163},{"code":"231160990","name":"保呂町","lat":35.118064,"lng":136.968009},{"code":"231161000","name":"御幸山","lat":35.131182,"lng":136.971081},{"code":"23116101091","name":"向が丘１丁目","lat":35.117577,"lng":137.003452},{"code":"23116101092","name":"向が丘２丁目","lat":35.11847,"lng":137.006865},{"code":"23116101093","name":"向が丘３丁目","lat":35.115153,"lng":137.005475},{"code":"23116101094","name":"向が丘４丁目","lat":35.112479,"lng":137.007964},{"code":"23116104091","name":"元八事１丁目","lat":35.122597,"lng":136.963537},{"code":"23116104092","name":"元八事２丁目","lat":35.123879,"lng":136.968151},{"code":"23116104093","name":"元八事３丁目","lat":35.126588,"lng":136.971656},{"code":"23116104094","name":"元八事４丁目","lat":35.128939,"lng":136.975497},{"code":"23116104095","name":"元八事５丁目","lat":35.129134,"lng":136.978204},{"code":"231161090","name":"八事石坂","lat":35.134891,"lng":136.964881},{"code":"231161100","name":"八事天道","lat":35.134539,"lng":136.961611},{"code":"231161110","name":"山根町","lat":35.110118,"lng":136.974201},{"code":"231161120","name":"弥生が岡","lat":35.133552,"lng":136.96295},{"code":"231161130","name":"横町","lat":35.124729,"lng":136.984625},{"code":"23116114091","name":"一本松１丁目","lat":35.139656,"lng":136.986667},{"code":"23116114092","name":"一本松２丁目","lat":35.137485,"lng":136.985087},{"code":"231161150","name":"八事山","lat":35.135895,"lng":136.970051},{"code":"23116116091","name":"植田東１丁目","lat":35.135884,"lng":136.996379},{"code":"23116116092","name":"植田東２丁目","lat":35.133498,"lng":136.99697},{"code":"23116116093","name":"植田東３丁目","lat":35.131137,"lng":136.997049},{"code":"23116117091","name":"植田本町１丁目","lat":35.137159,"lng":136.992836},{"code":"23116117092","name":"植田本町２丁目","lat":35.133846,"lng":136.992952},{"code":"23116117093","name":"植田本町３丁目","lat":35.130942,"lng":136.993203},{"code":"23116118091","name":"鴻の巣１丁目","lat":35.142708,"lng":136.997216},{"code":"23116118092","name":"鴻の巣２丁目","lat":35.138687,"lng":136.996838},{"code":"231161190","name":"島田が丘","lat":35.107795,"lng":136.994666},{"code":"231161200","name":"島田黒石","lat":35.107941,"lng":136.990919},{"code":"23116121091","name":"平針台１丁目","lat":35.104588,"lng":137.002175},{"code":"23116121092","name":"平針台２丁目","lat":35.105198,"lng":137.006453},{"code":"23116122091","name":"元植田１丁目","lat":35.13827,"lng":136.989764},{"code":"23116122092","name":"元植田２丁目","lat":35.133961,"lng":136.98947},{"code":"23116122093","name":"元植田３丁目","lat":35.134481,"lng":136.986589},{"code":"23116123091","name":"焼山１丁目","lat":35.14326,"lng":136.990482},{"code":"23116123092","name":"焼山２丁目","lat":35.142384,"lng":136.99293},{"code":"23116125091","name":"平針南１丁目","lat":35.110305,"lng":137.002152},{"code":"23116125092","name":"平針南２丁目","lat":35.111532,"lng":137.006369},{"code":"23116125093","name":"平針南３丁目","lat":35.108193,"lng":137.006799},{"code":"23116125094","name":"平針南４丁目","lat":35.107775,"lng":137.010227},{"code":"231161260","name":"天白町大字植田","lat":35.140584,"lng":137.002267},{"code":"231161270","name":"天白町大字島田","lat":35.117061,"lng":136.988315},{"code":"23116128050","name":"天白町大字八事字裏山","lat":35.143185,"lng":136.976092},{"code":"23116128051","name":"天白町大字八事字山田","lat":35.13986,"lng":136.979355},{"code":"23116129030","name":"天白町大字野並字相生","lat":35.104784,"lng":136.968736},{"code":"23116129031","name":"天白町大字野並字北沢","lat":35.106852,"lng":136.960946},{"code":"23116129032","name":"天白町大字野並字稲田","lat":35.108441,"lng":136.965972},{"code":"23116129033","name":"天白町大字野並字上新田","lat":35.10427,"lng":136.962152},{"code":"23116129034","name":"天白町大字野並字上大塚","lat":35.102455,"lng":136.962455},{"code":"23116129035","name":"天白町大字野並字境根","lat":35.104268,"lng":136.976509}]}
