{"municipality":"23203","name":"一宮市","prefecture":"愛知県","source":{"dataset":"frogcat/japan-small-area","census":"平成27年国勢調査 小地域（e-Stat 統計LOD）","license":"MIT（リポジトリ）／政府統計の総合窓口(e-Stat)の利用規約（元データ・出典表記必要）","fetched":"2026-07-06"},"towns":[{"code":"232030050","name":"一色町","lat":35.31005,"lng":136.786852},{"code":"232030070","name":"石山町","lat":35.298113,"lng":136.804313},{"code":"232030100","name":"乾町","lat":35.325637,"lng":136.802464},{"code":"23203011002","name":"印田通２丁目","lat":35.299043,"lng":136.813497},{"code":"23203011003","name":"印田通３丁目","lat":35.297947,"lng":136.813147},{"code":"23203011004","name":"印田通４丁目","lat":35.296323,"lng":136.812586},{"code":"23203011005","name":"印田通５丁目","lat":35.295355,"lng":136.812233},{"code":"23203012001","name":"牛野通１丁目","lat":35.291011,"lng":136.80526},{"code":"23203012002","name":"牛野通２丁目","lat":35.289579,"lng":136.806954},{"code":"23203012003","name":"牛野通３丁目","lat":35.287581,"lng":136.807827},{"code":"23203012004","name":"牛野通４丁目","lat":35.285672,"lng":136.807914},{"code":"232030150","name":"小栗町","lat":35.324112,"lng":136.801037},{"code":"232030180","name":"小原町","lat":35.320709,"lng":136.816738},{"code":"232030210","name":"川田町","lat":35.298154,"lng":136.805919},{"code":"232030240","name":"観音町","lat":35.314399,"lng":136.814889},{"code":"232030250","name":"神戸町","lat":35.31168,"lng":136.79105},{"code":"232030260","name":"北浦町","lat":35.311694,"lng":136.786742},{"code":"23203028001","name":"北神明町１丁目","lat":35.320736,"lng":136.803685},{"code":"23203028002","name":"北神明町２丁目","lat":35.322088,"lng":136.803872},{"code":"23203028003","name":"北神明町３丁目","lat":35.323708,"lng":136.80432},{"code":"23203028004","name":"北神明町４丁目","lat":35.32549,"lng":136.805042},{"code":"23203029001","name":"北園通１丁目","lat":35.296632,"lng":136.800586},{"code":"23203029002","name":"北園通２丁目","lat":35.296736,"lng":136.802272},{"code":"23203029003","name":"北園通３丁目","lat":35.29691,"lng":136.804701},{"code":"23203029004","name":"北園通４丁目","lat":35.296883,"lng":136.806265},{"code":"23203029005","name":"北園通５丁目","lat":35.296253,"lng":136.807862},{"code":"23203029006","name":"北園通６丁目","lat":35.297222,"lng":136.810156},{"code":"23203029007","name":"北園通７丁目","lat":35.296166,"lng":136.810253},{"code":"23203031003","name":"貴船町３丁目","lat":35.31379,"lng":136.811203},{"code":"23203031004","name":"貴船町４丁目","lat":35.315014,"lng":136.812062},{"code":"23203033003","name":"九品町３丁目","lat":35.315362,"lng":136.805957},{"code":"23203033004","name":"九品町４丁目","lat":35.316522,"lng":136.806166},{"code":"23203035003","name":"公園通３丁目","lat":35.297774,"lng":136.803163},{"code":"23203035004","name":"公園通４丁目","lat":35.29588,"lng":136.803686},{"code":"23203035005","name":"公園通５丁目","lat":35.294557,"lng":136.80384},{"code":"23203035006","name":"公園通６丁目","lat":35.29335,"lng":136.804393},{"code":"23203036001","name":"古金町１丁目","lat":35.299211,"lng":136.810443},{"code":"23203036002","name":"古金町２丁目","lat":35.29799,"lng":136.810813},{"code":"232030370","name":"古見町","lat":35.318033,"lng":136.820532},{"code":"232030430","name":"三丹町","lat":35.320646,"lng":136.801923},{"code":"23203044001","name":"下川田町１丁目","lat":35.291534,"lng":136.807268},{"code":"23203044002","name":"下川田町２丁目","lat":35.290228,"lng":136.808368},{"code":"23203044003","name":"下川田町３丁目","lat":35.288943,"lng":136.809051},{"code":"23203044004","name":"下川田町４丁目","lat":35.287341,"lng":136.809486},{"code":"23203044005","name":"下川田町５丁目","lat":35.284833,"lng":136.808934},{"code":"23203046001","name":"下沼町１丁目","lat":35.311877,"lng":136.812452},{"code":"23203046002","name":"下沼町２丁目","lat":35.312506,"lng":136.813822},{"code":"23203046003","name":"下沼町３丁目","lat":35.313144,"lng":136.815511},{"code":"23203046004","name":"下沼町４丁目","lat":35.313725,"lng":136.817295},{"code":"23203047004","name":"城崎通４丁目","lat":35.300801,"lng":136.807598},{"code":"23203047005","name":"城崎通５丁目","lat":35.300652,"lng":136.809112},{"code":"23203047006","name":"城崎通６丁目","lat":35.300398,"lng":136.810627},{"code":"23203047007","name":"城崎通７丁目","lat":35.29996,"lng":136.812429},{"code":"23203048001","name":"白旗通１丁目","lat":35.29912,"lng":136.814656},{"code":"23203048002","name":"白旗通２丁目","lat":35.298569,"lng":136.816064},{"code":"23203048003","name":"白旗通３丁目","lat":35.29823,"lng":136.817311},{"code":"23203048004","name":"白旗通４丁目","lat":35.297875,"lng":136.818496},{"code":"23203052001","name":"常願通１丁目","lat":35.318285,"lng":136.803661},{"code":"23203052002","name":"常願通２丁目","lat":35.317773,"lng":136.805883},{"code":"23203052003","name":"常願通３丁目","lat":35.317412,"lng":136.80754},{"code":"23203052004","name":"常願通４丁目","lat":35.316582,"lng":136.809839},{"code":"23203052005","name":"常願通５丁目","lat":35.31656,"lng":136.811578},{"code":"23203052006","name":"常願通６丁目","lat":35.315934,"lng":136.813198},{"code":"23203052007","name":"常願通７丁目","lat":35.316573,"lng":136.814509},{"code":"23203052008","name":"常願通８丁目","lat":35.315141,"lng":136.81681},{"code":"23203052009","name":"常願通９丁目","lat":35.314573,"lng":136.819543},{"code":"23203059001","name":"高畑町１丁目","lat":35.317921,"lng":136.810985},{"code":"23203059002","name":"高畑町２丁目","lat":35.319407,"lng":136.811425},{"code":"23203059003","name":"高畑町３丁目","lat":35.321356,"lng":136.812687},{"code":"23203061019","name":"竹橋町","lat":35.301982,"lng":136.775098},{"code":"23203061021","name":"竹橋町","lat":35.302908,"lng":136.775727},{"code":"23203061023","name":"竹橋町","lat":35.301503,"lng":136.773987},{"code":"232030620","name":"田島町","lat":35.316189,"lng":136.819606},{"code":"23203068001","name":"寺島町１丁目","lat":35.313761,"lng":136.812713},{"code":"23203068002","name":"寺島町２丁目","lat":35.314778,"lng":136.813608},{"code":"23203069019","name":"寺前町","lat":35.29977,"lng":136.773214},{"code":"23203069023","name":"寺前町","lat":35.299455,"lng":136.772028},{"code":"23203073001","name":"殿町１丁目","lat":35.295612,"lng":136.802136},{"code":"23203073002","name":"殿町２丁目","lat":35.29412,"lng":136.80212},{"code":"23203073003","name":"殿町３丁目","lat":35.29278,"lng":136.80268},{"code":"23203074001","name":"中島通１丁目","lat":35.318198,"lng":136.809122},{"code":"23203074002","name":"中島通２丁目","lat":35.319859,"lng":136.809681},{"code":"23203074003","name":"中島通３丁目","lat":35.32107,"lng":136.810142},{"code":"23203074004","name":"中島通４丁目","lat":35.322031,"lng":136.810743},{"code":"23203074005","name":"中島通５丁目","lat":35.323502,"lng":136.81155},{"code":"23203074022","name":"中島通５丁目（一宮北住宅２棟）","lat":35.323853,"lng":136.812598},{"code":"23203077001","name":"長島町１丁目","lat":35.318805,"lng":136.80719},{"code":"23203077002","name":"長島町２丁目","lat":35.320348,"lng":136.807755},{"code":"23203077003","name":"長島町３丁目","lat":35.321854,"lng":136.808411},{"code":"23203077004","name":"長島町４丁目","lat":35.323151,"lng":136.809022},{"code":"23203077005","name":"長島町５丁目","lat":35.32441,"lng":136.809612},{"code":"232030790","name":"西小原町","lat":35.321715,"lng":136.815298},{"code":"23203080001","name":"西島町１丁目","lat":35.319233,"lng":136.805169},{"code":"23203080002","name":"西島町２丁目","lat":35.320885,"lng":136.805722},{"code":"23203080003","name":"西島町３丁目","lat":35.322478,"lng":136.806343},{"code":"23203080004","name":"西島町４丁目","lat":35.323907,"lng":136.807082},{"code":"23203080005","name":"西島町５丁目","lat":35.325114,"lng":136.807472},{"code":"232030810","name":"西出町","lat":35.310655,"lng":136.784245},{"code":"23203085019","name":"日光町","lat":35.301465,"lng":136.778971},{"code":"23203085021","name":"日光町","lat":35.301895,"lng":136.780159},{"code":"23203092001","name":"八町通１丁目","lat":35.291804,"lng":136.803667},{"code":"23203092002","name":"八町通２丁目","lat":35.292551,"lng":136.806064},{"code":"23203097003","name":"浜町３丁目","lat":35.308596,"lng":136.811541},{"code":"23203097004","name":"浜町４丁目","lat":35.30932,"lng":136.812369},{"code":"23203097005","name":"浜町５丁目","lat":35.309954,"lng":136.8136},{"code":"23203097006","name":"浜町６丁目","lat":35.310853,"lng":136.814803},{"code":"232030980","name":"東印田町","lat":35.297411,"lng":136.815084},{"code":"23203099001","name":"東島町１丁目","lat":35.317196,"lng":136.812709},{"code":"23203099002","name":"東島町２丁目","lat":35.318532,"lng":136.813568},{"code":"23203099003","name":"東島町３丁目","lat":35.320158,"lng":136.814436},{"code":"232031010","name":"東出町","lat":35.311452,"lng":136.788797},{"code":"232031040","name":"東両郷町","lat":35.31339,"lng":136.821865},{"code":"232031090","name":"深坪町","lat":35.311803,"lng":136.78113},{"code":"23203112003","name":"浜町６丁目","lat":35.309481,"lng":136.814581},{"code":"23203112004","name":"藤塚町４丁目","lat":35.309476,"lng":136.815467},{"code":"23203115001","name":"別明町１丁目","lat":35.310295,"lng":136.811618},{"code":"23203115002","name":"別明町２丁目","lat":35.310902,"lng":136.812911},{"code":"23203115003","name":"別明町３丁目","lat":35.311464,"lng":136.81435},{"code":"23203115004","name":"別明町４丁目","lat":35.312123,"lng":136.816058},{"code":"23203115005","name":"別明町５丁目","lat":35.312662,"lng":136.817838},{"code":"232031170","name":"北丹町","lat":35.322458,"lng":136.801583},{"code":"232031190","name":"本町通","lat":35.297761,"lng":136.801502},{"code":"232031210","name":"松島町","lat":35.295387,"lng":136.800965},{"code":"23203122007","name":"松降通７丁目","lat":35.3146,"lng":136.80787},{"code":"23203122008","name":"松降通８丁目","lat":35.316042,"lng":136.808298},{"code":"232031230","name":"松山町","lat":35.317516,"lng":136.822438},{"code":"23203124000","name":"水落町","lat":35.319597,"lng":136.803004},{"code":"23203124001","name":"水落町","lat":35.319191,"lng":136.802173},{"code":"232031250","name":"水附町","lat":35.297008,"lng":136.817376},{"code":"232031290","name":"南出町","lat":35.308842,"lng":136.784317},{"code":"23203131007","name":"宮西通７丁目","lat":35.315847,"lng":136.804056},{"code":"23203131008","name":"宮西通８丁目","lat":35.317013,"lng":136.80439},{"code":"23203133001","name":"向山町１丁目","lat":35.299748,"lng":136.808024},{"code":"23203133002","name":"向山町２丁目","lat":35.298158,"lng":136.808124},{"code":"232031340","name":"明治通","lat":35.297714,"lng":136.799983},{"code":"23203136001","name":"柳戸町１丁目","lat":35.295464,"lng":136.805758},{"code":"23203136002","name":"柳戸町２丁目","lat":35.293953,"lng":136.806236},{"code":"23203141001","name":"両郷町１丁目","lat":35.311698,"lng":136.816574},{"code":"23203141002","name":"両郷町２丁目","lat":35.310849,"lng":136.816759},{"code":"23203141003","name":"両郷町３丁目","lat":35.312468,"lng":136.819322},{"code":"23203141004","name":"両郷町４丁目","lat":35.313825,"lng":136.820627},{"code":"23203141005","name":"両郷町５丁目","lat":35.315568,"lng":136.821893},{"code":"23203142003","name":"枠杁町３丁目","lat":35.314113,"lng":136.809732},{"code":"23203142004","name":"枠杁町４丁目","lat":35.315429,"lng":136.81026},{"code":"23203144001","name":"神山１丁目","lat":35.303224,"lng":136.792153},{"code":"23203144002","name":"神山２丁目","lat":35.303761,"lng":136.787786},{"code":"23203144003","name":"神山３丁目","lat":35.304164,"lng":136.784287},{"code":"23203145001","name":"苅安賀１丁目","lat":35.293304,"lng":136.782379},{"code":"23203145002","name":"苅安賀２丁目","lat":35.290052,"lng":136.784097},{"code":"23203146001","name":"昭和１丁目","lat":35.294107,"lng":136.792356},{"code":"23203146002","name":"昭和２丁目","lat":35.29227,"lng":136.788531},{"code":"23203146003","name":"昭和３丁目","lat":35.291132,"lng":136.785187},{"code":"23203148001","name":"新生１丁目","lat":35.302084,"lng":136.795773},{"code":"23203148002","name":"新生２丁目","lat":35.29971,"lng":136.796305},{"code":"23203148003","name":"新生３丁目","lat":35.297792,"lng":136.796273},{"code":"23203148004","name":"新生４丁目","lat":35.296079,"lng":136.795371},{"code":"23203149001","name":"末広１丁目","lat":35.296181,"lng":136.791763},{"code":"23203149002","name":"末広２丁目","lat":35.295434,"lng":136.788035},{"code":"23203149003","name":"末広３丁目","lat":35.294899,"lng":136.785004},{"code":"23203150001","name":"住吉１丁目","lat":35.298793,"lng":136.787948},{"code":"23203150002","name":"住吉２丁目","lat":35.29857,"lng":136.784751},{"code":"23203151001","name":"野口１丁目","lat":35.299886,"lng":136.791988},{"code":"23203151002","name":"野口２丁目","lat":35.298317,"lng":136.791853},{"code":"23203152001","name":"平和１丁目","lat":35.301525,"lng":136.791853},{"code":"23203152002","name":"平和２丁目","lat":35.301459,"lng":136.787639},{"code":"23203152003","name":"平和３丁目","lat":35.301661,"lng":136.784264},{"code":"23203153001","name":"せんい１丁目","lat":35.288582,"lng":136.82081},{"code":"23203153002","name":"せんい２丁目","lat":35.28858,"lng":136.823119},{"code":"23203153003","name":"せんい３丁目","lat":35.288337,"lng":136.825256},{"code":"23203153004","name":"せんい４丁目","lat":35.287976,"lng":136.826822},{"code":"23203154001","name":"若竹１丁目","lat":35.28661,"lng":136.820621},{"code":"23203154002","name":"若竹２丁目","lat":35.286705,"lng":136.823027},{"code":"23203154003","name":"若竹３丁目","lat":35.286263,"lng":136.82588},{"code":"23203154004","name":"若竹４丁目","lat":35.286078,"lng":136.828215},{"code":"23203155001","name":"赤見１丁目","lat":35.302669,"lng":136.822551},{"code":"23203155002","name":"赤見２丁目","lat":35.305294,"lng":136.822197},{"code":"23203155003","name":"赤見３丁目","lat":35.308131,"lng":136.821606},{"code":"23203155004","name":"赤見４丁目","lat":35.310303,"lng":136.820573},{"code":"23203156001","name":"朝日１丁目","lat":35.307563,"lng":136.815409},{"code":"23203156002","name":"朝日２丁目","lat":35.307435,"lng":136.818357},{"code":"23203156003","name":"朝日３丁目","lat":35.309659,"lng":136.81768},{"code":"23203157001","name":"泉１丁目","lat":35.302719,"lng":136.808137},{"code":"23203157002","name":"泉２丁目","lat":35.302435,"lng":136.809839},{"code":"23203157003","name":"泉３丁目","lat":35.30217,"lng":136.811947},{"code":"23203158001","name":"大江１丁目","lat":35.304336,"lng":136.805844},{"code":"23203158002","name":"大江２丁目","lat":35.30322,"lng":136.80528},{"code":"23203158003","name":"大江３丁目","lat":35.301993,"lng":136.804909},{"code":"23203159001","name":"大浜１丁目","lat":35.308607,"lng":136.80933},{"code":"23203159002","name":"大浜２丁目","lat":35.309445,"lng":136.810377},{"code":"23203160001","name":"大宮１丁目","lat":35.307614,"lng":136.799318},{"code":"23203160002","name":"大宮２丁目","lat":35.309282,"lng":136.799494},{"code":"23203160003","name":"大宮３丁目","lat":35.310777,"lng":136.799768},{"code":"23203160004","name":"大宮４丁目","lat":35.312498,"lng":136.800188},{"code":"23203160005","name":"大宮５丁目","lat":35.313994,"lng":136.802261},{"code":"23203161001","name":"音羽１丁目","lat":35.307668,"lng":136.796301},{"code":"23203161002","name":"音羽２丁目","lat":35.309312,"lng":136.795936},{"code":"23203161003","name":"音羽３丁目","lat":35.311064,"lng":136.795874},{"code":"23203162001","name":"貴船１丁目","lat":35.311191,"lng":136.808777},{"code":"23203162002","name":"貴船２丁目","lat":35.312884,"lng":136.809354},{"code":"23203163001","name":"栄１丁目","lat":35.305175,"lng":136.799044},{"code":"23203163002","name":"栄２丁目","lat":35.305343,"lng":136.796767},{"code":"23203163003","name":"栄３丁目","lat":35.30277,"lng":136.798339},{"code":"23203163004","name":"栄４丁目","lat":35.300247,"lng":136.798931},{"code":"23203164001","name":"桜１丁目","lat":35.305875,"lng":136.806488},{"code":"23203164002","name":"桜２丁目","lat":35.307461,"lng":136.807005},{"code":"23203164003","name":"桜３丁目","lat":35.309052,"lng":136.807473},{"code":"23203165001","name":"大志１丁目","lat":35.300083,"lng":136.803737},{"code":"23203165002","name":"大志２丁目","lat":35.300016,"lng":136.805871},{"code":"23203166001","name":"天王１丁目","lat":35.307303,"lng":136.793392},{"code":"23203166002","name":"天王２丁目","lat":35.309317,"lng":136.792592},{"code":"23203166003","name":"天王３丁目","lat":35.309864,"lng":136.790419},{"code":"23203166004","name":"天王４丁目","lat":35.3093,"lng":136.788784},{"code":"23203167001","name":"羽衣１丁目","lat":35.305312,"lng":136.809112},{"code":"23203167002","name":"羽衣２丁目","lat":35.304979,"lng":136.811793},{"code":"23203168001","name":"八幡１丁目","lat":35.305055,"lng":136.794913},{"code":"23203168002","name":"八幡２丁目","lat":35.304864,"lng":136.792696},{"code":"23203168003","name":"八幡３丁目","lat":35.30637,"lng":136.791468},{"code":"23203168004","name":"八幡４丁目","lat":35.306681,"lng":136.788811},{"code":"23203168005","name":"八幡５丁目","lat":35.306876,"lng":136.785562},{"code":"23203169001","name":"富士１丁目","lat":35.304673,"lng":136.814946},{"code":"23203169002","name":"富士２丁目","lat":35.304418,"lng":136.817429},{"code":"23203169003","name":"富士３丁目","lat":35.302647,"lng":136.820202},{"code":"23203169004","name":"富士４丁目","lat":35.304791,"lng":136.819876},{"code":"23203170001","name":"文京１丁目","lat":35.311856,"lng":136.804266},{"code":"23203170002","name":"文京２丁目","lat":35.313675,"lng":136.805055},{"code":"23203171001","name":"本町１丁目","lat":35.305309,"lng":136.802072},{"code":"23203171002","name":"本町２丁目","lat":35.304145,"lng":136.80165},{"code":"23203171003","name":"本町３丁目","lat":35.302555,"lng":136.801282},{"code":"23203171004","name":"本町４丁目","lat":35.299998,"lng":136.801285},{"code":"23203172001","name":"真清田１丁目","lat":35.307352,"lng":136.801879},{"code":"23203172002","name":"真清田２丁目","lat":35.309826,"lng":136.802295},{"code":"23203173001","name":"松降１丁目","lat":35.307143,"lng":136.80405},{"code":"23203173002","name":"松降２丁目","lat":35.309742,"lng":136.804636},{"code":"23203174001","name":"緑１丁目","lat":35.301688,"lng":136.813963},{"code":"23203174002","name":"緑２丁目","lat":35.300983,"lng":136.816261},{"code":"23203174003","name":"緑３丁目","lat":35.300353,"lng":136.818652},{"code":"23203174004","name":"緑４丁目","lat":35.29999,"lng":136.821505},{"code":"23203174005","name":"緑５丁目","lat":35.297975,"lng":136.822188},{"code":"23203175001","name":"和光１丁目","lat":35.307116,"lng":136.809765},{"code":"23203175002","name":"和光２丁目","lat":35.307475,"lng":136.812267},{"code":"23203176001","name":"島崎１丁目","lat":35.283571,"lng":136.828801},{"code":"23203176002","name":"島崎２丁目","lat":35.281304,"lng":136.829487},{"code":"23203177001","name":"平島１丁目","lat":35.285866,"lng":136.832703},{"code":"23203177002","name":"平島２丁目","lat":35.283072,"lng":136.831777},{"code":"23203177003","name":"平島３丁目","lat":35.28092,"lng":136.831509},{"code":"23203178001","name":"平安１丁目","lat":35.28779,"lng":136.833407},{"code":"23203178002","name":"平安２丁目","lat":35.287907,"lng":136.834985},{"code":"23203179001","name":"観音寺１丁目","lat":35.288955,"lng":136.788507},{"code":"23203179002","name":"観音寺２丁目","lat":35.289032,"lng":136.786172},{"code":"23203180001","name":"中町１丁目","lat":35.295956,"lng":136.798955},{"code":"23203180002","name":"中町２丁目","lat":35.292837,"lng":136.800571},{"code":"23203181001","name":"花池１丁目","lat":35.293454,"lng":136.79735},{"code":"23203181002","name":"花池２丁目","lat":35.291461,"lng":136.793809},{"code":"23203181003","name":"花池３丁目","lat":35.289422,"lng":136.796822},{"code":"23203181004","name":"花池４丁目","lat":35.289166,"lng":136.801154},{"code":"23203182001","name":"宮地１丁目","lat":35.290451,"lng":136.790953},{"code":"23203182002","name":"宮地２丁目","lat":35.28804,"lng":136.791903},{"code":"23203183001","name":"妙興寺１丁目","lat":35.286766,"lng":136.803206},{"code":"23203183002","name":"妙興寺２丁目","lat":35.286924,"lng":136.800464},{"code":"23203184001","name":"あずら１丁目","lat":35.284043,"lng":136.822749},{"code":"23203184002","name":"あずら２丁目","lat":35.283754,"lng":136.825483},{"code":"23203184003","name":"あずら３丁目","lat":35.280704,"lng":136.821971},{"code":"23203188001","name":"多加木１丁目","lat":35.283138,"lng":136.812654},{"code":"23203188002","name":"多加木２丁目","lat":35.27782,"lng":136.811796},{"code":"23203188003","name":"多加木３丁目","lat":35.280006,"lng":136.81372},{"code":"23203188004","name":"多加木４丁目","lat":35.280404,"lng":136.817336},{"code":"23203188005","name":"多加木５丁目","lat":35.277373,"lng":136.818082},{"code":"23203189001","name":"向山南１丁目","lat":35.294196,"lng":136.808114},{"code":"23203189002","name":"向山南２丁目","lat":35.294461,"lng":136.81074},{"code":"23203190001","name":"森本１丁目","lat":35.29321,"lng":136.813353},{"code":"23203190002","name":"森本２丁目","lat":35.291205,"lng":136.812752},{"code":"23203190003","name":"森本３丁目","lat":35.288671,"lng":136.813069},{"code":"23203190004","name":"森本４丁目","lat":35.289522,"lng":136.817601},{"code":"23203190005","name":"森本５丁目","lat":35.285905,"lng":136.812651},{"code":"23203191001","name":"三ツ井１丁目","lat":35.280873,"lng":136.834601},{"code":"23203191002","name":"三ツ井２丁目","lat":35.277524,"lng":136.833148},{"code":"23203191003","name":"三ツ井３丁目","lat":35.275337,"lng":136.828723},{"code":"23203191004","name":"三ツ井４丁目","lat":35.274826,"lng":136.832568},{"code":"23203191005","name":"三ツ井５丁目","lat":35.275164,"lng":136.837466},{"code":"23203191006","name":"三ツ井６丁目","lat":35.272115,"lng":136.836781},{"code":"23203191007","name":"三ツ井７丁目","lat":35.27168,"lng":136.839426},{"code":"23203191008","name":"三ツ井８丁目","lat":35.272666,"lng":136.841895},{"code":"23203192001","name":"猿海道１丁目","lat":35.285431,"lng":136.817435},{"code":"23203192002","name":"猿海道２丁目","lat":35.284262,"lng":136.820298},{"code":"23203192003","name":"猿海道３丁目","lat":35.282505,"lng":136.818257},{"code":"23203201007","name":"大毛字小松寺東","lat":35.341885,"lng":136.810872},{"code":"23203201009","name":"大毛字弘法寺","lat":35.344684,"lng":136.810952},{"code":"23203201010","name":"大毛字高須賀","lat":35.343284,"lng":136.806876},{"code":"23203201011","name":"大毛字池田","lat":35.342434,"lng":136.799584},{"code":"23203201012","name":"大毛字神明廻","lat":35.344225,"lng":136.812386},{"code":"23203202013","name":"光明寺字神宮","lat":35.349268,"lng":136.807684},{"code":"23203202015","name":"光明寺字小路東","lat":35.354424,"lng":136.808992},{"code":"23203202016","name":"光明寺字天王裏","lat":35.354984,"lng":136.806962},{"code":"23203202017","name":"光明寺字石原","lat":35.354994,"lng":136.803554},{"code":"23203202018","name":"光明寺字権現塚","lat":35.352386,"lng":136.798274},{"code":"23203202019","name":"光明寺字神明前","lat":35.357255,"lng":136.795183},{"code":"232032030","name":"笹野","lat":35.350136,"lng":136.814126},{"code":"23203204001","name":"佐千原字屋敷","lat":35.326489,"lng":136.813761},{"code":"23203204002","name":"佐千原字藤の宮","lat":35.328003,"lng":136.806133},{"code":"23203204022","name":"佐千原字南切野","lat":35.323383,"lng":136.812999},{"code":"232032050","name":"更屋敷","lat":35.357996,"lng":136.793151},{"code":"23203206006","name":"島村字大西出","lat":35.337761,"lng":136.81172},{"code":"23203206007","name":"島村字南裏山","lat":35.343019,"lng":136.81459},{"code":"23203206008","name":"島村字北裏山","lat":35.344863,"lng":136.813569},{"code":"232032070","name":"杉山","lat":35.347082,"lng":136.806305},{"code":"23203208004","name":"高田字南屋敷","lat":35.33545,"lng":136.806877},{"code":"23203208005","name":"高田字瓦ケ野","lat":35.336006,"lng":136.801243},{"code":"23203208006","name":"高田字北門","lat":35.339062,"lng":136.807591},{"code":"232032090","name":"田所","lat":35.34744,"lng":136.795483},{"code":"23203210002","name":"富塚字山寺","lat":35.330708,"lng":136.802662},{"code":"23203210003","name":"富塚字郷裏","lat":35.331861,"lng":136.811801},{"code":"23203251038","name":"浅野字紅楳野","lat":35.29679,"lng":136.833577},{"code":"23203251039","name":"浅野字赤見前","lat":35.299522,"lng":136.828834},{"code":"23203251040","name":"浅野字花ノ木","lat":35.296971,"lng":136.826356},{"code":"23203251041","name":"浅野字比丘尼塚","lat":35.291206,"lng":136.830065},{"code":"23203251042","name":"浅野字南之川","lat":35.289517,"lng":136.833444},{"code":"23203251043","name":"浅野字大西裏","lat":35.292361,"lng":136.824802},{"code":"23203251044","name":"浅野字馬東","lat":35.295803,"lng":136.821858},{"code":"23203251059","name":"浅野字青石","lat":35.297107,"lng":136.819889},{"code":"23203251060","name":"浅野字大曲り","lat":35.295432,"lng":136.823655},{"code":"23203251061","name":"浅野字青石","lat":35.297354,"lng":136.820896},{"code":"23203251062","name":"浅野字野口","lat":35.294006,"lng":136.830934},{"code":"23203251063","name":"浅野字神明下","lat":35.289417,"lng":136.826879},{"code":"23203252015","name":"大赤見字西川垂","lat":35.319515,"lng":136.825947},{"code":"23203252016","name":"大赤見字若年西","lat":35.316269,"lng":136.824623},{"code":"23203252017","name":"大赤見字東川垂","lat":35.319545,"lng":136.828221},{"code":"23203252018","name":"大赤見字大山","lat":35.319881,"lng":136.829045},{"code":"23203252032","name":"大赤見字下河原","lat":35.311607,"lng":136.821035},{"code":"23203252049","name":"大赤見字地下中屋敷","lat":35.305286,"lng":136.825688},{"code":"23203252050","name":"大赤見字才勝","lat":35.3099,"lng":136.826164},{"code":"23203253030","name":"北小渕字八幡","lat":35.306889,"lng":136.837165},{"code":"23203253031","name":"北小渕字道上","lat":35.303722,"lng":136.834621},{"code":"232032540","name":"小赤見","lat":35.309945,"lng":136.832501},{"code":"23203255023","name":"春明字裏山","lat":35.317986,"lng":136.844446},{"code":"23203255025","name":"春明字西砂吹埋","lat":35.32621,"lng":136.849606},{"code":"23203255026","name":"春明字東張渕","lat":35.317599,"lng":136.8494},{"code":"23203255054","name":"春明字五三条","lat":35.321113,"lng":136.85291},{"code":"23203255055","name":"春明字西切生","lat":35.321868,"lng":136.846213},{"code":"23203255056","name":"春明字北石田生","lat":35.318594,"lng":136.846959},{"code":"23203255057","name":"春明字西柳原","lat":35.323647,"lng":136.849917},{"code":"23203255064","name":"春明字中切生","lat":35.323603,"lng":136.845749},{"code":"23203255099","name":"春明字裏山","lat":35.320742,"lng":136.841966},{"code":"232032560","name":"定水寺","lat":35.312423,"lng":136.839731},{"code":"23203257001","name":"瀬部字上山","lat":35.335756,"lng":136.841791},{"code":"23203257002","name":"瀬部字本郷","lat":35.331972,"lng":136.833908},{"code":"23203257003","name":"瀬部字西山","lat":35.329673,"lng":136.835427},{"code":"23203257004","name":"瀬部字川原山","lat":35.33527,"lng":136.837569},{"code":"23203257005","name":"瀬部字水留","lat":35.330569,"lng":136.842486},{"code":"23203258007","name":"時之島字寺前","lat":35.322654,"lng":136.839964},{"code":"23203258008","name":"時之島字本郷","lat":35.324559,"lng":136.835273},{"code":"23203258009","name":"時之島字西屋敷","lat":35.323825,"lng":136.832122},{"code":"23203258010","name":"時之島字郷浦","lat":35.325347,"lng":136.829889},{"code":"23203258011","name":"時之島字川向","lat":35.324413,"lng":136.826205},{"code":"23203258012","name":"時之島字古薬師","lat":35.327232,"lng":136.828965},{"code":"23203258046","name":"時之島字下途","lat":35.3201,"lng":136.835801},{"code":"23203258048","name":"時之島字上垂","lat":35.320865,"lng":136.834096},{"code":"23203258051","name":"時之島字宮ノ腰","lat":35.325773,"lng":136.840481},{"code":"23203258052","name":"時之島字手招","lat":35.325202,"lng":136.844452},{"code":"23203258053","name":"時之島字三桝野","lat":35.326109,"lng":136.846387},{"code":"23203258055","name":"時之島字堂山","lat":35.322791,"lng":136.844257},{"code":"23203259045","name":"西大海道字曽津","lat":35.315484,"lng":136.833693},{"code":"23203259046","name":"西大海道字北裏","lat":35.318356,"lng":136.836457},{"code":"23203259047","name":"西大海道字宅美","lat":35.318851,"lng":136.839966},{"code":"23203259048","name":"西大海道字柏木","lat":35.318486,"lng":136.832703},{"code":"23203260002","name":"丹羽字山ノ子南","lat":35.316757,"lng":136.818972},{"code":"23203260004","name":"丹羽字押出","lat":35.319231,"lng":136.815332},{"code":"23203260013","name":"丹羽字大森","lat":35.324049,"lng":136.817703},{"code":"23203260014","name":"丹羽字堀口","lat":35.320599,"lng":136.819899},{"code":"23203260020","name":"丹羽字井端","lat":35.32582,"lng":136.821145},{"code":"232032610","name":"馬見塚","lat":35.292698,"lng":136.820658},{"code":"232032620","name":"南小渕","lat":35.298954,"lng":136.840184},{"code":"23203263019","name":"柚木颪字東川垂","lat":35.319535,"lng":136.830046},{"code":"23203263027","name":"柚木颪字柚木","lat":35.312933,"lng":136.832975},{"code":"23203263028","name":"柚木颪字新田","lat":35.31412,"lng":136.827779},{"code":"23203263048","name":"柚木颪字東川垂","lat":35.320303,"lng":136.831736},{"code":"232033020","name":"丹陽町五日市場","lat":35.254979,"lng":136.838684},{"code":"23203303021","name":"丹陽町九日市場字平","lat":35.268642,"lng":136.833618},{"code":"23203303022","name":"丹陽町九日市場字北出","lat":35.262453,"lng":136.832838},{"code":"23203305007","name":"丹陽町重吉字宮前","lat":35.28339,"lng":136.839032},{"code":"23203305008","name":"丹陽町重吉字新田郷","lat":35.283541,"lng":136.845763},{"code":"23203306013","name":"丹陽町多加木字浅間堂","lat":35.282511,"lng":136.809372},{"code":"23203306033","name":"丹陽町多加木字赤池浦","lat":35.27563,"lng":136.818746},{"code":"23203307024","name":"丹陽町伝法寺字須賀花","lat":35.262157,"lng":136.843192},{"code":"23203307025","name":"丹陽町伝法寺字飯守神","lat":35.267454,"lng":136.842898},{"code":"232033080","name":"丹陽町外崎","lat":35.279094,"lng":136.826744},{"code":"23203310002","name":"丹陽町三ツ井字深坪","lat":35.276003,"lng":136.842488},{"code":"23203310004","name":"丹陽町三ツ井字金徳寺","lat":35.278624,"lng":136.841167},{"code":"23203310005","name":"丹陽町三ツ井字平山","lat":35.274297,"lng":136.825927},{"code":"23203310006","name":"丹陽町三ツ井字東広","lat":35.275509,"lng":136.845072},{"code":"23203311014","name":"丹陽町森本字川向","lat":35.292465,"lng":136.807703},{"code":"23203311015","name":"丹陽町森本字川向","lat":35.290814,"lng":136.80913},{"code":"23203351003","name":"浅井町江森字石橋天神","lat":35.336532,"lng":136.820527},{"code":"23203351022","name":"浅井町江森字森前１－１、１－１３","lat":35.335464,"lng":136.820051},{"code":"232033520","name":"浅井町大野","lat":35.353579,"lng":136.823038},{"code":"232033530","name":"浅井町大日比野","lat":35.341422,"lng":136.822079},{"code":"23203354013","name":"浅井町尾関字長田","lat":35.34985,"lng":136.818738},{"code":"23203354014","name":"浅井町尾関字高見","lat":35.347256,"lng":136.824106},{"code":"23203354016","name":"浅井町尾関字北田","lat":35.35105,"lng":136.819047},{"code":"23203354019","name":"浅井町尾関字同者","lat":35.349778,"lng":136.832809},{"code":"23203354020","name":"浅井町尾関字平山","lat":35.348591,"lng":136.832573},{"code":"232033550","name":"浅井町黒岩","lat":35.353325,"lng":136.833368},{"code":"23203356017","name":"浅井町河田字郷西","lat":35.354168,"lng":136.829177},{"code":"23203356021","name":"浅井町河田字桜の里","lat":35.3553,"lng":136.826374},{"code":"23203357005","name":"浅井町河端字柳下","lat":35.333982,"lng":136.83302},{"code":"23203357006","name":"浅井町河端字宮東","lat":35.336436,"lng":136.832849},{"code":"23203358007","name":"浅井町小日比野字新太","lat":35.340343,"lng":136.834054},{"code":"23203358008","name":"浅井町小日比野字平野","lat":35.343288,"lng":136.834385},{"code":"23203358009","name":"浅井町小日比野字大ケ島","lat":35.343295,"lng":136.839758},{"code":"23203358012","name":"浅井町小日比野字上牧","lat":35.343487,"lng":136.837618},{"code":"232033590","name":"浅井町極楽寺","lat":35.356366,"lng":136.816313},{"code":"232033600","name":"浅井町西浅井","lat":35.330428,"lng":136.82001},{"code":"232033610","name":"浅井町西海戸","lat":35.33662,"lng":136.827886},{"code":"232033620","name":"浅井町東浅井","lat":35.331361,"lng":136.826645},{"code":"232033630","name":"浅井町前野","lat":35.344233,"lng":136.829813},{"code":"23203401001","name":"北方町北方字東本郷東","lat":35.365171,"lng":136.789602},{"code":"23203401002","name":"北方町北方字西渡り","lat":35.361025,"lng":136.789055},{"code":"23203401003","name":"北方町北方字宝行寺廻り","lat":35.358529,"lng":136.787181},{"code":"23203401004","name":"北方町北方字中屋敷郷","lat":35.360497,"lng":136.782799},{"code":"23203401005","name":"北方町北方字板屋沖","lat":35.355861,"lng":136.782621},{"code":"23203401007","name":"北方町北方字下本郷二","lat":35.367435,"lng":136.783306},{"code":"23203401008","name":"北方町北方字下本郷一","lat":35.363434,"lng":136.780734},{"code":"23203401009","name":"北方町北方字西本郷","lat":35.367382,"lng":136.778607},{"code":"23203401010","name":"北方町北方字西泉屋郷","lat":35.361413,"lng":136.77677},{"code":"23203401011","name":"北方町北方字下新堤","lat":35.367142,"lng":136.772824},{"code":"23203401012","name":"北方町北方字畑下郷","lat":35.363841,"lng":136.770731},{"code":"23203401013","name":"北方町北方字上宝江","lat":35.363217,"lng":136.76709},{"code":"23203401014","name":"北方町北方字宝江","lat":35.36085,"lng":136.76533},{"code":"23203401015","name":"北方町北方字宝江新田","lat":35.359853,"lng":136.76527},{"code":"23203401016","name":"北方町北方字下宝江","lat":35.358415,"lng":136.763625},{"code":"23203401017","name":"北方町北方字宝江新田砂越","lat":35.357053,"lng":136.76648},{"code":"23203401018","name":"北方町北方字西金丸","lat":35.359323,"lng":136.773954},{"code":"23203401020","name":"北方町北方字沼","lat":35.353764,"lng":136.77551},{"code":"23203401021","name":"北方町北方字内沼","lat":35.355915,"lng":136.777936},{"code":"23203401022","name":"北方町北方字南辰已前","lat":35.357474,"lng":136.775669},{"code":"23203403006","name":"北方町曽根字村裏西","lat":35.353393,"lng":136.783137},{"code":"23203403023","name":"北方町曽根字虫祭","lat":35.353401,"lng":136.778377},{"code":"23203404018","name":"北方町中島字宮浦","lat":35.359901,"lng":136.77077},{"code":"23203404019","name":"北方町中島字下出東","lat":35.356565,"lng":136.771062},{"code":"23203404024","name":"北方町中島字南辻ノ内","lat":35.355455,"lng":136.771577},{"code":"23203404025","name":"北方町中島字南辻ノ内","lat":35.356204,"lng":136.770581},{"code":"232034510","name":"大和町氏永","lat":35.275149,"lng":136.8021},{"code":"23203452007","name":"大和町於保字丹波","lat":35.27349,"lng":136.795409},{"code":"23203452008","name":"大和町於保字上次","lat":35.278539,"lng":136.794424},{"code":"23203453001","name":"大和町苅安賀字伝治越","lat":35.289495,"lng":136.777055},{"code":"23203453033","name":"大和町苅安賀字上東出","lat":35.286079,"lng":136.78739},{"code":"23203454003","name":"大和町北高井字鎌田","lat":35.279503,"lng":136.783482},{"code":"23203454004","name":"大和町北高井字四辻","lat":35.275677,"lng":136.786519},{"code":"23203455011","name":"大和町戸塚字山王","lat":35.281145,"lng":136.790441},{"code":"23203455012","name":"大和町戸塚字町長３８番地の１","lat":35.275749,"lng":136.7905},{"code":"232034560","name":"大和町福森","lat":35.300632,"lng":136.769115},{"code":"23203457021","name":"大和町馬引字焼野","lat":35.305856,"lng":136.776871},{"code":"23203457022","name":"大和町馬引字西出１９番地","lat":35.301724,"lng":136.772756},{"code":"23203458005","name":"大和町南高井字江南","lat":35.270734,"lng":136.785981},{"code":"23203458006","name":"大和町南高井字中ノ町","lat":35.269697,"lng":136.790352},{"code":"23203459014","name":"大和町宮地花池字楼光寺","lat":35.28616,"lng":136.792231},{"code":"23203459015","name":"大和町宮地花池字出町裏","lat":35.286785,"lng":136.805864},{"code":"23203459018","name":"大和町宮地花池字中道","lat":35.289002,"lng":136.804902},{"code":"23203460010","name":"大和町妙興寺字下り松","lat":35.282265,"lng":136.801586},{"code":"23203460015","name":"大和町妙興寺字出町前","lat":35.285771,"lng":136.806456},{"code":"23203461019","name":"大和町毛受字北河原","lat":35.298297,"lng":136.777965},{"code":"23203461020","name":"大和町毛受字北河原","lat":35.301729,"lng":136.775688},{"code":"23203501001","name":"今伊勢町馬寄字大聖","lat":35.325857,"lng":136.798501},{"code":"23203501002","name":"今伊勢町馬寄字東更屋敷","lat":35.324942,"lng":136.795447},{"code":"23203501003","name":"今伊勢町馬寄字権現西","lat":35.324727,"lng":136.79266},{"code":"23203501005","name":"今伊勢町馬寄字上町屋","lat":35.326785,"lng":136.791689},{"code":"23203501006","name":"今伊勢町馬寄字上畑田","lat":35.329522,"lng":136.79834},{"code":"23203501007","name":"今伊勢町馬寄字八丁堀","lat":35.32954,"lng":136.793783},{"code":"23203501008","name":"今伊勢町馬寄字中切","lat":35.323724,"lng":136.78956},{"code":"23203501009","name":"今伊勢町馬寄字観音堂","lat":35.325831,"lng":136.787774},{"code":"23203501010","name":"今伊勢町馬寄字舟入","lat":35.327102,"lng":136.786218},{"code":"23203501014","name":"今伊勢町馬寄字山島","lat":35.322011,"lng":136.78562},{"code":"23203501030","name":"今伊勢町馬寄字川田","lat":35.328236,"lng":136.780766},{"code":"23203501031","name":"今伊勢町馬寄字西平","lat":35.323389,"lng":136.782889},{"code":"23203501032","name":"今伊勢町馬寄字北塚本","lat":35.329006,"lng":136.791092},{"code":"23203501033","name":"今伊勢町馬寄字中坪","lat":35.329781,"lng":136.786851},{"code":"23203502003","name":"今伊勢町新神戸字乾","lat":35.322539,"lng":136.793864},{"code":"23203502008","name":"今伊勢町新神戸字乾","lat":35.322613,"lng":136.790938},{"code":"23203502015","name":"今伊勢町新神戸字郷浦","lat":35.31543,"lng":136.789951},{"code":"23203502017","name":"今伊勢町新神戸字郷中","lat":35.313616,"lng":136.788595},{"code":"23203502018","name":"今伊勢町新神戸字九反野","lat":35.318525,"lng":136.79048},{"code":"23203502029","name":"今伊勢町新神戸字五輪野","lat":35.320977,"lng":136.792515},{"code":"23203503002","name":"今伊勢町本神戸字塚浦","lat":35.322758,"lng":136.795112},{"code":"23203503018","name":"今伊勢町本神戸字北無量寺","lat":35.317861,"lng":136.791903},{"code":"23203503019","name":"今伊勢町本神戸字宮山","lat":35.316312,"lng":136.796745},{"code":"23203503020","name":"今伊勢町本神戸字前畑","lat":35.314932,"lng":136.797734},{"code":"23203503021","name":"今伊勢町本神戸字河原","lat":35.313635,"lng":136.79831},{"code":"23203503022","name":"今伊勢町本神戸字権現","lat":35.317438,"lng":136.801504},{"code":"23203503023","name":"今伊勢町本神戸字立切東","lat":35.316222,"lng":136.799963},{"code":"23203503024","name":"今伊勢町本神戸字目久井","lat":35.320114,"lng":136.796566},{"code":"23203503025","name":"今伊勢町本神戸字牛洗","lat":35.321024,"lng":136.798849},{"code":"23203503026","name":"今伊勢町本神戸字南新田","lat":35.314217,"lng":136.79353},{"code":"23203503027","name":"今伊勢町本神戸字中道","lat":35.317323,"lng":136.793955},{"code":"23203503028","name":"今伊勢町本神戸字高野池","lat":35.317954,"lng":136.795244},{"code":"23203503029","name":"今伊勢町本神戸字無量寺東","lat":35.319571,"lng":136.794452},{"code":"23203504008","name":"今伊勢町宮後字北山中","lat":35.32225,"lng":136.788914},{"code":"23203504012","name":"今伊勢町宮後字郷中茶原","lat":35.316667,"lng":136.785689},{"code":"23203504013","name":"今伊勢町宮後字下苧島","lat":35.315968,"lng":136.782812},{"code":"23203504014","name":"今伊勢町宮後字西茶原","lat":35.320374,"lng":136.784019},{"code":"23203504015","name":"今伊勢町宮後字壱丁野","lat":35.316498,"lng":136.78821},{"code":"23203504016","name":"今伊勢町宮後字東茶原","lat":35.320377,"lng":136.787626},{"code":"23203504029","name":"今伊勢町宮後字午新田下筬","lat":35.319941,"lng":136.789762},{"code":"23203551001","name":"奥町字八瀬割","lat":35.327194,"lng":136.774441},{"code":"23203551002","name":"奥町字県郭","lat":35.329828,"lng":136.764847},{"code":"23203551003","name":"奥町字県郭","lat":35.33021,"lng":136.76313},{"code":"23203551004","name":"奥町字川崎","lat":35.327838,"lng":136.766981},{"code":"23203551005","name":"奥町字上平池","lat":35.326206,"lng":136.764949},{"code":"23203551006","name":"奥町字川崎","lat":35.329365,"lng":136.766348},{"code":"23203551007","name":"奥町字前沼","lat":35.327818,"lng":136.763813},{"code":"23203551008","name":"奥町字大切前","lat":35.325952,"lng":136.762214},{"code":"23203551009","name":"奥町字大切前","lat":35.32843,"lng":136.762855},{"code":"23203551010","name":"奥町字三出西","lat":35.330149,"lng":136.758211},{"code":"23203551011","name":"奥町字薬師","lat":35.328414,"lng":136.758725},{"code":"23203551012","name":"奥町字三出","lat":35.330087,"lng":136.761216},{"code":"23203551013","name":"奥町字貴船東","lat":35.327423,"lng":136.76064},{"code":"23203551014","name":"奥町字甚四前","lat":35.325654,"lng":136.760495},{"code":"23203551015","name":"奥町字貴船前","lat":35.323778,"lng":136.761055},{"code":"23203551016","name":"奥町字貴船前","lat":35.324225,"lng":136.758579},{"code":"23203551017","name":"奥町字貴船","lat":35.326265,"lng":136.758839},{"code":"23203551018","name":"奥町字下口西","lat":35.32731,"lng":136.757104},{"code":"23203551019","name":"奥町字下口西","lat":35.32759,"lng":136.755448},{"code":"23203551020","name":"奥町字郷中江東","lat":35.326436,"lng":136.752407},{"code":"23203551021","name":"奥町字郷中江東","lat":35.325367,"lng":136.753059},{"code":"23203551022","name":"奥町字郷中江東","lat":35.325495,"lng":136.755639},{"code":"23203551023","name":"奥町字野方","lat":35.329235,"lng":136.753866},{"code":"23203551024","name":"奥町字堤下一","lat":35.330563,"lng":136.748724},{"code":"23203551025","name":"奥町字堤下一","lat":35.328334,"lng":136.751623},{"code":"23203551026","name":"奥町字堤下二","lat":35.328924,"lng":136.748019},{"code":"23203551027","name":"奥町字宮南","lat":35.327611,"lng":136.747218},{"code":"23203551028","name":"奥町字堤下一","lat":35.325054,"lng":136.744698},{"code":"23203551029","name":"奥町字風田","lat":35.324947,"lng":136.749577},{"code":"23203551030","name":"奥町字蘇東","lat":35.323269,"lng":136.749764},{"code":"23203551031","name":"奥町字宮前","lat":35.32876,"lng":136.769496},{"code":"23203551032","name":"奥町字宮廓","lat":35.330495,"lng":136.77137},{"code":"23203551033","name":"奥町字剱光寺","lat":35.325182,"lng":136.768942},{"code":"23203551034","name":"奥町字野越","lat":35.323821,"lng":136.755134},{"code":"23203551035","name":"奥町字七丁","lat":35.324565,"lng":136.767999},{"code":"23203551036","name":"奥町字野方","lat":35.33043,"lng":136.754097},{"code":"23203551037","name":"奥町字南目草","lat":35.324027,"lng":136.764572},{"code":"232036010","name":"萩原町朝宮","lat":35.288931,"lng":136.759367},{"code":"232036020","name":"萩原町河田方","lat":35.280921,"lng":136.770176},{"code":"23203603005","name":"萩原町串作字女郎花","lat":35.278143,"lng":136.756576},{"code":"23203603008","name":"萩原町串作字二子前","lat":35.277741,"lng":136.763312},{"code":"23203603009","name":"萩原町串作字御替地","lat":35.276798,"lng":136.752505},{"code":"232036040","name":"萩原町高木","lat":35.27152,"lng":136.765602},{"code":"232036050","name":"萩原町高松","lat":35.271214,"lng":136.757348},{"code":"232036060","name":"萩原町滝","lat":35.273288,"lng":136.760055},{"code":"232036070","name":"萩原町築込","lat":35.268822,"lng":136.754267},{"code":"232036080","name":"萩原町戸苅","lat":35.273223,"lng":136.750487},{"code":"23203609001","name":"萩原町富田方字雀戸","lat":35.286903,"lng":136.768769},{"code":"23203609024","name":"萩原町富田方酉新田","lat":35.288627,"lng":136.766703},{"code":"23203610015","name":"萩原町中島字前田","lat":35.265044,"lng":136.781227},{"code":"23203610016","name":"萩原町中島字浄土寺","lat":35.269099,"lng":136.778668},{"code":"23203610017","name":"萩原町中島字番所","lat":35.267409,"lng":136.770023},{"code":"23203610018","name":"萩原町中島字戌亥","lat":35.270362,"lng":136.772491},{"code":"23203611014","name":"萩原町西御堂字北畑","lat":35.263338,"lng":136.775364},{"code":"23203611027","name":"萩原町西御堂字虫祭","lat":35.262287,"lng":136.769674},{"code":"23203611028","name":"萩原町西御堂字虫祭","lat":35.262397,"lng":136.771102},{"code":"23203611029","name":"萩原町西御堂字虫祭","lat":35.262207,"lng":136.772503},{"code":"23203611030","name":"萩原町西御堂字社宮司","lat":35.26421,"lng":136.768171},{"code":"232036120","name":"萩原町西宮重","lat":35.275148,"lng":136.772928},{"code":"23203613001","name":"萩原町萩原字松山","lat":35.285218,"lng":136.753549},{"code":"23203613002","name":"萩原町萩原本町","lat":35.281738,"lng":136.752674},{"code":"23203613003","name":"萩原町萩原中町","lat":35.280461,"lng":136.751223},{"code":"23203613004","name":"萩原町萩原中区","lat":35.279818,"lng":136.752502},{"code":"23203613005","name":"萩原町萩原字高畑","lat":35.282047,"lng":136.757862},{"code":"23203613006","name":"萩原町萩原字長池","lat":35.282866,"lng":136.764333},{"code":"23203613008","name":"萩原町萩原字南大畔","lat":35.279221,"lng":136.75987},{"code":"23203613026","name":"萩原町萩原字中道","lat":35.285825,"lng":136.757786},{"code":"23203613031","name":"萩原町萩原字中道","lat":35.28694,"lng":136.755197},{"code":"23203614007","name":"萩原町花井方字朝宮浦","lat":35.293351,"lng":136.763398},{"code":"23203614024","name":"萩原町花井方字平前","lat":35.296312,"lng":136.766207},{"code":"232036150","name":"萩原町林野","lat":35.281747,"lng":136.775737},{"code":"232036160","name":"萩原町東宮重","lat":35.273648,"lng":136.779058},{"code":"232036510","name":"千秋町浅野羽根","lat":35.291003,"lng":136.841043},{"code":"23203652008","name":"千秋町一色字海戸","lat":35.308318,"lng":136.854633},{"code":"23203652016","name":"千秋町一色字加村","lat":35.304968,"lng":136.851935},{"code":"23203653009","name":"千秋町浮野字上向得","lat":35.307786,"lng":136.847261},{"code":"23203653016","name":"千秋町浮野字冠羅","lat":35.30423,"lng":136.850447},{"code":"23203653017","name":"千秋町浮野字定筆","lat":35.310931,"lng":136.85241},{"code":"232036540","name":"千秋町小山","lat":35.289467,"lng":136.852873},{"code":"232036550","name":"千秋町勝栗","lat":35.312639,"lng":136.858135},{"code":"23203656012","name":"千秋町加納馬場字北高砂","lat":35.305054,"lng":136.867879},{"code":"23203656013","name":"千秋町加納馬場字郷内","lat":35.299344,"lng":136.870956},{"code":"232036570","name":"千秋町加茂","lat":35.315407,"lng":136.851544},{"code":"23203658006","name":"千秋町佐野字郷浦","lat":35.301055,"lng":136.854795},{"code":"23203658016","name":"千秋町佐野字白山","lat":35.303448,"lng":136.850587},{"code":"232036590","name":"千秋町塩尻","lat":35.283854,"lng":136.85149},{"code":"232036600","name":"千秋町芝原","lat":35.298471,"lng":136.865182},{"code":"23203661005","name":"千秋町天摩字神明西","lat":35.295832,"lng":136.852202},{"code":"23203661015","name":"千秋町天摩字氏神","lat":35.293488,"lng":136.852356},{"code":"232036620","name":"千秋町穂積塚本","lat":35.30724,"lng":136.858269},{"code":"232036630","name":"千秋町町屋","lat":35.290648,"lng":136.8601},{"code":"232036640","name":"起","lat":35.309396,"lng":136.73791},{"code":"23203665001","name":"小信中島字上郷西","lat":35.315284,"lng":136.74551},{"code":"23203665002","name":"小信中島字上郷西","lat":35.309469,"lng":136.743225},{"code":"23203665003","name":"小信中島字仁井西","lat":35.309513,"lng":136.752586},{"code":"23203666001","name":"三条字墓北","lat":35.305813,"lng":136.758616},{"code":"23203666002","name":"三条字道東","lat":35.312042,"lng":136.754768},{"code":"23203666003","name":"三条字西蛭子","lat":35.299703,"lng":136.751148},{"code":"23203667001","name":"北今字西田面二ノ切","lat":35.294362,"lng":136.755506},{"code":"23203667002","name":"北今字西田面一ノ切","lat":35.295909,"lng":136.746458},{"code":"23203667003","name":"北今字十八丁三ノ切","lat":35.292488,"lng":136.750553},{"code":"23203668001","name":"東五城字若宮","lat":35.302059,"lng":136.747205},{"code":"23203668002","name":"東五城字若宮","lat":35.307309,"lng":136.750007},{"code":"23203668003","name":"東五城字備前","lat":35.3052,"lng":136.753166},{"code":"23203668004","name":"東五城字古川","lat":35.300044,"lng":136.744946},{"code":"23203669001","name":"西五城字宮西","lat":35.30055,"lng":136.741472},{"code":"23203669002","name":"西五城字比丘尼道西","lat":35.298015,"lng":136.75624},{"code":"23203669003","name":"西五城字中切浦","lat":35.296557,"lng":136.75195},{"code":"23203669004","name":"西五城字中川田","lat":35.298312,"lng":136.748588},{"code":"232036700","name":"冨田","lat":35.297934,"lng":136.733705},{"code":"23203671001","name":"明地字社宮地","lat":35.278491,"lng":136.737608},{"code":"23203671002","name":"明地字宮崎田","lat":35.271197,"lng":136.746807},{"code":"23203671003","name":"明地字西阿古井","lat":35.284599,"lng":136.736066},{"code":"23203672001","name":"玉野字北西","lat":35.266888,"lng":136.742896},{"code":"23203672002","name":"玉野字柳原","lat":35.270105,"lng":136.735651},{"code":"23203673001","name":"上祖父江字中野東","lat":35.276498,"lng":136.719886},{"code":"23203673002","name":"上祖父江字寺東","lat":35.273901,"lng":136.727003},{"code":"23203673003","name":"上祖父江字古堤","lat":35.277275,"lng":136.712418},{"code":"23203673004","name":"上祖父江字山浦東","lat":35.282701,"lng":136.723792},{"code":"232036740","name":"西中野","lat":35.279227,"lng":136.710596},{"code":"232036750","name":"祐久","lat":35.286697,"lng":136.729924},{"code":"23203676001","name":"東加賀野井字江東","lat":35.288208,"lng":136.723701},{"code":"23203676002","name":"東加賀野井字東川原","lat":35.291392,"lng":136.735423},{"code":"23203676003","name":"東加賀野井字東川原","lat":35.291235,"lng":136.733682},{"code":"23203677001","name":"西萩原字八幡西","lat":35.289732,"lng":136.746381},{"code":"23203677002","name":"西萩原字祐久東","lat":35.28853,"lng":136.736826},{"code":"23203678001","name":"蓮池字首池","lat":35.291767,"lng":136.740814},{"code":"23203678002","name":"蓮池字郷西","lat":35.289745,"lng":136.737109},{"code":"23203678003","name":"蓮池字郷東","lat":35.289367,"lng":136.743152},{"code":"23203679001","name":"開明字蒲原","lat":35.317576,"lng":136.769385},{"code":"23203679002","name":"開明字杁先","lat":35.319545,"lng":136.752498},{"code":"23203679003","name":"開明字蒲原","lat":35.315668,"lng":136.75694},{"code":"23203680001","name":"籠屋１丁目","lat":35.309217,"lng":136.767103},{"code":"23203680002","name":"籠屋２丁目","lat":35.309191,"lng":136.769985},{"code":"23203680003","name":"籠屋３丁目","lat":35.309098,"lng":136.772676},{"code":"23203680004","name":"籠屋４丁目","lat":35.305688,"lng":136.771043},{"code":"23203680005","name":"籠屋５丁目","lat":35.305827,"lng":136.767134},{"code":"232036810","name":"木曽川町門間","lat":35.335013,"lng":136.791349},{"code":"23203682001","name":"木曽川町黒田字高田","lat":35.342434,"lng":136.786298},{"code":"23203682002","name":"木曽川町黒田字北野黒","lat":35.34897,"lng":136.783236},{"code":"23203682003","name":"木曽川町黒田字中沼北ノ切","lat":35.347781,"lng":136.775268},{"code":"232036830","name":"木曽川町内割田","lat":35.339468,"lng":136.776295},{"code":"23203684001","name":"木曽川町外割田字摺鉢","lat":35.337731,"lng":136.773649},{"code":"23203684002","name":"木曽川町外割田字孫兵衛池","lat":35.338161,"lng":136.768864},{"code":"232036850","name":"木曽川町玉ノ井","lat":35.336046,"lng":136.757361},{"code":"232036860","name":"木曽川町三ツ法寺","lat":35.332011,"lng":136.76642},{"code":"232036870","name":"木曽川町里小牧","lat":35.348793,"lng":136.762745},{"code":"23203688001","name":"南印田１丁目","lat":35.296253,"lng":136.814282},{"code":"23203688002","name":"南印田２丁目","lat":35.295946,"lng":136.815509},{"code":"23203689001","name":"下田１丁目","lat":35.294976,"lng":136.813694},{"code":"23203689002","name":"下田２丁目","lat":35.294699,"lng":136.815101},{"code":"23203690001","name":"相生１丁目","lat":35.295495,"lng":136.816933},{"code":"23203690002","name":"相生２丁目","lat":35.295134,"lng":136.818329}]}
