{"municipality":"23219","name":"小牧市","prefecture":"愛知県","source":{"dataset":"frogcat/japan-small-area","census":"平成27年国勢調査 小地域（e-Stat 統計LOD）","license":"MIT（リポジトリ）／政府統計の総合窓口(e-Stat)の利用規約（元データ・出典表記必要）","fetched":"2026-07-06"},"towns":[{"code":"232190010","name":"大字南外山","lat":35.268696,"lng":136.926595},{"code":"23219003001","name":"大字北外山","lat":35.277523,"lng":136.929234},{"code":"23219003002","name":"大字北外山","lat":35.276368,"lng":136.930253},{"code":"232190040","name":"桜井本町","lat":35.28244,"lng":136.922375},{"code":"232190050","name":"掛割町","lat":35.27624,"lng":136.923865},{"code":"232190060","name":"若草町","lat":35.279592,"lng":136.92332},{"code":"232190070","name":"大字大山","lat":35.280078,"lng":136.930669},{"code":"232190080","name":"大字北外山入鹿新田","lat":35.285984,"lng":136.925313},{"code":"232190090","name":"東新町","lat":35.285039,"lng":136.927488},{"code":"232190100","name":"緑町","lat":35.283878,"lng":136.927388},{"code":"23219011101","name":"小牧原１丁目","lat":35.30482,"lng":136.925197},{"code":"23219011102","name":"小牧原２丁目","lat":35.30485,"lng":136.931343},{"code":"23219011103","name":"小牧原３丁目","lat":35.303555,"lng":136.936294},{"code":"23219011104","name":"小牧原４丁目","lat":35.302723,"lng":136.929951},{"code":"232190112","name":"大字小牧原新田","lat":35.300597,"lng":136.928754},{"code":"232190120","name":"大字小牧","lat":35.290222,"lng":136.920897},{"code":"232190130","name":"山北町","lat":35.295275,"lng":136.915101},{"code":"232190140","name":"曙町","lat":35.293288,"lng":136.907602},{"code":"232190150","name":"間々本町","lat":35.295776,"lng":136.910199},{"code":"232190160","name":"村中新町","lat":35.295675,"lng":136.905322},{"code":"232190170","name":"弥生町","lat":35.294039,"lng":136.903613},{"code":"232190180","name":"西島町","lat":35.295487,"lng":136.899815},{"code":"232190190","name":"大字舟津","lat":35.287693,"lng":136.897432},{"code":"232190200","name":"大字三ツ渕","lat":35.295139,"lng":136.889348},{"code":"232190210","name":"大字三ツ渕原新田","lat":35.304005,"lng":136.889259},{"code":"232190220","name":"大字西之島","lat":35.29952,"lng":136.898037},{"code":"232190230","name":"大字村中","lat":35.303308,"lng":136.908614},{"code":"232190240","name":"大字入鹿出新田","lat":35.308953,"lng":136.903995},{"code":"232190250","name":"大字河内屋新田","lat":35.319317,"lng":136.910521},{"code":"232190260","name":"大字横内","lat":35.315171,"lng":136.915645},{"code":"232190270","name":"大字間々原新田","lat":35.303377,"lng":136.9173},{"code":"232190280","name":"大字間々","lat":35.297871,"lng":136.910995},{"code":"232190290","name":"安田町","lat":35.297333,"lng":136.916587},{"code":"23219030001","name":"堀の内１丁目","lat":35.292404,"lng":136.912437},{"code":"23219030002","name":"堀の内２丁目","lat":35.290736,"lng":136.908047},{"code":"23219030003","name":"堀の内３丁目","lat":35.289208,"lng":136.912195},{"code":"23219030004","name":"堀の内４丁目","lat":35.286682,"lng":136.910728},{"code":"23219030005","name":"堀の内５丁目","lat":35.288289,"lng":136.907307},{"code":"23219031001","name":"元町１丁目","lat":35.291522,"lng":136.905054},{"code":"23219031002","name":"元町２丁目","lat":35.288739,"lng":136.904935},{"code":"23219031003","name":"元町３丁目","lat":35.286494,"lng":136.903992},{"code":"23219031004","name":"元町４丁目","lat":35.284378,"lng":136.904128},{"code":"23219032001","name":"新町１丁目","lat":35.29694,"lng":136.920875},{"code":"23219032002","name":"新町２丁目","lat":35.296412,"lng":136.925044},{"code":"23219032003","name":"新町３丁目","lat":35.295584,"lng":136.928776},{"code":"23219033001","name":"小牧１丁目","lat":35.292977,"lng":136.918968},{"code":"23219033002","name":"小牧２丁目","lat":35.293143,"lng":136.925215},{"code":"23219033003","name":"小牧３丁目","lat":35.290753,"lng":136.92402},{"code":"23219033004","name":"小牧４丁目","lat":35.287378,"lng":136.922558},{"code":"23219033005","name":"小牧５丁目","lat":35.289357,"lng":136.917786},{"code":"232190340","name":"大字東田中","lat":35.299021,"lng":136.94411},{"code":"232190350","name":"大字二重堀","lat":35.291752,"lng":136.939259},{"code":"232190360","name":"大字文津","lat":35.305176,"lng":136.948308},{"code":"232190370","name":"大字小松寺","lat":35.310218,"lng":136.94591},{"code":"232190380","name":"大字本庄","lat":35.307847,"lng":136.957439},{"code":"232190390","name":"大字岩崎","lat":35.310568,"lng":136.932489},{"code":"232190400","name":"大字岩崎原新田","lat":35.312635,"lng":136.918958},{"code":"232190410","name":"大字久保一色","lat":35.318445,"lng":136.938889},{"code":"232190420","name":"田県町","lat":35.315766,"lng":136.941773},{"code":"232190430","name":"久保本町","lat":35.313583,"lng":136.93982},{"code":"232190440","name":"久保新町","lat":35.311628,"lng":136.939386},{"code":"23219045001","name":"久保一色東１丁目","lat":35.321216,"lng":136.944968},{"code":"23219045002","name":"久保一色東２丁目","lat":35.321584,"lng":136.948023},{"code":"232190460","name":"葭原","lat":35.318068,"lng":136.948266},{"code":"23219047001","name":"久保一色南１丁目","lat":35.318357,"lng":136.93479},{"code":"23219047002","name":"久保一色南２丁目","lat":35.316259,"lng":136.937199},{"code":"23219048001","name":"岩崎原１丁目","lat":35.316681,"lng":136.921425},{"code":"23219048002","name":"岩崎原２丁目","lat":35.31606,"lng":136.923551},{"code":"23219048003","name":"岩崎原３丁目","lat":35.315587,"lng":136.926239},{"code":"23219049001","name":"岩崎１丁目","lat":35.312938,"lng":136.928827},{"code":"23219049005","name":"岩崎５丁目","lat":35.309558,"lng":136.926864},{"code":"232190500","name":"寺西","lat":35.321095,"lng":136.927788},{"code":"232190540","name":"多気東町","lat":35.264128,"lng":136.909633},{"code":"232190550","name":"多気西町","lat":35.261946,"lng":136.898154},{"code":"232190560","name":"多気南町","lat":35.258212,"lng":136.901778},{"code":"232190570","name":"多気北町","lat":35.265816,"lng":136.900238},{"code":"232190580","name":"多気中町","lat":35.263028,"lng":136.905331},{"code":"232190590","name":"大字小木","lat":35.285222,"lng":136.889325},{"code":"232190600","name":"藤島町居屋敷","lat":35.266627,"lng":136.88877},{"code":"23219061001","name":"藤島１丁目","lat":35.271648,"lng":136.885889},{"code":"23219061002","name":"藤島２丁目","lat":35.269904,"lng":136.885101},{"code":"23219062001","name":"小木南１丁目","lat":35.272586,"lng":136.896241},{"code":"23219062002","name":"小木南２丁目","lat":35.27003,"lng":136.895069},{"code":"23219062003","name":"小木南３丁目","lat":35.27125,"lng":136.891503},{"code":"23219063001","name":"小木西１丁目","lat":35.281103,"lng":136.894379},{"code":"23219063002","name":"小木西２丁目","lat":35.275831,"lng":136.890041},{"code":"23219063003","name":"小木西３丁目","lat":35.273135,"lng":136.886575},{"code":"23219064001","name":"下小針中島１丁目","lat":35.273615,"lng":136.904539},{"code":"23219064002","name":"下小針中島２丁目","lat":35.268685,"lng":136.90504},{"code":"23219064003","name":"下小針中島３丁目","lat":35.270157,"lng":136.899992},{"code":"23219065001","name":"下小針天神１丁目","lat":35.272153,"lng":136.909108},{"code":"23219065002","name":"下小針天神２丁目","lat":35.266744,"lng":136.91236},{"code":"23219065003","name":"下小針天神３丁目","lat":35.268226,"lng":136.909501},{"code":"23219066001","name":"常普請１丁目","lat":35.286585,"lng":136.916112},{"code":"23219066002","name":"常普請２丁目","lat":35.28394,"lng":136.917714},{"code":"23219066003","name":"常普請３丁目","lat":35.281128,"lng":136.917329},{"code":"23219067001","name":"外堀１丁目","lat":35.282317,"lng":136.912645},{"code":"23219067002","name":"外堀２丁目","lat":35.279673,"lng":136.91032},{"code":"23219067003","name":"外堀３丁目","lat":35.276674,"lng":136.908581},{"code":"23219067004","name":"外堀４丁目","lat":35.277055,"lng":136.905793},{"code":"23219068001","name":"郷中１丁目","lat":35.278989,"lng":136.919213},{"code":"23219068002","name":"郷中２丁目","lat":35.276597,"lng":136.918651},{"code":"232190690","name":"桜井","lat":35.283887,"lng":136.921298},{"code":"23219070001","name":"小木１丁目","lat":35.283534,"lng":136.902178},{"code":"23219070002","name":"小木２丁目","lat":35.281758,"lng":136.898832},{"code":"23219070003","name":"小木３丁目","lat":35.278637,"lng":136.897103},{"code":"23219070004","name":"小木４丁目","lat":35.276421,"lng":136.895036},{"code":"23219070005","name":"小木５丁目","lat":35.274021,"lng":136.892835},{"code":"23219071001","name":"小木東１丁目","lat":35.280783,"lng":136.903955},{"code":"23219071002","name":"小木東２丁目","lat":35.27745,"lng":136.901754},{"code":"23219071003","name":"小木東３丁目","lat":35.274473,"lng":136.898611},{"code":"232190720","name":"大字大山","lat":35.325797,"lng":137.017509},{"code":"232190730","name":"大字野口","lat":35.320081,"lng":136.993613},{"code":"232190740","name":"大字林","lat":35.317386,"lng":136.977903},{"code":"232190750","name":"大字池之内","lat":35.311842,"lng":136.971396},{"code":"232190760","name":"大字上末","lat":35.29645,"lng":136.961881},{"code":"232190770","name":"長治町","lat":35.292128,"lng":136.953698},{"code":"232190780","name":"郷西町","lat":35.295523,"lng":136.956294},{"code":"232190790","name":"大字下末","lat":35.286774,"lng":136.956579},{"code":"232190800","name":"大字大草","lat":35.297889,"lng":137.001485},{"code":"23219081001","name":"桃ケ丘１丁目","lat":35.299048,"lng":136.980591},{"code":"23219081002","name":"桃ケ丘２丁目","lat":35.297752,"lng":136.977581},{"code":"23219081003","name":"桃ケ丘３丁目","lat":35.297725,"lng":136.974829},{"code":"23219082001","name":"古雅１丁目","lat":35.301653,"lng":136.982008},{"code":"23219082002","name":"古雅２丁目","lat":35.301198,"lng":136.979081},{"code":"23219082003","name":"古雅３丁目","lat":35.302798,"lng":136.976792},{"code":"23219082004","name":"古雅４丁目","lat":35.304583,"lng":136.974476},{"code":"23219083001","name":"篠岡１丁目","lat":35.303122,"lng":136.985471},{"code":"23219083002","name":"篠岡２丁目","lat":35.305087,"lng":136.982534},{"code":"23219083003","name":"篠岡３丁目","lat":35.306242,"lng":136.986397},{"code":"23219084001","name":"光ケ丘１丁目","lat":35.300464,"lng":136.98822},{"code":"23219084002","name":"光ケ丘２丁目","lat":35.303166,"lng":136.989979},{"code":"23219084003","name":"光ケ丘３丁目","lat":35.302522,"lng":136.993585},{"code":"23219084004","name":"光ケ丘４丁目","lat":35.300592,"lng":136.996348},{"code":"23219084005","name":"光ケ丘５丁目","lat":35.297218,"lng":136.993137},{"code":"23219084006","name":"光ケ丘６丁目","lat":35.298221,"lng":136.990661},{"code":"23219085001","name":"城山１丁目","lat":35.297947,"lng":136.984071},{"code":"23219085002","name":"城山２丁目","lat":35.296842,"lng":136.986697},{"code":"23219085003","name":"城山３丁目","lat":35.293568,"lng":136.989088},{"code":"23219085004","name":"城山４丁目","lat":35.291138,"lng":136.985417},{"code":"23219085005","name":"城山５丁目","lat":35.293965,"lng":136.982185},{"code":"23219086001","name":"中央１丁目","lat":35.289252,"lng":136.927208},{"code":"23219086002","name":"中央２丁目","lat":35.289169,"lng":136.929659},{"code":"23219086003","name":"中央３丁目","lat":35.290075,"lng":136.932659},{"code":"23219086004","name":"中央４丁目","lat":35.289047,"lng":136.935409},{"code":"23219086005","name":"中央５丁目","lat":35.286238,"lng":136.934843},{"code":"23219086006","name":"中央６丁目","lat":35.285411,"lng":136.932921},{"code":"23219087001","name":"川西１丁目","lat":35.284373,"lng":136.907652},{"code":"23219087002","name":"川西２丁目","lat":35.28344,"lng":136.909899},{"code":"23219087003","name":"川西３丁目","lat":35.280951,"lng":136.90736},{"code":"23219088001","name":"新小木１丁目","lat":35.284676,"lng":136.886794},{"code":"23219088002","name":"新小木２丁目","lat":35.282581,"lng":136.891291},{"code":"23219088003","name":"新小木３丁目","lat":35.279662,"lng":136.889408},{"code":"23219088004","name":"新小木４丁目","lat":35.277881,"lng":136.886587},{"code":"23219089001","name":"高根１丁目","lat":35.294254,"lng":136.973823},{"code":"23219089002","name":"高根２丁目","lat":35.290984,"lng":136.975607},{"code":"23219089003","name":"高根３丁目","lat":35.287604,"lng":136.977132},{"code":"23219090001","name":"大字南外山","lat":35.264843,"lng":136.9223},{"code":"23219090002","name":"春日寺２丁目","lat":35.261542,"lng":136.931036},{"code":"23219090003","name":"春日寺３丁目","lat":35.261177,"lng":136.933075},{"code":"23219091001","name":"市之久田１丁目","lat":35.272512,"lng":136.919995},{"code":"23219091002","name":"市之久田２丁目","lat":35.269212,"lng":136.919958},{"code":"23219092001","name":"応時１丁目","lat":35.283395,"lng":136.932657},{"code":"23219092002","name":"応時２丁目","lat":35.281421,"lng":136.936105},{"code":"23219092003","name":"応時３丁目","lat":35.280776,"lng":136.933486},{"code":"23219092004","name":"応時４丁目","lat":35.281916,"lng":136.930394},{"code":"23219093001","name":"東１丁目","lat":35.284894,"lng":136.940677},{"code":"23219093002","name":"東２丁目","lat":35.278902,"lng":136.94401},{"code":"23219093003","name":"東３丁目","lat":35.279271,"lng":136.940717},{"code":"23219093004","name":"東４丁目","lat":35.281224,"lng":136.938854},{"code":"23219099001","name":"小針１丁目","lat":35.276426,"lng":136.913074},{"code":"23219099002","name":"小針２丁目","lat":35.272761,"lng":136.914035},{"code":"23219099003","name":"小針３丁目","lat":35.268047,"lng":136.913601}]}
