{"municipality":"23229","name":"豊明市","prefecture":"愛知県","source":{"dataset":"frogcat/japan-small-area","census":"平成27年国勢調査 小地域（e-Stat 統計LOD）","license":"MIT（リポジトリ）／政府統計の総合窓口(e-Stat)の利用規約（元データ・出典表記必要）","fetched":"2026-07-06"},"towns":[{"code":"23229001001","name":"沓掛町小廻間","lat":35.076342,"lng":137.013714},{"code":"23229001002","name":"沓掛町寺内","lat":35.072182,"lng":137.025721},{"code":"232290020","name":"新田町","lat":35.051757,"lng":137.016934},{"code":"232290030","name":"三崎町","lat":35.054253,"lng":137.006823},{"code":"232290040","name":"大久伝町","lat":35.053705,"lng":137.024698},{"code":"232290050","name":"阿野町","lat":35.04403,"lng":137.009279},{"code":"232290060","name":"前後町","lat":35.057532,"lng":136.993855},{"code":"23229007001","name":"栄町元屋敷","lat":35.036229,"lng":137.001447},{"code":"23229007002","name":"栄町大原","lat":35.044413,"lng":136.993433},{"code":"23229007003","name":"栄町殿ノ山","lat":35.048255,"lng":136.982561},{"code":"23229007004","name":"栄町武侍","lat":35.056348,"lng":136.980893},{"code":"232290080","name":"間米町","lat":35.066111,"lng":136.995401},{"code":"23229009001","name":"新栄町一丁目","lat":35.057651,"lng":136.989534},{"code":"23229009002","name":"新栄町二丁目","lat":35.055016,"lng":136.989818},{"code":"23229009003","name":"新栄町三丁目","lat":35.052876,"lng":136.986954},{"code":"23229009004","name":"新栄町四丁目","lat":35.051521,"lng":136.984287},{"code":"23229009005","name":"新栄町五丁目","lat":35.053352,"lng":136.981934},{"code":"23229009006","name":"新栄町六丁目","lat":35.055041,"lng":136.984109},{"code":"23229009007","name":"新栄町七丁目","lat":35.057487,"lng":136.986151},{"code":"23229010001","name":"二村台１丁目","lat":35.060718,"lng":137.002563},{"code":"23229010002","name":"二村台２丁目","lat":35.061234,"lng":137.006135},{"code":"23229010003","name":"二村台３丁目","lat":35.064323,"lng":137.005293},{"code":"23229010004","name":"二村台４丁目","lat":35.064411,"lng":137.009626},{"code":"23229010005","name":"二村台５丁目","lat":35.066536,"lng":137.008096},{"code":"23229010006","name":"二村台６丁目","lat":35.067947,"lng":137.005589},{"code":"23229010007","name":"二村台７丁目","lat":35.069184,"lng":137.01083},{"code":"23229011001","name":"西川町島原","lat":35.056537,"lng":137.013878},{"code":"23229011002","name":"西川町笹原","lat":35.058082,"lng":137.011643},{"code":"23229011003","name":"西川町横井","lat":35.059891,"lng":137.008808},{"code":"23229011004","name":"西川町長田","lat":35.060437,"lng":137.01343},{"code":"23229011005","name":"西川町善波","lat":35.062257,"lng":137.011181},{"code":"23229011006","name":"西川町広原","lat":35.062298,"lng":137.014355},{"code":"23229011007","name":"西川町荒巻","lat":35.064722,"lng":137.013589}]}
