{"municipality":"23222","name":"東海市","prefecture":"愛知県","source":{"dataset":"frogcat/japan-small-area","census":"平成27年国勢調査 小地域（e-Stat 統計LOD）","license":"MIT（リポジトリ）／政府統計の総合窓口(e-Stat)の利用規約（元データ・出典表記必要）","fetched":"2026-07-06"},"towns":[{"code":"232220010","name":"新宝町","lat":35.054696,"lng":136.891841},{"code":"232220020","name":"南柴田町","lat":35.063299,"lng":136.902602},{"code":"23222003001","name":"名和町下新屋敷","lat":35.059605,"lng":136.917109},{"code":"23222003002","name":"名和町北三ケ月","lat":35.05062,"lng":136.910008},{"code":"23222003003","name":"名和町八幡前","lat":35.046108,"lng":136.922461},{"code":"23222004001","name":"東海町１丁目","lat":35.037623,"lng":136.899357},{"code":"23222004002","name":"東海町４丁目","lat":35.035691,"lng":136.895499},{"code":"23222004003","name":"東海町３丁目","lat":35.032415,"lng":136.896331},{"code":"23222004005","name":"東海町５丁目","lat":35.031114,"lng":136.874889},{"code":"23222004006","name":"東海町６丁目","lat":35.041213,"lng":136.897468},{"code":"23222004007","name":"東海町７丁目","lat":35.039684,"lng":136.90081},{"code":"23222005001","name":"荒尾町見晴","lat":35.038313,"lng":136.90473},{"code":"23222005002","name":"荒尾町下平井","lat":35.036022,"lng":136.919838},{"code":"23222005003","name":"荒尾町山ノ田","lat":35.02728,"lng":136.920581},{"code":"23222006001","name":"中央町１丁目、３丁目","lat":35.024461,"lng":136.904343},{"code":"23222006002","name":"中央町２丁目","lat":35.02567,"lng":136.90079},{"code":"23222006004","name":"中央町４丁目","lat":35.020934,"lng":136.905864},{"code":"23222006005","name":"中央町５丁目","lat":35.020293,"lng":136.907984},{"code":"23222006006","name":"中央町６丁目","lat":35.01834,"lng":136.906805},{"code":"23222006007","name":"中央町７丁目","lat":35.020137,"lng":136.903775},{"code":"23222007001","name":"富木島町南屋敷","lat":35.022656,"lng":136.916883},{"code":"23222007002","name":"富木島町内堀","lat":35.015538,"lng":136.916544},{"code":"23222007003","name":"富木島町新藤塚","lat":35.015988,"lng":136.932281},{"code":"232220080","name":"大田町","lat":35.02093,"lng":136.893878},{"code":"23222009000","name":"高横須賀町角田","lat":35.009952,"lng":136.891505},{"code":"23222009003","name":"高横須賀町３丁目","lat":35.014142,"lng":136.890593},{"code":"23222009004","name":"高横須賀町４丁目","lat":35.015418,"lng":136.891157},{"code":"23222009005","name":"高横須賀町５丁目","lat":35.013257,"lng":136.89432},{"code":"23222009006","name":"高横須賀町６丁目","lat":35.010603,"lng":136.894553},{"code":"232220100","name":"元浜町","lat":35.015725,"lng":136.866797},{"code":"232220110","name":"横須賀町","lat":35.014912,"lng":136.882419},{"code":"23222012000","name":"養父町諸之木","lat":35.00734,"lng":136.880129},{"code":"23222012001","name":"養父町真崎","lat":34.994335,"lng":136.893501},{"code":"23222013001","name":"加木屋町宮ノ脇","lat":34.997894,"lng":136.907125},{"code":"23222013002","name":"加木屋町鎌吉良根","lat":34.990886,"lng":136.911646},{"code":"23222013003","name":"加木屋町１丁目","lat":34.98228,"lng":136.911767},{"code":"23222013004","name":"加木屋町高見","lat":34.977641,"lng":136.915567},{"code":"23222014001","name":"中ノ池１丁目","lat":35.002759,"lng":136.898403},{"code":"23222014002","name":"中ノ池２丁目","lat":35.00135,"lng":136.897908},{"code":"23222014003","name":"中ノ池３丁目","lat":34.998965,"lng":136.899174},{"code":"23222014004","name":"中ノ池４丁目","lat":34.99735,"lng":136.897482},{"code":"23222014005","name":"中ノ池５丁目","lat":34.998997,"lng":136.896039},{"code":"23222014006","name":"中ノ池６丁目","lat":35.001548,"lng":136.894859},{"code":"23222015001","name":"富貴ノ台１丁目","lat":35.030756,"lng":136.901117},{"code":"23222015002","name":"富貴ノ台２丁目","lat":35.033646,"lng":136.902877},{"code":"23222015003","name":"富貴ノ台３丁目","lat":35.033237,"lng":136.905721},{"code":"23222015004","name":"富貴ノ台４丁目","lat":35.032099,"lng":136.907604},{"code":"23222015005","name":"富貴ノ台５丁目","lat":35.029329,"lng":136.90685},{"code":"23222015006","name":"富貴ノ台６丁目","lat":35.029791,"lng":136.904182},{"code":"23222016001","name":"浅山１丁目","lat":35.049445,"lng":136.903804},{"code":"23222016002","name":"浅山２丁目","lat":35.051838,"lng":136.904633},{"code":"23222016003","name":"浅山３丁目","lat":35.054836,"lng":136.907538}]}
