{"municipality":"23223","name":"大府市","prefecture":"愛知県","source":{"dataset":"frogcat/japan-small-area","census":"平成27年国勢調査 小地域（e-Stat 統計LOD）","license":"MIT（リポジトリ）／政府統計の総合窓口(e-Stat)の利用規約（元データ・出典表記必要）","fetched":"2026-07-06"},"towns":[{"code":"232230010","name":"大府町","lat":35.011853,"lng":136.94796},{"code":"23223002001","name":"桃山町１丁目","lat":35.019661,"lng":136.961397},{"code":"23223002002","name":"桃山町２丁目","lat":35.016591,"lng":136.961889},{"code":"23223002003","name":"桃山町３丁目","lat":35.018007,"lng":136.966643},{"code":"23223002004","name":"桃山町４丁目","lat":35.015374,"lng":136.965961},{"code":"23223002005","name":"桃山町５丁目","lat":35.013207,"lng":136.964955},{"code":"23223003001","name":"中央町１丁目","lat":35.014768,"lng":136.960338},{"code":"23223003002","name":"中央町２丁目","lat":35.012211,"lng":136.960793},{"code":"23223003003","name":"中央町３丁目","lat":35.009488,"lng":136.962531},{"code":"23223003004","name":"中央町４丁目","lat":35.007319,"lng":136.964153},{"code":"23223003005","name":"中央町５丁目","lat":35.011693,"lng":136.963224},{"code":"23223003006","name":"中央町６丁目","lat":35.010232,"lng":136.964704},{"code":"23223003007","name":"中央町７丁目","lat":35.008739,"lng":136.96632},{"code":"23223004001","name":"朝日町１丁目","lat":35.005279,"lng":136.965484},{"code":"23223004002","name":"朝日町２丁目","lat":35.004004,"lng":136.967098},{"code":"23223004003","name":"朝日町３丁目","lat":35.006558,"lng":136.968194},{"code":"23223004004","name":"朝日町４丁目","lat":35.005729,"lng":136.968853},{"code":"23223004005","name":"朝日町５丁目","lat":35.005082,"lng":136.969678},{"code":"23223004006","name":"朝日町６丁目","lat":35.002354,"lng":136.971364},{"code":"23223005001","name":"長根町１丁目","lat":35.026228,"lng":136.964837},{"code":"23223005002","name":"長根町２丁目","lat":35.022468,"lng":136.963107},{"code":"23223005004","name":"長根町４丁目","lat":35.02433,"lng":136.967993},{"code":"23223005005","name":"長根町５丁目","lat":35.02192,"lng":136.966864},{"code":"23223005006","name":"長根町６丁目","lat":35.019761,"lng":136.967423},{"code":"232230060","name":"横根町","lat":35.020719,"lng":136.977971},{"code":"232230070","name":"北崎町","lat":35.034094,"lng":136.986893},{"code":"232230080","name":"共和町","lat":35.043861,"lng":136.938984},{"code":"23223009001","name":"共和町１丁目","lat":35.039633,"lng":136.951743},{"code":"23223009002","name":"共和町２丁目","lat":35.035674,"lng":136.952374},{"code":"23223009003","name":"共和町３丁目","lat":35.032207,"lng":136.953516},{"code":"23223009004","name":"共和町４丁目","lat":35.03917,"lng":136.947761},{"code":"23223009005","name":"共和町５丁目","lat":35.035652,"lng":136.949239},{"code":"23223009006","name":"共和町６丁目","lat":35.031967,"lng":136.950399},{"code":"23223009007","name":"共和町５丁目","lat":35.036754,"lng":136.946512},{"code":"23223010001","name":"共西町１丁目","lat":35.036743,"lng":136.944498},{"code":"23223010002","name":"共西町２丁目","lat":35.034075,"lng":136.945883},{"code":"23223010003","name":"共西町３丁目","lat":35.032636,"lng":136.947654},{"code":"23223010004","name":"共西町４丁目","lat":35.0384,"lng":136.941625},{"code":"23223010005","name":"共西町５丁目","lat":35.035941,"lng":136.941691},{"code":"23223010006","name":"共西町６丁目","lat":35.033277,"lng":136.943108},{"code":"23223010007","name":"共西町７丁目","lat":35.030898,"lng":136.945376},{"code":"23223011001","name":"共栄町１丁目","lat":35.045984,"lng":136.956104},{"code":"23223011002","name":"共栄町２丁目","lat":35.043453,"lng":136.958986},{"code":"23223011003","name":"共栄町３丁目","lat":35.043175,"lng":136.954253},{"code":"23223011004","name":"共栄町４丁目","lat":35.043014,"lng":136.956966},{"code":"23223011006","name":"共栄町６丁目","lat":35.040759,"lng":136.958678},{"code":"23223011007","name":"共栄町７丁目","lat":35.040091,"lng":136.956429},{"code":"23223011008","name":"共栄町８丁目","lat":35.038342,"lng":136.955314},{"code":"23223011009","name":"共栄町９丁目","lat":35.036274,"lng":136.95581},{"code":"23223012001","name":"東新町１丁目","lat":35.036719,"lng":136.95883},{"code":"23223012002","name":"東新町２丁目","lat":35.034096,"lng":136.95776},{"code":"23223012003","name":"東新町３丁目","lat":35.03217,"lng":136.958389},{"code":"23223012004","name":"東新町４丁目","lat":35.038205,"lng":136.962093},{"code":"23223012005","name":"東新町５丁目","lat":35.035096,"lng":136.96255},{"code":"23223012006","name":"東新町６丁目","lat":35.032675,"lng":136.962669},{"code":"23223013001","name":"追分町１丁目","lat":35.030159,"lng":136.958735},{"code":"23223013002","name":"追分町２丁目","lat":35.028063,"lng":136.958299},{"code":"23223013003","name":"追分町３丁目","lat":35.02577,"lng":136.957911},{"code":"23223013004","name":"追分町４丁目","lat":35.028562,"lng":136.961133},{"code":"23223013005","name":"追分町５丁目","lat":35.025611,"lng":136.960841},{"code":"23223013006","name":"追分町６丁目","lat":35.023303,"lng":136.959254},{"code":"23223014001","name":"梶田町１丁目","lat":35.041452,"lng":136.965163},{"code":"23223014002","name":"梶田町２丁目","lat":35.039749,"lng":136.965786},{"code":"23223014003","name":"梶田町２丁目","lat":35.038112,"lng":136.968253},{"code":"23223014004","name":"梶田町４丁目","lat":35.035824,"lng":136.968561},{"code":"23223014005","name":"梶田町５丁目","lat":35.036128,"lng":136.965331},{"code":"23223014006","name":"梶田町６丁目","lat":35.034233,"lng":136.968585},{"code":"23223015001","name":"北山町１丁目","lat":35.031656,"lng":136.965319},{"code":"23223015002","name":"北山町２丁目","lat":35.031709,"lng":136.968171},{"code":"23223015003","name":"北山町３丁目","lat":35.028852,"lng":136.968999},{"code":"23223015004","name":"北山町４丁目","lat":35.025192,"lng":136.969062},{"code":"232230160","name":"長草町","lat":35.024688,"lng":136.937886},{"code":"232230170","name":"吉田町","lat":34.995013,"lng":136.936585},{"code":"232230180","name":"森岡町","lat":35.008301,"lng":136.940331},{"code":"23223019001","name":"江端町１丁目","lat":35.01086,"lng":136.959169},{"code":"23223019002","name":"江端町２丁目","lat":35.013081,"lng":136.955689},{"code":"23223019003","name":"江端町３丁目","lat":35.009968,"lng":136.956603},{"code":"23223019004","name":"江端町４丁目","lat":35.01106,"lng":136.952651},{"code":"23223019005","name":"江端町５丁目","lat":35.008339,"lng":136.954373},{"code":"23223019006","name":"江端町６丁目","lat":35.010511,"lng":136.949747},{"code":"23223020001","name":"月見町１丁目","lat":35.006888,"lng":136.961007},{"code":"23223020002","name":"月見町２丁目","lat":35.003971,"lng":136.963629},{"code":"23223020003","name":"月見町３丁目","lat":35.006322,"lng":136.958167},{"code":"23223020004","name":"月見町４丁目","lat":35.003963,"lng":136.960101},{"code":"23223020005","name":"月見町５丁目","lat":35.006609,"lng":136.95455},{"code":"23223020006","name":"月見町６丁目","lat":35.003555,"lng":136.957118},{"code":"23223021000","name":"高丘町１丁目","lat":34.995355,"lng":136.936331},{"code":"23223021001","name":"高丘町１丁目","lat":34.994185,"lng":136.933474},{"code":"23223021002","name":"高丘町２丁目","lat":34.997666,"lng":136.934364},{"code":"23223021003","name":"高丘町３丁目","lat":34.997096,"lng":136.931304},{"code":"23223022001","name":"大東町１丁目","lat":35.008798,"lng":136.971376},{"code":"23223022002","name":"大東町２丁目","lat":35.004311,"lng":136.97647},{"code":"23223022003","name":"大東町３丁目","lat":35.008845,"lng":136.974856},{"code":"23223022004","name":"大東町４丁目","lat":35.005649,"lng":136.978302},{"code":"23223023001","name":"明成町１丁目","lat":35.029604,"lng":136.949272},{"code":"23223023002","name":"明成町２丁目","lat":35.027271,"lng":136.949051},{"code":"23223023003","name":"明成町３丁目","lat":35.023084,"lng":136.95022},{"code":"23223023004","name":"明成町４丁目","lat":35.020777,"lng":136.949538},{"code":"23223024001","name":"若草町１丁目","lat":35.016426,"lng":136.96986},{"code":"23223024002","name":"若草町２丁目","lat":35.013106,"lng":136.968796},{"code":"23223024003","name":"若草町３丁目","lat":35.010856,"lng":136.969024},{"code":"23223024004","name":"若草町４丁目","lat":35.012673,"lng":136.972638},{"code":"23223025001","name":"桜木町１丁目","lat":34.991279,"lng":136.919791},{"code":"23223025002","name":"桜木町２丁目","lat":34.988741,"lng":136.919841},{"code":"23223025003","name":"桜木町３丁目","lat":34.985419,"lng":136.920771},{"code":"23223025004","name":"桜木町４丁目","lat":34.983811,"lng":136.917648},{"code":"23223025005","name":"桜木町３丁目","lat":34.980123,"lng":136.922428},{"code":"23223026001","name":"米田町１丁目","lat":34.989012,"lng":136.92972},{"code":"23223026002","name":"米田町２丁目","lat":34.983936,"lng":136.925892},{"code":"23223026003","name":"米田町１丁目","lat":34.989348,"lng":136.925445},{"code":"23223027001","name":"吉川町１丁目","lat":35.004367,"lng":136.926968},{"code":"23223027002","name":"吉川町２丁目","lat":35.002079,"lng":136.926901},{"code":"23223027003","name":"吉川町３丁目","lat":34.998986,"lng":136.927543},{"code":"23223027004","name":"吉川町４丁目","lat":35.00352,"lng":136.92373},{"code":"23223027005","name":"吉川町５丁目","lat":35.000545,"lng":136.923395},{"code":"23223027006","name":"吉川町６丁目","lat":35.003862,"lng":136.919906},{"code":"23223027007","name":"吉川町７丁目","lat":35.000518,"lng":136.920318},{"code":"23223028001","name":"馬池町１丁目","lat":34.99344,"lng":136.928026},{"code":"23223028002","name":"馬池町２丁目","lat":34.99684,"lng":136.925268},{"code":"23223028003","name":"馬池町３丁目","lat":34.993937,"lng":136.924788},{"code":"23223028004","name":"馬池町４丁目","lat":34.994885,"lng":136.921173},{"code":"23223028005","name":"馬池町５丁目","lat":34.99693,"lng":136.91844},{"code":"23223029001","name":"吉田町１丁目","lat":35.003489,"lng":136.938946},{"code":"23223029002","name":"吉田町２丁目","lat":34.99987,"lng":136.93725},{"code":"23223029003","name":"吉田町３丁目","lat":35.004002,"lng":136.935513},{"code":"23223029004","name":"吉田町４丁目","lat":35.000869,"lng":136.934183},{"code":"23223029005","name":"吉田町５丁目","lat":35.004117,"lng":136.931103},{"code":"23223029006","name":"吉田町６丁目","lat":35.001615,"lng":136.930445},{"code":"23223030001","name":"宮内町１丁目","lat":35.011759,"lng":136.930474},{"code":"23223030002","name":"宮内町２丁目","lat":35.009682,"lng":136.930786},{"code":"23223030003","name":"宮内町３丁目","lat":35.006656,"lng":136.930666},{"code":"23223030004","name":"宮内町４丁目","lat":35.007104,"lng":136.926699},{"code":"23223030005","name":"宮内町５丁目","lat":35.010418,"lng":136.924362},{"code":"23223030006","name":"宮内町６丁目","lat":35.006713,"lng":136.922157},{"code":"23223030007","name":"宮内町７丁目","lat":35.008647,"lng":136.918879},{"code":"23223031001","name":"北崎町１丁目","lat":35.037318,"lng":136.982079},{"code":"23223031002","name":"北崎町２丁目","lat":35.034543,"lng":136.981499},{"code":"23223031003","name":"北崎町３丁目","lat":35.032455,"lng":136.983304},{"code":"23223031004","name":"北崎町４丁目","lat":35.031471,"lng":136.987133},{"code":"23223031005","name":"北崎町５丁目","lat":35.035219,"lng":136.985795},{"code":"23223031006","name":"北崎町６丁目","lat":35.034223,"lng":136.989499},{"code":"23223031007","name":"北崎町７丁目","lat":35.029967,"lng":136.991042},{"code":"23223032001","name":"神田町１丁目","lat":35.028587,"lng":136.980596},{"code":"23223032002","name":"神田町２丁目","lat":35.029175,"lng":136.98299},{"code":"23223032003","name":"神田町３丁目","lat":35.025565,"lng":136.986135},{"code":"23223032004","name":"神田町４丁目","lat":35.027538,"lng":136.986546},{"code":"23223032005","name":"神田町５丁目","lat":35.02946,"lng":136.986585},{"code":"23223032006","name":"神田町６丁目","lat":35.027605,"lng":136.990115},{"code":"23223032007","name":"神田町７丁目","lat":35.024231,"lng":136.989025},{"code":"23223033001","name":"半月町１丁目","lat":35.006185,"lng":136.941778},{"code":"23223033002","name":"半月町２丁目","lat":35.002955,"lng":136.941912},{"code":"23223033003","name":"半月町３丁目","lat":34.998943,"lng":136.941412},{"code":"23223033004","name":"半月町４丁目","lat":34.996279,"lng":136.940404},{"code":"23223034001","name":"森岡町１丁目","lat":35.007246,"lng":136.950566},{"code":"23223034002","name":"森岡町２丁目","lat":35.007483,"lng":136.947107},{"code":"23223034003","name":"森岡町３丁目","lat":35.007628,"lng":136.943934},{"code":"23223034004","name":"森岡町４丁目","lat":35.00423,"lng":136.951936},{"code":"23223034005","name":"森岡町５丁目","lat":35.004696,"lng":136.946751},{"code":"23223034006","name":"森尾町６丁目","lat":35.00264,"lng":136.946041},{"code":"23223034007","name":"森岡町７丁目","lat":35.000102,"lng":136.954588},{"code":"23223034008","name":"森岡町８丁目","lat":35.000782,"lng":136.951284},{"code":"23223034009","name":"森岡町９丁目","lat":34.997652,"lng":136.946312},{"code":"23223035001","name":"柊山町１丁目","lat":35.017483,"lng":136.956163},{"code":"23223035002","name":"柊山町２丁目","lat":35.015377,"lng":136.954816},{"code":"23223035003","name":"柊山町３丁目","lat":35.01928,"lng":136.950669},{"code":"23223035004","name":"柊山町４丁目","lat":35.017065,"lng":136.950967},{"code":"23223035005","name":"柊山町５丁目","lat":35.014573,"lng":136.95161},{"code":"23223035006","name":"柊山町６丁目","lat":35.018406,"lng":136.946285},{"code":"23223035007","name":"柊山町７丁目","lat":35.015967,"lng":136.945995},{"code":"23223035008","name":"柊山町８丁目","lat":35.013831,"lng":136.948357},{"code":"23223036001","name":"一屋町１丁目","lat":35.02764,"lng":136.955114},{"code":"23223036002","name":"一屋町２丁目","lat":35.024079,"lng":136.955306},{"code":"23223036003","name":"一屋町３丁目","lat":35.020865,"lng":136.955682},{"code":"23223036004","name":"一屋町４丁目","lat":35.02829,"lng":136.953387},{"code":"23223036005","name":"一屋町５丁目","lat":35.023906,"lng":136.953153}]}
