{"municipality":"23233","name":"清須市","prefecture":"愛知県","source":{"dataset":"frogcat/japan-small-area","census":"平成27年国勢調査 小地域（e-Stat 統計LOD）","license":"MIT（リポジトリ）／政府統計の総合窓口(e-Stat)の利用規約（元データ・出典表記必要）","fetched":"2026-07-06"},"towns":[{"code":"232330010","name":"土器野","lat":35.192875,"lng":136.851706},{"code":"232330020","name":"上河原","lat":35.195072,"lng":136.853394},{"code":"232330030","name":"中河原","lat":35.190488,"lng":136.849908},{"code":"232330040","name":"下河原","lat":35.185845,"lng":136.850245},{"code":"232330050","name":"須ケ口","lat":35.199646,"lng":136.847723},{"code":"232330060","name":"西須ケ口","lat":35.201502,"lng":136.839524},{"code":"232330070","name":"東外町","lat":35.201641,"lng":136.843757},{"code":"232330080","name":"東須ケ口","lat":35.202083,"lng":136.848016},{"code":"232330090","name":"西堀江","lat":35.191328,"lng":136.845717},{"code":"23233010001","name":"寺野郷前","lat":35.205185,"lng":136.850706},{"code":"23233010002","name":"寺野元町","lat":35.207082,"lng":136.848404},{"code":"23233010003","name":"寺野花園","lat":35.209868,"lng":136.845994},{"code":"23233010004","name":"寺野花笠","lat":35.207623,"lng":136.853479},{"code":"23233010005","name":"寺野池端","lat":35.210485,"lng":136.850138},{"code":"23233010006","name":"寺野美鈴","lat":35.210319,"lng":136.854275},{"code":"23233011001","name":"鍋片一丁目","lat":35.20758,"lng":136.843465},{"code":"23233011002","name":"鍋片二丁目","lat":35.205292,"lng":136.844989},{"code":"23233011003","name":"鍋片三丁目","lat":35.203482,"lng":136.846669},{"code":"23233012001","name":"助七東山中","lat":35.205236,"lng":136.856245},{"code":"23233012002","name":"助七五反田","lat":35.206502,"lng":136.854912},{"code":"23233012003","name":"助七芳花","lat":35.207921,"lng":136.856292},{"code":"23233012004","name":"助七美里","lat":35.20588,"lng":136.853424},{"code":"23233013001","name":"阿原神門","lat":35.208414,"lng":136.857693},{"code":"23233013002","name":"阿原宮前","lat":35.210266,"lng":136.859313},{"code":"23233013003","name":"阿原宮東","lat":35.212547,"lng":136.859812},{"code":"23233013004","name":"阿原星の宮","lat":35.212211,"lng":136.856214},{"code":"23233013005","name":"阿原北野","lat":35.213949,"lng":136.861314},{"code":"23233013006","name":"阿原向北","lat":35.213775,"lng":136.86338},{"code":"23233013007","name":"阿原鴨池","lat":35.217016,"lng":136.856615},{"code":"23233013008","name":"阿原池之表","lat":35.214252,"lng":136.856005},{"code":"23233013009","name":"阿原八幡","lat":35.21607,"lng":136.854475},{"code":"23233013010","name":"阿原角の城","lat":35.218254,"lng":136.853759},{"code":"23233013011","name":"阿原九丁田","lat":35.217081,"lng":136.858065},{"code":"23233014001","name":"助七１丁目","lat":35.20306,"lng":136.85369},{"code":"23233014002","name":"助七２丁目","lat":35.203458,"lng":136.850605},{"code":"23233015001","name":"須ケ口駅前１丁目","lat":35.198897,"lng":136.845162},{"code":"23233015002","name":"須ケ口駅前２丁目","lat":35.198524,"lng":136.844476},{"code":"232330160","name":"萩野","lat":35.195268,"lng":136.846313},{"code":"23233017001","name":"桃栄一丁目","lat":35.198478,"lng":136.839739},{"code":"23233017002","name":"桃栄二丁目","lat":35.197127,"lng":136.841059},{"code":"23233017003","name":"桃栄三丁目","lat":35.195139,"lng":136.842886},{"code":"23233017004","name":"桃栄四丁目","lat":35.193054,"lng":136.845566},{"code":"23233018001","name":"西市場一丁目","lat":35.218248,"lng":136.835444},{"code":"23233018002","name":"西市場二丁目","lat":35.22024,"lng":136.835683},{"code":"23233018003","name":"西市場三丁目","lat":35.220463,"lng":136.833303},{"code":"23233018004","name":"西市場四丁目","lat":35.220682,"lng":136.830656},{"code":"23233018005","name":"西市場五丁目","lat":35.219161,"lng":136.828445},{"code":"23233018006","name":"西市場六丁目","lat":35.221129,"lng":136.827599},{"code":"23233019101","name":"廻間一丁目","lat":35.216685,"lng":136.831954},{"code":"23233019102","name":"廻間二丁目","lat":35.21787,"lng":136.830164},{"code":"23233019103","name":"廻間三丁目","lat":35.216874,"lng":136.827267},{"code":"23233020101","name":"清洲一丁目","lat":35.216268,"lng":136.835743},{"code":"23233020102","name":"清洲二丁目","lat":35.216353,"lng":136.838207},{"code":"23233020103","name":"清洲三丁目","lat":35.217808,"lng":136.839393},{"code":"23233020104","name":"清洲四丁目","lat":35.221526,"lng":136.83669},{"code":"23233020201","name":"清洲","lat":35.210795,"lng":136.840374},{"code":"23233020202","name":"清洲田中町","lat":35.214996,"lng":136.843474},{"code":"23233020203","name":"清洲弁天","lat":35.216367,"lng":136.846617},{"code":"23233021001","name":"一場","lat":35.226764,"lng":136.837995},{"code":"23233021002","name":"一場","lat":35.223859,"lng":136.840766},{"code":"23233021003","name":"一場","lat":35.221435,"lng":136.840883},{"code":"23233022001","name":"朝日五条","lat":35.222593,"lng":136.846438},{"code":"23233022002","name":"朝日愛宕","lat":35.222372,"lng":136.849567},{"code":"23233022003","name":"朝日天王","lat":35.219414,"lng":136.84596},{"code":"23233022004","name":"朝日弥生","lat":35.219124,"lng":136.848637},{"code":"23233022005","name":"朝日貝塚","lat":35.220632,"lng":136.853401},{"code":"23233022006","name":"朝日城屋敷","lat":35.21741,"lng":136.844},{"code":"23233023001","name":"西田中長堀","lat":35.216923,"lng":136.849154},{"code":"23233023002","name":"西田中松本","lat":35.216969,"lng":136.851904},{"code":"23233023003","name":"西田中本城","lat":35.215436,"lng":136.850101},{"code":"23233023004","name":"西田中蓮池","lat":35.214072,"lng":136.851937},{"code":"23233023005","name":"西田中白山","lat":35.212377,"lng":136.85337},{"code":"23233023006","name":"西田中城下","lat":35.21346,"lng":136.848908},{"code":"23233023007","name":"西田中石塚","lat":35.211559,"lng":136.850975},{"code":"23233024002","name":"土田郷上切","lat":35.211333,"lng":136.830069},{"code":"23233024003","name":"土田郷中切","lat":35.210972,"lng":136.830789},{"code":"23233024004","name":"土田郷下切","lat":35.20956,"lng":136.830051},{"code":"23233024005","name":"土田郷下切","lat":35.209598,"lng":136.831283},{"code":"23233024006","name":"土田丁長，江ノ相","lat":35.213986,"lng":136.825467},{"code":"23233024007","name":"土田三反地","lat":35.210943,"lng":136.825698},{"code":"23233025003","name":"上条","lat":35.206588,"lng":136.826836},{"code":"23233025004","name":"上条織部","lat":35.208496,"lng":136.831247},{"code":"23233026001","name":"新清洲一丁目","lat":35.210948,"lng":136.834429},{"code":"23233026002","name":"新清洲二丁目","lat":35.209236,"lng":136.834799},{"code":"23233026003","name":"新清洲三丁目","lat":35.20913,"lng":136.836709},{"code":"23233026004","name":"新清洲四丁目","lat":35.206627,"lng":136.836939},{"code":"23233026005","name":"新清洲五丁目","lat":35.207192,"lng":136.834787},{"code":"23233026006","name":"新清洲六丁目","lat":35.205443,"lng":136.834637},{"code":"232330270","name":"一場福島","lat":35.227478,"lng":136.841639},{"code":"232330280","name":"一場弓町","lat":35.22542,"lng":136.842182},{"code":"23233029001","name":"土田一丁目","lat":35.210304,"lng":136.832768},{"code":"23233029002","name":"土田二丁目","lat":35.210925,"lng":136.828987},{"code":"23233029003","name":"土田三丁目","lat":35.214321,"lng":136.829819},{"code":"23233030001","name":"上条一丁目","lat":35.207815,"lng":136.832783},{"code":"23233030002","name":"上条二丁目","lat":35.205395,"lng":136.831296},{"code":"23233031001","name":"小田井一丁目","lat":35.203469,"lng":136.873258},{"code":"23233031002","name":"小田井二丁目","lat":35.206131,"lng":136.874353},{"code":"23233031003","name":"小田井三丁目","lat":35.207016,"lng":136.876746},{"code":"232330320","name":"上新","lat":35.201091,"lng":136.872467},{"code":"23233033001","name":"城並一丁目","lat":35.20458,"lng":136.870146},{"code":"23233033002","name":"城並二丁目","lat":35.207242,"lng":136.870961},{"code":"23233033003","name":"城並三丁目","lat":35.209781,"lng":136.871568},{"code":"232330340","name":"北大和","lat":35.202961,"lng":136.869329},{"code":"232330350","name":"南大和","lat":35.201804,"lng":136.868877},{"code":"23233036001","name":"古城一丁目","lat":35.205677,"lng":136.866493},{"code":"23233036002","name":"古城二丁目","lat":35.209015,"lng":136.86816},{"code":"232330370","name":"花咲","lat":35.203281,"lng":136.866516},{"code":"23233038000","name":"地領","lat":35.206162,"lng":136.859359},{"code":"23233038001","name":"地領一丁目","lat":35.205827,"lng":136.863253},{"code":"23233038002","name":"地領二丁目","lat":35.20604,"lng":136.860422},{"code":"232330390","name":"下新","lat":35.199229,"lng":136.871096},{"code":"232330400","name":"片町","lat":35.197515,"lng":136.870223},{"code":"232330410","name":"十軒裏","lat":35.195664,"lng":136.869481},{"code":"232330420","name":"橋詰","lat":35.193741,"lng":136.867836},{"code":"232330430","name":"問屋","lat":35.193888,"lng":136.865856},{"code":"232330440","name":"南問屋","lat":35.192841,"lng":136.866348},{"code":"232330450","name":"押花","lat":35.20043,"lng":136.868234},{"code":"232330460","name":"泉","lat":35.198938,"lng":136.867426},{"code":"232330470","name":"砂入","lat":35.197306,"lng":136.867224},{"code":"232330480","name":"下砂入","lat":35.195755,"lng":136.8673},{"code":"232330490","name":"住吉","lat":35.197528,"lng":136.865562},{"code":"232330500","name":"日の出","lat":35.196657,"lng":136.864325},{"code":"232330510","name":"大黒","lat":35.200453,"lng":136.865783},{"code":"232330520","name":"弁天","lat":35.20239,"lng":136.863612},{"code":"232330530","name":"末広","lat":35.201717,"lng":136.865252},{"code":"232330540","name":"恵比須","lat":35.199428,"lng":136.864361},{"code":"232330550","name":"二見","lat":35.198639,"lng":136.863227},{"code":"23233056001","name":"旭一丁目","lat":35.197558,"lng":136.862139},{"code":"23233056002","name":"旭二丁目","lat":35.196282,"lng":136.861321},{"code":"23233056003","name":"旭三丁目","lat":35.198274,"lng":136.859996},{"code":"23233057001","name":"芳野一丁目","lat":35.194912,"lng":136.862234},{"code":"23233057002","name":"芳野一丁目","lat":35.195021,"lng":136.857856},{"code":"23233057003","name":"芳野三丁目","lat":35.196062,"lng":136.853489},{"code":"232330580","name":"川口","lat":35.194603,"lng":136.864555},{"code":"232330590","name":"東六軒","lat":35.193594,"lng":136.864467},{"code":"232330600","name":"西六軒","lat":35.193376,"lng":136.862368},{"code":"232330610","name":"南六軒","lat":35.19255,"lng":136.863527},{"code":"232330620","name":"大野","lat":35.193873,"lng":136.859976},{"code":"232330630","name":"南松原","lat":35.192491,"lng":136.859676},{"code":"232330640","name":"辰新田","lat":35.193274,"lng":136.85976},{"code":"232330650","name":"西笹子原","lat":35.194397,"lng":136.860687},{"code":"232330660","name":"東笹子原","lat":35.193903,"lng":136.861551},{"code":"232330670","name":"北二ツ杁","lat":35.193904,"lng":136.85766},{"code":"232330680","name":"南二ツ杁","lat":35.192305,"lng":136.856596},{"code":"23233069001","name":"宮前一丁目","lat":35.202216,"lng":136.859894},{"code":"23233069002","name":"宮前二丁目","lat":35.203481,"lng":136.858809},{"code":"232330700","name":"小場塚","lat":35.20217,"lng":136.857307},{"code":"232330710","name":"養和","lat":35.201551,"lng":136.861259},{"code":"232330720","name":"一反五畝割","lat":35.203573,"lng":136.861743},{"code":"232330730","name":"七畝割","lat":35.200157,"lng":136.85803},{"code":"232330740","name":"子新田","lat":35.198756,"lng":136.854674},{"code":"232330750","name":"西・南・北枇杷池","lat":35.190936,"lng":136.859836},{"code":"232330760","name":"芳野，芝野新田","lat":35.197199,"lng":136.856981},{"code":"232330770","name":"小野田","lat":35.194399,"lng":136.86294},{"code":"232330780","name":"替地","lat":35.200825,"lng":136.856944},{"code":"23233079001","name":"大嶋一丁目","lat":35.228947,"lng":136.835544},{"code":"23233079002","name":"大嶋二丁目","lat":35.228425,"lng":136.835618},{"code":"23233081001","name":"花水木一丁目","lat":35.214158,"lng":136.833981},{"code":"23233081002","name":"花水木二丁目","lat":35.214922,"lng":136.831897},{"code":"232330820","name":"枇杷島駅前東","lat":35.200147,"lng":136.861807},{"code":"23233083001","name":"春日宮重町","lat":35.249454,"lng":136.840128},{"code":"23233083002","name":"春日落合","lat":35.245338,"lng":136.837253},{"code":"23233083003","name":"春日上川畑","lat":35.24264,"lng":136.83256},{"code":"23233083004","name":"春日東出","lat":35.239213,"lng":136.837131},{"code":"23233083005","name":"春日野方","lat":35.235687,"lng":136.834295},{"code":"23233083006","name":"春日酉","lat":35.23092,"lng":136.842126},{"code":"23233083007","name":"春日西牧前","lat":35.232084,"lng":136.837443},{"code":"23233084021","name":"春日社子地","lat":35.235614,"lng":136.84803},{"code":"23233084022","name":"春日冨士塚","lat":35.231262,"lng":136.85112},{"code":"23233084023","name":"春日天神","lat":35.227617,"lng":136.850813},{"code":"23233084024","name":"春日長久寺","lat":35.224776,"lng":136.85118}]}
