{"municipality":"23361","name":"丹羽郡大口町","prefecture":"愛知県","source":{"dataset":"frogcat/japan-small-area","census":"平成27年国勢調査 小地域（e-Stat 統計LOD）","license":"MIT（リポジトリ）／政府統計の総合窓口(e-Stat)の利用規約（元データ・出典表記必要）","fetched":"2026-07-06"},"towns":[{"code":"23361001001","name":"秋田一丁目","lat":35.321689,"lng":136.900971},{"code":"23361001002","name":"秋田二丁目","lat":35.321826,"lng":136.905696},{"code":"23361001003","name":"秋田三丁目","lat":35.31837,"lng":136.901743},{"code":"23361001004","name":"秋田四丁目","lat":35.316056,"lng":136.902658},{"code":"23361005001","name":"伝右一丁目","lat":35.327505,"lng":136.911093},{"code":"23361005002","name":"伝右二丁目","lat":35.324606,"lng":136.909627},{"code":"23361007001","name":"替地一丁目","lat":35.312948,"lng":136.898437},{"code":"23361007002","name":"替地二丁目","lat":35.314113,"lng":136.902516},{"code":"23361007003","name":"替地三丁目","lat":35.310588,"lng":136.896334},{"code":"23361009001","name":"堀尾跡一丁目","lat":35.31851,"lng":136.888471},{"code":"23361009002","name":"堀尾跡二丁目","lat":35.318363,"lng":136.891051},{"code":"23361010001","name":"御供所一丁目","lat":35.317386,"lng":136.885052},{"code":"23361010002","name":"御供所二丁目","lat":35.315081,"lng":136.887898},{"code":"23361010003","name":"御供所三丁目","lat":35.315008,"lng":136.893715},{"code":"23361011101","name":"豊田一丁目","lat":35.311097,"lng":136.884587},{"code":"23361011102","name":"豊田二丁目","lat":35.310311,"lng":136.887998},{"code":"23361011103","name":"豊田三丁目","lat":35.30923,"lng":136.892305},{"code":"23361011201","name":"奈良子一丁目","lat":35.322113,"lng":136.890865},{"code":"23361011202","name":"奈良子二丁目","lat":35.321009,"lng":136.895218},{"code":"23361011203","name":"奈良子三丁目","lat":35.318586,"lng":136.895041},{"code":"23361012001","name":"高橋一丁目","lat":35.324082,"lng":136.89555},{"code":"23361012002","name":"高橋二丁目","lat":35.325957,"lng":136.904379},{"code":"23361013101","name":"大屋敷一丁目","lat":35.327527,"lng":136.894612},{"code":"23361013102","name":"大屋敷二丁目","lat":35.327902,"lng":136.899944},{"code":"23361013103","name":"大屋敷三丁目","lat":35.326117,"lng":136.901715},{"code":"23361013201","name":"大御堂一丁目","lat":35.331389,"lng":136.895045},{"code":"23361013202","name":"大御堂二丁目","lat":35.331598,"lng":136.899245},{"code":"23361013301","name":"丸一丁目","lat":35.331515,"lng":136.902624},{"code":"23361013302","name":"丸二丁目","lat":35.330472,"lng":136.90551},{"code":"23361014001","name":"外坪一丁目","lat":35.325343,"lng":136.920746},{"code":"23361014002","name":"外坪二丁目","lat":35.327505,"lng":136.926602},{"code":"23361014003","name":"外坪三丁目","lat":35.322085,"lng":136.922254},{"code":"23361014004","name":"外坪四丁目","lat":35.320796,"lng":136.919079},{"code":"23361014005","name":"外坪五丁目","lat":35.322319,"lng":136.916535},{"code":"23361019101","name":"河北一丁目","lat":35.354017,"lng":136.938821},{"code":"23361019102","name":"河北二丁目","lat":35.347659,"lng":136.93346},{"code":"23361019103","name":"河北三丁目","lat":35.343425,"lng":136.933179},{"code":"233610192","name":"大字河北","lat":35.360097,"lng":136.939845},{"code":"23361020001","name":"仲沖一丁目","lat":35.339927,"lng":136.931971},{"code":"23361020002","name":"仲沖二丁目","lat":35.337581,"lng":136.931346},{"code":"23361022001","name":"二ツ屋一丁目","lat":35.335005,"lng":136.931176},{"code":"23361022002","name":"二ツ屋二丁目","lat":35.331242,"lng":136.930591},{"code":"23361024001","name":"余野一丁目","lat":35.343424,"lng":136.903537},{"code":"23361024002","name":"余野二丁目","lat":35.343985,"lng":136.907279},{"code":"23361024003","name":"余野三丁目","lat":35.344433,"lng":136.911991},{"code":"23361024004","name":"余野四丁目","lat":35.341668,"lng":136.906885},{"code":"23361024005","name":"余野五丁目","lat":35.339126,"lng":136.907649},{"code":"23361024006","name":"余野六丁目","lat":35.339859,"lng":136.903071},{"code":"23361025001","name":"上小口一丁目","lat":35.348861,"lng":136.920837},{"code":"23361025002","name":"上小口二丁目","lat":35.34709,"lng":136.927599},{"code":"23361025003","name":"上小口三丁目","lat":35.344758,"lng":136.922219},{"code":"23361028001","name":"萩島一丁目","lat":35.336665,"lng":136.926814},{"code":"23361028002","name":"萩島二丁目","lat":35.330967,"lng":136.926678},{"code":"23361030001","name":"中小口一丁目","lat":35.348368,"lng":136.914227},{"code":"23361030002","name":"中小口二丁目","lat":35.34252,"lng":136.920521},{"code":"23361030003","name":"中小口三丁目","lat":35.339206,"lng":136.922348},{"code":"23361030004","name":"中小口四丁目","lat":35.342267,"lng":136.927798},{"code":"23361030005","name":"中小口五丁目","lat":35.334914,"lng":136.922517},{"code":"23361035001","name":"城屋敷一丁目","lat":35.341129,"lng":136.916208},{"code":"23361035002","name":"城屋敷二丁目","lat":35.338544,"lng":136.918048},{"code":"23361036001","name":"新宮一丁目","lat":35.330978,"lng":136.922173},{"code":"23361036002","name":"新宮二丁目","lat":35.327899,"lng":136.92013},{"code":"23361038001","name":"下小口一丁目","lat":35.338667,"lng":136.91031},{"code":"23361038002","name":"下小口二丁目","lat":35.340446,"lng":136.912822},{"code":"23361038003","name":"下小口三丁目","lat":35.338136,"lng":136.914481},{"code":"23361038004","name":"下小口四丁目","lat":35.335258,"lng":136.912504},{"code":"23361038005","name":"下小口五丁目","lat":35.333376,"lng":136.91761},{"code":"23361038006","name":"下小口六丁目","lat":35.330794,"lng":136.912382},{"code":"23361038007","name":"下小口七丁目","lat":35.333329,"lng":136.908887},{"code":"23361045201","name":"竹田一丁目","lat":35.33825,"lng":136.900212},{"code":"23361045202","name":"竹田二丁目","lat":35.335006,"lng":136.904458},{"code":"23361045203","name":"竹田三丁目","lat":35.335064,"lng":136.897525},{"code":"23361045300","name":"大字小口字城屋敷","lat":35.342575,"lng":136.91678},{"code":"23361045301","name":"大字小口字地蔵堂","lat":35.345778,"lng":136.914901},{"code":"23361045302","name":"大字小口字下山伏","lat":35.34536,"lng":136.916944},{"code":"23361045303","name":"大字小口字下之段","lat":35.344296,"lng":136.915267},{"code":"23361045304","name":"大字小口字宮之前","lat":35.343185,"lng":136.91435},{"code":"23361045305","name":"大字小口字金三西","lat":35.346291,"lng":136.917444},{"code":"23361045306","name":"大字小口字上山伏","lat":35.34682,"lng":136.916355},{"code":"23361045307","name":"大字小口字定光寺","lat":35.346925,"lng":136.915326},{"code":"23361045308","name":"大字小口字馬場","lat":35.343359,"lng":136.917779},{"code":"23361045401","name":"さつきケ丘一丁目","lat":35.347726,"lng":136.909295},{"code":"23361045402","name":"さつきケ丘二丁目","lat":35.345392,"lng":136.908399},{"code":"233610455","name":"垣田","lat":35.346342,"lng":136.910392},{"code":"233610456","name":"大字余野","lat":35.342404,"lng":136.913579}]}
