{"municipality":"24207","name":"鈴鹿市","prefecture":"三重県","source":{"dataset":"frogcat/japan-small-area","census":"平成27年国勢調査 小地域（e-Stat 統計LOD）","license":"MIT（リポジトリ）／政府統計の総合窓口(e-Stat)の利用規約（元データ・出典表記必要）","fetched":"2026-07-06"},"towns":[{"code":"242070010","name":"八野町","lat":34.841191,"lng":136.491233},{"code":"24207002000","name":"国府町","lat":34.851305,"lng":136.508093},{"code":"24207002001","name":"国府町","lat":34.843902,"lng":136.508014},{"code":"242070030","name":"平野町","lat":34.866192,"lng":136.520041},{"code":"242070040","name":"住吉町","lat":34.852932,"lng":136.533185},{"code":"24207005001","name":"住吉１丁目","lat":34.864644,"lng":136.53818},{"code":"24207005002","name":"住吉２丁目","lat":34.862164,"lng":136.539833},{"code":"24207005003","name":"住吉３丁目","lat":34.861356,"lng":136.535271},{"code":"24207005004","name":"住吉４丁目","lat":34.860522,"lng":136.531817},{"code":"24207005005","name":"住吉５丁目","lat":34.859756,"lng":136.527553},{"code":"24207006101","name":"庄野東１丁目","lat":34.87865,"lng":136.53286},{"code":"24207006102","name":"庄野東２丁目","lat":34.877959,"lng":136.529028},{"code":"24207006103","name":"庄野東３丁目","lat":34.880115,"lng":136.530958},{"code":"24207006201","name":"庄野共進１丁目","lat":34.87556,"lng":136.534063},{"code":"24207006202","name":"庄野共進２丁目","lat":34.874946,"lng":136.531179},{"code":"24207006203","name":"庄野共進３丁目","lat":34.876543,"lng":136.531668},{"code":"24207006301","name":"庄野羽山１丁目","lat":34.875262,"lng":136.52831},{"code":"24207006302","name":"庄野羽山２丁目","lat":34.874599,"lng":136.526063},{"code":"24207006303","name":"庄野羽山３丁目","lat":34.872252,"lng":136.523483},{"code":"24207006304","name":"庄野羽山４丁目","lat":34.871722,"lng":136.529169},{"code":"242070064","name":"庄野町","lat":34.884013,"lng":136.528537},{"code":"242070070","name":"汲川原町","lat":34.878473,"lng":136.518478},{"code":"242070081","name":"加佐登町","lat":34.895227,"lng":136.524393},{"code":"24207008201","name":"加佐登１丁目","lat":34.89184,"lng":136.532727},{"code":"24207008202","name":"加佐登２丁目","lat":34.893042,"lng":136.529797},{"code":"24207008203","name":"加佐登３丁目","lat":34.89326,"lng":136.526045},{"code":"24207008204","name":"加佐登４丁目","lat":34.895772,"lng":136.521934},{"code":"242070090","name":"広瀬町","lat":34.893229,"lng":136.50058},{"code":"242070100","name":"高塚町","lat":34.902451,"lng":136.513608},{"code":"242070110","name":"津賀町","lat":34.888299,"lng":136.513775},{"code":"242070120","name":"平田中町","lat":34.871776,"lng":136.536995},{"code":"242070130","name":"阿古曽町","lat":34.868976,"lng":136.545724},{"code":"24207014001","name":"平田１丁目","lat":34.876266,"lng":136.540059},{"code":"24207014002","name":"平田２丁目","lat":34.875736,"lng":136.536982},{"code":"242070150","name":"平田新町","lat":34.871895,"lng":136.541397},{"code":"24207016001","name":"大池１丁目","lat":34.867895,"lng":136.54219},{"code":"24207016002","name":"大池２丁目","lat":34.867286,"lng":136.539475},{"code":"24207016003","name":"大池３丁目","lat":34.867967,"lng":136.53467},{"code":"242070170","name":"岡田町","lat":34.883948,"lng":136.545691},{"code":"242070180","name":"算所町","lat":34.870898,"lng":136.55117},{"code":"242070190","name":"弓削町","lat":34.886329,"lng":136.541302},{"code":"242070200","name":"甲斐町","lat":34.890164,"lng":136.55551},{"code":"24207021001","name":"算所１丁目","lat":34.872236,"lng":136.543491},{"code":"24207021002","name":"算所２丁目","lat":34.872809,"lng":136.54656},{"code":"24207021003","name":"算所３丁目","lat":34.875455,"lng":136.545575},{"code":"24207021004","name":"算所４丁目","lat":34.878685,"lng":136.552098},{"code":"24207021005","name":"算所５丁目","lat":34.876359,"lng":136.551735},{"code":"24207022001","name":"平田本町１丁目","lat":34.88119,"lng":136.538337},{"code":"24207022002","name":"平田本町２丁目","lat":34.878755,"lng":136.536841},{"code":"242070230","name":"平田東町","lat":34.876734,"lng":136.542988},{"code":"24207024001","name":"弓削１丁目","lat":34.88146,"lng":136.541059},{"code":"24207024002","name":"弓削２丁目","lat":34.878613,"lng":136.54267},{"code":"24207025001","name":"岡田１丁目","lat":34.880418,"lng":136.546189},{"code":"24207025002","name":"岡田２丁目","lat":34.87782,"lng":136.546858},{"code":"24207025003","name":"岡田３丁目","lat":34.88011,"lng":136.551114},{"code":"24207026000","name":"石薬師町","lat":34.907233,"lng":136.537513},{"code":"24207026001","name":"石薬師町","lat":34.911369,"lng":136.547069},{"code":"242070270","name":"上野町","lat":34.89595,"lng":136.552692},{"code":"242070280","name":"上田町","lat":34.904486,"lng":136.527055},{"code":"242070290","name":"白子町","lat":34.840971,"lng":136.580105},{"code":"242070300","name":"江島町","lat":34.844834,"lng":136.589997},{"code":"24207031001","name":"東旭が丘１丁目","lat":34.850113,"lng":136.573851},{"code":"24207031002","name":"東旭が丘２丁目","lat":34.848775,"lng":136.57689},{"code":"24207031003","name":"東旭が丘３丁目","lat":34.846081,"lng":136.578092},{"code":"24207031004","name":"東旭が丘４丁目","lat":34.843762,"lng":136.581085},{"code":"24207031005","name":"東旭が丘５丁目","lat":34.846461,"lng":136.581443},{"code":"24207031006","name":"東旭が丘６丁目","lat":34.845393,"lng":136.584324},{"code":"24207032001","name":"中旭が丘１丁目","lat":34.84807,"lng":136.571242},{"code":"24207032002","name":"中旭が丘２丁目","lat":34.845822,"lng":136.574104},{"code":"24207032003","name":"中旭が丘３丁目","lat":34.84371,"lng":136.57666},{"code":"24207032004","name":"中旭が丘４丁目","lat":34.841576,"lng":136.579206},{"code":"24207033001","name":"南旭が丘１丁目","lat":34.84613,"lng":136.569268},{"code":"24207033002","name":"南旭が丘２丁目","lat":34.844356,"lng":136.570803},{"code":"24207033003","name":"南旭が丘３丁目","lat":34.84244,"lng":136.5742},{"code":"242070340","name":"寺家町","lat":34.828034,"lng":136.574934},{"code":"24207035001","name":"寺家１丁目","lat":34.81734,"lng":136.579681},{"code":"24207035002","name":"寺家２丁目","lat":34.818812,"lng":136.576699},{"code":"24207035003","name":"寺家３丁目","lat":34.822184,"lng":136.581663},{"code":"24207035004","name":"寺家４丁目","lat":34.825302,"lng":136.583583},{"code":"24207035005","name":"寺家５丁目","lat":34.827987,"lng":136.581235},{"code":"24207035006","name":"寺家６丁目","lat":34.823726,"lng":136.577385},{"code":"24207035007","name":"寺家７丁目","lat":34.825853,"lng":136.575038},{"code":"24207035008","name":"寺家８丁目","lat":34.823274,"lng":136.573053},{"code":"24207036001","name":"白子１丁目","lat":34.829742,"lng":136.588701},{"code":"24207036002","name":"白子２丁目","lat":34.827075,"lng":136.58626},{"code":"24207036003","name":"白子３丁目","lat":34.831413,"lng":136.584827},{"code":"24207036004","name":"白子４丁目","lat":34.833942,"lng":136.582922},{"code":"242070370","name":"白子駅前","lat":34.835727,"lng":136.588814},{"code":"242070380","name":"白子本町","lat":34.833272,"lng":136.591356},{"code":"242070390","name":"江島本町","lat":34.834848,"lng":136.594942},{"code":"242070400","name":"東江島町","lat":34.839585,"lng":136.598383},{"code":"242070410","name":"北江島町","lat":34.843827,"lng":136.597135},{"code":"24207042001","name":"江島台１丁目","lat":34.843656,"lng":136.592076},{"code":"24207042002","name":"江島台２丁目","lat":34.844782,"lng":136.589994},{"code":"242070431","name":"鈴鹿ハイツ","lat":34.854622,"lng":136.553038},{"code":"24207043200","name":"稲生町","lat":34.84174,"lng":136.549723},{"code":"24207043202","name":"稲生町","lat":34.84558,"lng":136.55193},{"code":"24207044101","name":"野町中１丁目","lat":34.853024,"lng":136.567276},{"code":"24207044102","name":"野町中２丁目","lat":34.851029,"lng":136.565793},{"code":"24207044103","name":"野町中３丁目","lat":34.84977,"lng":136.563098},{"code":"24207044201","name":"野町東１丁目","lat":34.85169,"lng":136.570237},{"code":"24207044202","name":"野町東２丁目","lat":34.849718,"lng":136.568391},{"code":"24207044301","name":"野町西１丁目","lat":34.854319,"lng":136.564237},{"code":"24207044302","name":"野町西２丁目","lat":34.852391,"lng":136.563759},{"code":"24207044303","name":"野町西３丁目","lat":34.853681,"lng":136.561977},{"code":"242070444","name":"野町南","lat":34.850293,"lng":136.561661},{"code":"242070445","name":"野町","lat":34.851311,"lng":136.561921},{"code":"242070450","name":"野村町","lat":34.840131,"lng":136.567144},{"code":"24207046001","name":"稲生西１丁目","lat":34.835877,"lng":136.550552},{"code":"24207046002","name":"稲生西２丁目","lat":34.837755,"lng":136.554832},{"code":"24207046003","name":"稲生西３丁目","lat":34.8408,"lng":136.557411},{"code":"24207047001","name":"稲生１丁目","lat":34.832158,"lng":136.557778},{"code":"24207047002","name":"稲生２丁目","lat":34.835556,"lng":136.559969},{"code":"24207047003","name":"稲生３丁目","lat":34.838365,"lng":136.560044},{"code":"24207047004","name":"稲生４丁目","lat":34.841832,"lng":136.561949},{"code":"242070480","name":"稲生こがね園","lat":34.831464,"lng":136.560583},{"code":"24207049001","name":"稲生塩屋１丁目","lat":34.828642,"lng":136.565783},{"code":"24207049002","name":"稲生塩屋２丁目","lat":34.831971,"lng":136.566006},{"code":"24207049003","name":"稲生塩屋３丁目","lat":34.835464,"lng":136.564579},{"code":"242070500","name":"西條町","lat":34.875193,"lng":136.567035},{"code":"242070511","name":"末広西","lat":34.859652,"lng":136.557164},{"code":"242070512","name":"三日市町","lat":34.867946,"lng":136.55656},{"code":"242070520","name":"道伯町","lat":34.858244,"lng":136.547406},{"code":"242070530","name":"地子町","lat":34.869531,"lng":136.567196},{"code":"242070540","name":"安塚町","lat":34.866135,"lng":136.572323},{"code":"242070550","name":"飯野寺家町","lat":34.872973,"lng":136.579523},{"code":"24207056001","name":"西条１丁目","lat":34.881372,"lng":136.572739},{"code":"24207056002","name":"西条２丁目","lat":34.883184,"lng":136.570825},{"code":"24207056003","name":"西条３丁目","lat":34.880315,"lng":136.566431},{"code":"24207056004","name":"西条４丁目","lat":34.878969,"lng":136.572712},{"code":"24207056005","name":"西条５丁目","lat":34.87863,"lng":136.568264},{"code":"24207056006","name":"西条６丁目","lat":34.8766,"lng":136.568877},{"code":"24207056007","name":"西条７丁目","lat":34.877877,"lng":136.565172},{"code":"24207056008","name":"西条８丁目","lat":34.876478,"lng":136.564033},{"code":"24207056009","name":"西条９丁目","lat":34.87492,"lng":136.563696},{"code":"24207057001","name":"三日市１丁目","lat":34.879788,"lng":136.556945},{"code":"24207057002","name":"三日市２丁目","lat":34.878693,"lng":136.559244},{"code":"24207057003","name":"三日市３丁目","lat":34.8765,"lng":136.557354},{"code":"24207058001","name":"道伯１丁目","lat":34.863527,"lng":136.543228},{"code":"24207058002","name":"道伯２丁目","lat":34.863233,"lng":136.545691},{"code":"24207058003","name":"道伯３丁目","lat":34.865823,"lng":136.545956},{"code":"24207058004","name":"道伯４丁目","lat":34.866235,"lng":136.548949},{"code":"24207058005","name":"道伯５丁目","lat":34.862969,"lng":136.549528},{"code":"24207059001","name":"三日市南１丁目","lat":34.865249,"lng":136.550911},{"code":"24207059002","name":"三日市南２丁目","lat":34.863211,"lng":136.552477},{"code":"24207059003","name":"三日市南３丁目","lat":34.864872,"lng":136.555754},{"code":"242070600","name":"河田町","lat":34.89026,"lng":136.571091},{"code":"242070610","name":"竹野町","lat":34.886152,"lng":136.561149},{"code":"242070620","name":"山辺町","lat":34.898704,"lng":136.562386},{"code":"242070630","name":"木田町","lat":34.903643,"lng":136.564622},{"code":"242070640","name":"国分町","lat":34.9083,"lng":136.572127},{"code":"242070650","name":"須賀町","lat":34.890045,"lng":136.591189},{"code":"242070660","name":"十宮町","lat":34.894864,"lng":136.578852},{"code":"24207067001","name":"十宮１丁目","lat":34.892975,"lng":136.581701},{"code":"24207067002","name":"十宮２丁目","lat":34.891073,"lng":136.581455},{"code":"24207067003","name":"十宮３丁目","lat":34.890148,"lng":136.580651},{"code":"24207067004","name":"十宮４丁目","lat":34.888212,"lng":136.578464},{"code":"24207068001","name":"野辺１丁目","lat":34.884276,"lng":136.564829},{"code":"24207068002","name":"野辺２丁目","lat":34.882314,"lng":136.56472},{"code":"24207069001","name":"竹野１丁目","lat":34.882176,"lng":136.560847},{"code":"24207069002","name":"竹野２丁目","lat":34.881566,"lng":136.556876},{"code":"24207070001","name":"須賀１丁目","lat":34.88669,"lng":136.588467},{"code":"24207070002","name":"須賀２丁目","lat":34.888423,"lng":136.587882},{"code":"24207070003","name":"須賀３丁目","lat":34.889235,"lng":136.584634},{"code":"24207071101","name":"高岡台１丁目","lat":34.907844,"lng":136.592649},{"code":"24207071102","name":"高岡台２丁目","lat":34.909517,"lng":136.59127},{"code":"24207071103","name":"高岡台３丁目","lat":34.907024,"lng":136.589284},{"code":"24207071104","name":"高岡台４丁目","lat":34.907954,"lng":136.58556},{"code":"24207071105","name":"高岡台５丁目","lat":34.904548,"lng":136.586718},{"code":"242070712","name":"高岡町","lat":34.90171,"lng":136.590228},{"code":"242070720","name":"一ノ宮町","lat":34.900281,"lng":136.599},{"code":"242070730","name":"池田町","lat":34.894218,"lng":136.612021},{"code":"242070740","name":"北長太町","lat":34.898374,"lng":136.63186},{"code":"242070750","name":"南長太町","lat":34.886698,"lng":136.626746},{"code":"24207076001","name":"長太新町１丁目","lat":34.902862,"lng":136.628607},{"code":"24207076002","name":"長太新町２丁目","lat":34.902803,"lng":136.633573},{"code":"24207076003","name":"長太新町３丁目","lat":34.901005,"lng":136.638981},{"code":"24207076004","name":"長太新町４丁目","lat":34.898845,"lng":136.63759},{"code":"24207077001","name":"長太旭町１丁目","lat":34.896627,"lng":136.622614},{"code":"24207077002","name":"長太旭町２丁目","lat":34.896035,"lng":136.626103},{"code":"24207077003","name":"長太旭町３丁目","lat":34.893393,"lng":136.625355},{"code":"24207077004","name":"長太旭町４丁目","lat":34.892952,"lng":136.628379},{"code":"24207077005","name":"長太旭町５丁目","lat":34.892931,"lng":136.631345},{"code":"24207077006","name":"長太旭町６丁目","lat":34.895477,"lng":136.63564},{"code":"24207078001","name":"長太栄町１丁目","lat":34.893638,"lng":136.623149},{"code":"24207078002","name":"長太栄町２丁目","lat":34.890828,"lng":136.624292},{"code":"24207078003","name":"長太栄町３丁目","lat":34.889569,"lng":136.628302},{"code":"24207078004","name":"長太栄町４丁目","lat":34.890787,"lng":136.633375},{"code":"24207078005","name":"長太栄町５丁目","lat":34.887521,"lng":136.631401},{"code":"242070790","name":"林崎町","lat":34.883697,"lng":136.600914},{"code":"242070800","name":"南林崎町","lat":34.879891,"lng":136.604912},{"code":"242070810","name":"上箕田町","lat":34.883422,"lng":136.610998},{"code":"242070820","name":"中箕田町","lat":34.877992,"lng":136.616381},{"code":"242070830","name":"南堀江町","lat":34.883791,"lng":136.621145},{"code":"242070840","name":"北堀江町","lat":34.883411,"lng":136.630811},{"code":"242070850","name":"下箕田町","lat":34.876277,"lng":136.62284},{"code":"24207086001","name":"林崎１丁目","lat":34.883644,"lng":136.606747},{"code":"24207086002","name":"林崎２丁目","lat":34.884702,"lng":136.603835},{"code":"24207087001","name":"上箕田１丁目","lat":34.879749,"lng":136.610835},{"code":"24207087002","name":"上箕田２丁目","lat":34.881369,"lng":136.608587},{"code":"24207088001","name":"中箕田１丁目","lat":34.881088,"lng":136.615916},{"code":"24207088002","name":"中箕田２丁目","lat":34.879574,"lng":136.619319},{"code":"24207089001","name":"南堀江１丁目","lat":34.881277,"lng":136.620861},{"code":"24207089002","name":"南堀江２丁目","lat":34.880681,"lng":136.623681},{"code":"24207090001","name":"北堀江１丁目","lat":34.885265,"lng":136.622727},{"code":"24207090002","name":"北堀江２丁目","lat":34.883162,"lng":136.625658},{"code":"24207091001","name":"下箕田１丁目","lat":34.879227,"lng":136.629564},{"code":"24207091002","name":"下箕田２丁目","lat":34.875477,"lng":136.627724},{"code":"24207091003","name":"下箕田３丁目","lat":34.877489,"lng":136.625433},{"code":"24207091004","name":"下箕田４丁目","lat":34.880873,"lng":136.626772},{"code":"242070920","name":"肥田町","lat":34.877949,"lng":136.592023},{"code":"242070930","name":"柳町","lat":34.868207,"lng":136.599585},{"code":"24207094000","name":"岸岡町","lat":34.85179,"lng":136.600245},{"code":"24207094001","name":"岸岡町","lat":34.851918,"lng":136.601549},{"code":"242070950","name":"東玉垣町","lat":34.858548,"lng":136.594399},{"code":"242070960","name":"石垣","lat":34.854641,"lng":136.565465},{"code":"24207096101","name":"石垣１丁目","lat":34.855585,"lng":136.567522},{"code":"24207096102","name":"石垣３丁目","lat":34.854859,"lng":136.564892},{"code":"24207096103","name":"石垣３丁目","lat":34.856896,"lng":136.564822},{"code":"242070962","name":"西玉垣町","lat":34.861953,"lng":136.585268},{"code":"242070970","name":"南玉垣町","lat":34.857734,"lng":136.581042},{"code":"242070981","name":"末広東","lat":34.859679,"lng":136.570529},{"code":"24207098201","name":"末広南１丁目","lat":34.859608,"lng":136.564627},{"code":"24207098202","name":"末広南２丁目","lat":34.858821,"lng":136.560812},{"code":"24207098203","name":"末広南３丁目","lat":34.857422,"lng":136.56036},{"code":"24207098301","name":"末広北１丁目","lat":34.861295,"lng":136.566007},{"code":"24207098302","name":"末広北２丁目","lat":34.861394,"lng":136.5622},{"code":"24207098303","name":"末広北３丁目","lat":34.861293,"lng":136.559404},{"code":"242070990","name":"土師町","lat":34.871121,"lng":136.605367},{"code":"242071000","name":"北玉垣町","lat":34.866419,"lng":136.586871},{"code":"24207101001","name":"矢橋１丁目","lat":34.87879,"lng":136.587126},{"code":"24207101002","name":"矢橋２丁目","lat":34.882291,"lng":136.588413},{"code":"24207101003","name":"矢橋３丁目","lat":34.884917,"lng":136.589352},{"code":"24207102001","name":"桜島町１丁目","lat":34.853408,"lng":136.571584},{"code":"24207102002","name":"桜島町２丁目","lat":34.851988,"lng":136.575572},{"code":"24207102003","name":"桜島町３丁目","lat":34.853556,"lng":136.576427},{"code":"24207102004","name":"桜島町４丁目","lat":34.856283,"lng":136.577057},{"code":"24207102005","name":"桜島町５丁目","lat":34.857903,"lng":136.574241},{"code":"24207102006","name":"桜島町６丁目","lat":34.855524,"lng":136.572792},{"code":"24207102007","name":"桜島町７丁目","lat":34.856886,"lng":136.568904},{"code":"242071030","name":"南若松町","lat":34.849651,"lng":136.607487},{"code":"242071040","name":"北若松町","lat":34.873845,"lng":136.616733},{"code":"24207105001","name":"若松中１丁目","lat":34.857817,"lng":136.612281},{"code":"24207105002","name":"若松中２丁目","lat":34.861675,"lng":136.614631},{"code":"24207106001","name":"若松西１丁目","lat":34.863037,"lng":136.610112},{"code":"24207106002","name":"若松西２丁目","lat":34.865435,"lng":136.611221},{"code":"24207106003","name":"若松西３丁目","lat":34.867305,"lng":136.611965},{"code":"24207106004","name":"若松西４丁目","lat":34.869057,"lng":136.612577},{"code":"24207106005","name":"若松西５丁目","lat":34.871283,"lng":136.613808},{"code":"24207106006","name":"若松西６丁目","lat":34.874327,"lng":136.613436},{"code":"24207107001","name":"若松東１丁目","lat":34.857439,"lng":136.615532},{"code":"24207107002","name":"若松東２丁目","lat":34.863508,"lng":136.619851},{"code":"24207107003","name":"若松東３丁目","lat":34.86837,"lng":136.623156},{"code":"24207108001","name":"若松北１丁目","lat":34.865397,"lng":136.617008},{"code":"24207108002","name":"若松北２丁目","lat":34.869352,"lng":136.619344},{"code":"24207108003","name":"若松北３丁目","lat":34.872393,"lng":136.623176},{"code":"242071090","name":"神戸本多町","lat":34.876954,"lng":136.576399},{"code":"24207110001","name":"神戸１丁目","lat":34.881551,"lng":136.583723},{"code":"24207110002","name":"神戸２丁目","lat":34.882253,"lng":136.579955},{"code":"24207110003","name":"神戸３丁目","lat":34.877061,"lng":136.584248},{"code":"24207110004","name":"神戸４丁目","lat":34.877828,"lng":136.579695},{"code":"24207110005","name":"神戸５丁目","lat":34.879793,"lng":136.576669},{"code":"24207110006","name":"神戸６丁目","lat":34.883395,"lng":136.575823},{"code":"24207110007","name":"神戸７丁目","lat":34.8858,"lng":136.577633},{"code":"24207110008","name":"神戸８丁目","lat":34.886545,"lng":136.582021},{"code":"24207110009","name":"神戸９丁目","lat":34.884372,"lng":136.585094},{"code":"242071110","name":"越知町","lat":34.821231,"lng":136.533567},{"code":"24207112000","name":"郡山町","lat":34.816257,"lng":136.534495},{"code":"24207112001","name":"郡山町","lat":34.811734,"lng":136.536176},{"code":"24207113000","name":"中瀬古町","lat":34.815081,"lng":136.545255},{"code":"24207113001","name":"中瀬古町","lat":34.810715,"lng":136.542105},{"code":"242071140","name":"秋永町","lat":34.81678,"lng":136.551923},{"code":"242071150","name":"五祝町","lat":34.819962,"lng":136.559166},{"code":"242071160","name":"磯山町","lat":34.817294,"lng":136.565683},{"code":"24207117001","name":"東磯山１丁目","lat":34.808452,"lng":136.569256},{"code":"24207117002","name":"東磯山２丁目","lat":34.811255,"lng":136.572357},{"code":"24207117003","name":"東磯山３丁目","lat":34.813844,"lng":136.576208},{"code":"24207117004","name":"東磯山４丁目","lat":34.815487,"lng":136.572736},{"code":"24207118001","name":"磯山１丁目","lat":34.810953,"lng":136.56483},{"code":"24207118002","name":"磯山２丁目","lat":34.814458,"lng":136.567465},{"code":"24207118003","name":"磯山３丁目","lat":34.816959,"lng":136.570402},{"code":"24207118004","name":"磯山４丁目","lat":34.819532,"lng":136.573042},{"code":"242071190","name":"御薗町","lat":34.832571,"lng":136.525411},{"code":"242071200","name":"徳田町","lat":34.827286,"lng":136.545498},{"code":"242071210","name":"三宅町","lat":34.815134,"lng":136.498525},{"code":"242071220","name":"徳居町","lat":34.817877,"lng":136.516139},{"code":"242071230","name":"長法寺町","lat":34.829581,"lng":136.502677},{"code":"242071240","name":"小田町","lat":34.871642,"lng":136.496023},{"code":"242071250","name":"和泉町","lat":34.869071,"lng":136.504477},{"code":"242071260","name":"西冨田町","lat":34.877797,"lng":136.501984},{"code":"242071270","name":"中冨田町","lat":34.879991,"lng":136.509132},{"code":"24207128000","name":"下大久保町","lat":34.922463,"lng":136.53628},{"code":"24207128001","name":"下大久保町","lat":34.915864,"lng":136.54769},{"code":"242071290","name":"花川町","lat":34.932802,"lng":136.515289},{"code":"242071300","name":"岸田町","lat":34.942251,"lng":136.50679},{"code":"242071310","name":"山本町","lat":34.955886,"lng":136.468961},{"code":"242071320","name":"大久保町","lat":34.968765,"lng":136.464986},{"code":"242071330","name":"椿一宮町","lat":34.948573,"lng":136.493523},{"code":"242071340","name":"深溝町","lat":34.924281,"lng":136.506786},{"code":"242071350","name":"追分町","lat":34.940359,"lng":136.488755},{"code":"242071360","name":"三畑町","lat":34.90944,"lng":136.500498},{"code":"242071370","name":"伊船町","lat":34.92206,"lng":136.48408},{"code":"242071380","name":"長沢町","lat":34.937757,"lng":136.478341},{"code":"242071390","name":"小社町","lat":34.947687,"lng":136.461295},{"code":"242071400","name":"小岐須町","lat":34.951429,"lng":136.451172},{"code":"242071410","name":"西庄内町","lat":34.953111,"lng":136.434231},{"code":"242071420","name":"東庄内町","lat":34.912682,"lng":136.468202},{"code":"242071430","name":"中江島町","lat":34.841123,"lng":136.594267},{"code":"242071440","name":"南江島町","lat":34.839424,"lng":136.591003},{"code":"242071450","name":"釆女が丘町","lat":34.913452,"lng":136.584048},{"code":"24207146001","name":"自由ヶ丘一丁目","lat":34.912562,"lng":136.551234},{"code":"24207146002","name":"自由ヶ丘二丁目","lat":34.914762,"lng":136.550304},{"code":"24207146003","name":"自由ヶ丘三丁目","lat":34.913713,"lng":136.547231},{"code":"24207146004","name":"自由ヶ丘四丁目","lat":34.91169,"lng":136.548035}]}
