{"municipality":"24343","name":"三重郡朝日町","prefecture":"三重県","source":{"dataset":"frogcat/japan-small-area","census":"平成27年国勢調査 小地域（e-Stat 統計LOD）","license":"MIT（リポジトリ）／政府統計の総合窓口(e-Stat)の利用規約（元データ・出典表記必要）","fetched":"2026-07-06"},"towns":[{"code":"243430010","name":"大字縄生","lat":35.0403,"lng":136.67293},{"code":"243430020","name":"大字小向","lat":35.034993,"lng":136.668356},{"code":"243430030","name":"大字柿","lat":35.031853,"lng":136.657611},{"code":"243430040","name":"大字埋縄","lat":35.03606,"lng":136.646421},{"code":"24343005001","name":"大字向陽台１丁目","lat":35.040022,"lng":136.65464},{"code":"24343005002","name":"大字向陽台２丁目","lat":35.03723,"lng":136.654789},{"code":"24343005003","name":"大字向陽台３丁目","lat":35.035461,"lng":136.656593},{"code":"24343006001","name":"大字白梅の丘西１丁目","lat":35.041375,"lng":136.65698},{"code":"24343006002","name":"大字白梅の丘西２丁目","lat":35.040137,"lng":136.658818},{"code":"24343007001","name":"大字白梅の丘東１丁目","lat":35.040943,"lng":136.662449},{"code":"24343007002","name":"大字白梅の丘東２丁目","lat":35.038491,"lng":136.660139}]}
