{"municipality":"25206","name":"草津市","prefecture":"滋賀県","source":{"dataset":"frogcat/japan-small-area","census":"平成27年国勢調査 小地域（e-Stat 統計LOD）","license":"MIT（リポジトリ）／政府統計の総合窓口(e-Stat)の利用規約（元データ・出典表記必要）","fetched":"2026-07-06"},"towns":[{"code":"252060010","name":"馬場町","lat":34.988446,"lng":135.985312},{"code":"252060020","name":"山寺町","lat":35.000614,"lng":135.989897},{"code":"252060030","name":"岡本町","lat":34.992799,"lng":135.97727},{"code":"252060040","name":"青地町","lat":35.005088,"lng":135.973822},{"code":"25206005101","name":"追分１丁目","lat":35.009078,"lng":135.966815},{"code":"25206005102","name":"追分２丁目","lat":35.006448,"lng":135.965949},{"code":"25206005103","name":"追分３丁目","lat":35.007919,"lng":135.962893},{"code":"25206005104","name":"追分４丁目","lat":35.005264,"lng":135.961847},{"code":"25206005105","name":"追分５丁目","lat":35.003605,"lng":135.964383},{"code":"25206005106","name":"追分６丁目","lat":35.002062,"lng":135.967222},{"code":"25206005107","name":"追分７丁目","lat":34.997364,"lng":135.967315},{"code":"25206005108","name":"追分８丁目","lat":35.001217,"lng":135.962285},{"code":"25206005201","name":"追分南１丁目","lat":34.999659,"lng":135.960658},{"code":"25206005202","name":"追分南２丁目","lat":34.997934,"lng":135.958275},{"code":"25206005203","name":"追分南３丁目","lat":34.996006,"lng":135.961861},{"code":"25206005204","name":"追分南４丁目","lat":34.997351,"lng":135.96447},{"code":"25206005205","name":"追分南５丁目","lat":34.993245,"lng":135.96674},{"code":"25206005206","name":"追分南６丁目","lat":34.993395,"lng":135.963587},{"code":"25206005207","name":"追分南７丁目","lat":34.990552,"lng":135.964085},{"code":"25206005208","name":"追分南８丁目","lat":34.988261,"lng":135.965965},{"code":"25206005209","name":"追分南９丁目","lat":34.991572,"lng":135.969275},{"code":"25206010001","name":"若草１丁目","lat":34.988848,"lng":135.968042},{"code":"25206010002","name":"若草２丁目","lat":34.989451,"lng":135.970901},{"code":"25206010003","name":"若草３丁目","lat":34.98788,"lng":135.971389},{"code":"25206010004","name":"若草４丁目","lat":34.98584,"lng":135.971759},{"code":"25206010005","name":"若草５丁目","lat":34.986295,"lng":135.96989},{"code":"25206010006","name":"若草６丁目","lat":34.986404,"lng":135.967938},{"code":"25206010007","name":"若草７丁目","lat":34.98475,"lng":135.967171},{"code":"25206010008","name":"若草８丁目","lat":34.984582,"lng":135.968951},{"code":"25206014001","name":"東草津１丁目","lat":35.014743,"lng":135.967821},{"code":"25206014002","name":"東草津２丁目","lat":35.011767,"lng":135.964692},{"code":"25206014003","name":"東草津３丁目","lat":35.012586,"lng":135.969446},{"code":"25206014004","name":"東草津４丁目","lat":35.010245,"lng":135.961194},{"code":"25206018001","name":"草津１丁目","lat":35.017044,"lng":135.963528},{"code":"25206018002","name":"草津２丁目","lat":35.015996,"lng":135.961238},{"code":"25206018003","name":"草津３丁目","lat":35.014143,"lng":135.959362},{"code":"25206018004","name":"草津４丁目","lat":35.01215,"lng":135.957364},{"code":"25206022001","name":"西草津１丁目","lat":35.019364,"lng":135.956454},{"code":"25206022002","name":"西草津２丁目","lat":35.016571,"lng":135.954654},{"code":"25206024000","name":"草津町","lat":35.017451,"lng":135.950928},{"code":"25206024001","name":"草津町","lat":35.018049,"lng":135.946225},{"code":"25206025001","name":"矢倉１丁目","lat":35.0104,"lng":135.955405},{"code":"25206025002","name":"矢倉２丁目","lat":35.007053,"lng":135.952349},{"code":"25206027001","name":"東矢倉１丁目","lat":35.008133,"lng":135.959141},{"code":"25206027002","name":"東矢倉２丁目","lat":35.004802,"lng":135.955121},{"code":"25206027003","name":"東矢倉３丁目","lat":35.00301,"lng":135.958467},{"code":"25206027004","name":"東矢倉４丁目","lat":35.000125,"lng":135.955729},{"code":"25206031001","name":"西矢倉１丁目","lat":35.015215,"lng":135.947439},{"code":"25206031002","name":"西矢倉２丁目","lat":35.012996,"lng":135.948284},{"code":"25206031003","name":"西矢倉３丁目","lat":35.010243,"lng":135.947798},{"code":"25206034001","name":"大路１丁目","lat":35.020185,"lng":135.962034},{"code":"25206034002","name":"大路２丁目","lat":35.019195,"lng":135.966188},{"code":"25206034003","name":"大路３丁目","lat":35.017653,"lng":135.970157},{"code":"252060370","name":"西大路町","lat":35.022569,"lng":135.957907},{"code":"25206038001","name":"渋川１丁目","lat":35.023337,"lng":135.964495},{"code":"25206038002","name":"渋川２丁目","lat":35.026979,"lng":135.968443},{"code":"25206040001","name":"西渋川１丁目","lat":35.026507,"lng":135.961777},{"code":"25206040002","name":"西渋川２丁目","lat":35.030688,"lng":135.967524},{"code":"252060420","name":"若竹町","lat":35.022583,"lng":135.968012},{"code":"25206043101","name":"桜ヶ丘１丁目","lat":34.991109,"lng":135.960932},{"code":"25206043102","name":"桜ヶ丘２丁目","lat":34.9888,"lng":135.962784},{"code":"25206043103","name":"桜ヶ丘３丁目","lat":34.987286,"lng":135.960584},{"code":"25206043104","name":"桜ヶ丘４丁目","lat":34.987695,"lng":135.958074},{"code":"25206043105","name":"桜ヶ丘５丁目","lat":34.989838,"lng":135.957874},{"code":"25206043201","name":"野路東１丁目","lat":34.98218,"lng":135.963269},{"code":"25206043202","name":"野路東２丁目","lat":34.986009,"lng":135.953692},{"code":"25206043203","name":"野路東３丁目","lat":34.992946,"lng":135.957336},{"code":"25206043204","name":"野路東４丁目","lat":34.996233,"lng":135.955727},{"code":"25206043205","name":"野路東５丁目","lat":34.993796,"lng":135.953155},{"code":"25206043206","name":"野路東６丁目","lat":34.992508,"lng":135.950512},{"code":"25206043207","name":"野路東７丁目","lat":34.990415,"lng":135.949077},{"code":"25206043500","name":"野路町","lat":34.998491,"lng":135.949178},{"code":"25206043501","name":"野路町","lat":35.003104,"lng":135.940183},{"code":"25206043502","name":"野路町","lat":35.005758,"lng":135.946808},{"code":"25206043601","name":"野路１丁目","lat":35.003052,"lng":135.948848},{"code":"25206043602","name":"野路２丁目","lat":35.000885,"lng":135.946675},{"code":"25206043603","name":"野路３丁目","lat":34.998959,"lng":135.944956},{"code":"25206043604","name":"野路４丁目","lat":34.997376,"lng":135.946237},{"code":"25206043605","name":"野路５丁目","lat":35.000743,"lng":135.949891},{"code":"25206043606","name":"野路６丁目","lat":35.001105,"lng":135.953302},{"code":"25206043607","name":"野路７丁目","lat":34.998604,"lng":135.950271},{"code":"25206043608","name":"野路８丁目","lat":34.997088,"lng":135.951942},{"code":"25206043609","name":"野路９丁目","lat":34.994799,"lng":135.948216},{"code":"25206043701","name":"南草津１丁目","lat":35.003061,"lng":135.945802},{"code":"25206043702","name":"南草津２丁目","lat":35.003978,"lng":135.943866},{"code":"25206043703","name":"南草津３丁目","lat":35.004842,"lng":135.94141},{"code":"25206043704","name":"南草津４丁目","lat":35.00265,"lng":135.941651},{"code":"25206043705","name":"南草津５丁目","lat":35.005297,"lng":135.939705},{"code":"25206044101","name":"南笠東１丁目","lat":34.995204,"lng":135.943851},{"code":"25206044102","name":"南笠東２丁目","lat":34.994241,"lng":135.939044},{"code":"25206044103","name":"南笠東３丁目","lat":34.992949,"lng":135.941653},{"code":"25206044104","name":"南笠東４丁目","lat":34.990247,"lng":135.942787},{"code":"25206044201","name":"笠山１丁目","lat":34.989177,"lng":135.94599},{"code":"25206044202","name":"笠山２丁目","lat":34.986759,"lng":135.943872},{"code":"25206044203","name":"笠山３丁目","lat":34.983418,"lng":135.946222},{"code":"25206044204","name":"笠山４丁目","lat":34.984715,"lng":135.948456},{"code":"25206044205","name":"笠山５丁目","lat":34.98079,"lng":135.951103},{"code":"25206044206","name":"笠山６丁目","lat":34.979439,"lng":135.948628},{"code":"25206044207","name":"笠山７丁目","lat":34.97517,"lng":135.951632},{"code":"25206044208","name":"笠山８丁目","lat":34.976231,"lng":135.957918},{"code":"252060443","name":"南笠町","lat":34.99875,"lng":135.93461},{"code":"252060450","name":"新浜町","lat":34.998482,"lng":135.918033},{"code":"252060460","name":"矢橋町","lat":35.007678,"lng":135.922374},{"code":"252060470","name":"橋岡町","lat":35.01129,"lng":135.934556},{"code":"252060480","name":"北山田町","lat":35.03159,"lng":135.920625},{"code":"252060490","name":"山田町","lat":35.024248,"lng":135.923555},{"code":"252060500","name":"南山田町","lat":35.018886,"lng":135.927929},{"code":"252060510","name":"木川町","lat":35.023383,"lng":135.9424},{"code":"252060520","name":"御倉町","lat":35.014521,"lng":135.934236},{"code":"252060530","name":"上笠町","lat":35.036578,"lng":135.945019},{"code":"25206054001","name":"上笠１丁目","lat":35.033654,"lng":135.947546},{"code":"25206054002","name":"上笠２丁目","lat":35.030315,"lng":135.946604},{"code":"25206054003","name":"上笠３丁目","lat":35.028269,"lng":135.944481},{"code":"25206054004","name":"上笠４丁目","lat":35.031617,"lng":135.941716},{"code":"25206054005","name":"上笠５丁目","lat":35.031618,"lng":135.939418},{"code":"25206058001","name":"野村１丁目","lat":35.027545,"lng":135.957067},{"code":"25206058002","name":"野村２丁目","lat":35.025956,"lng":135.953486},{"code":"25206058003","name":"野村３丁目","lat":35.024447,"lng":135.951971},{"code":"25206058004","name":"野村４丁目","lat":35.027196,"lng":135.948577},{"code":"25206058005","name":"野村５丁目","lat":35.030777,"lng":135.95154},{"code":"25206058006","name":"野村６丁目","lat":35.028171,"lng":135.953814},{"code":"25206058007","name":"野村７丁目","lat":35.030013,"lng":135.955286},{"code":"25206058008","name":"野村８丁目","lat":35.030622,"lng":135.957409},{"code":"252060590","name":"平井町","lat":35.036301,"lng":135.961937},{"code":"25206060001","name":"平井１丁目","lat":35.030779,"lng":135.960722},{"code":"25206060002","name":"平井２丁目","lat":35.032552,"lng":135.958151},{"code":"25206060003","name":"平井３丁目","lat":35.034699,"lng":135.960511},{"code":"25206060004","name":"平井４丁目","lat":35.032994,"lng":135.961897},{"code":"25206060005","name":"平井５丁目","lat":35.032511,"lng":135.963925},{"code":"25206060006","name":"平井６丁目","lat":35.03476,"lng":135.965046},{"code":"252060660","name":"川原町","lat":35.037635,"lng":135.95522},{"code":"25206070001","name":"川原１丁目","lat":35.034213,"lng":135.957208},{"code":"25206070002","name":"川原２丁目","lat":35.033764,"lng":135.954019},{"code":"25206070003","name":"川原３丁目","lat":35.03608,"lng":135.956671},{"code":"25206070004","name":"川原４丁目","lat":35.036852,"lng":135.95379},{"code":"252060710","name":"駒井沢町","lat":35.041725,"lng":135.959916},{"code":"252060720","name":"新堂町","lat":35.044997,"lng":135.954442},{"code":"252060730","name":"集町","lat":35.040331,"lng":135.950432},{"code":"252060740","name":"下笠町","lat":35.039186,"lng":135.928864},{"code":"252060750","name":"片岡町","lat":35.055329,"lng":135.946678},{"code":"252060760","name":"下寺町","lat":35.060818,"lng":135.938265},{"code":"252060770","name":"下物町","lat":35.06752,"lng":135.940535},{"code":"252060780","name":"芦浦町","lat":35.057438,"lng":135.954771},{"code":"252060790","name":"長束町","lat":35.053819,"lng":135.960603},{"code":"252060800","name":"上寺町","lat":35.050242,"lng":135.957102},{"code":"252060810","name":"穴村町","lat":35.04874,"lng":135.949384},{"code":"252060820","name":"北大萱町","lat":35.04426,"lng":135.944713},{"code":"252060830","name":"志那町","lat":35.049447,"lng":135.929188},{"code":"252060840","name":"志那中町","lat":35.05445,"lng":135.936756}]}
