{"municipality":"26102","name":"京都市上京区","prefecture":"京都府","source":{"dataset":"frogcat/japan-small-area","census":"平成27年国勢調査 小地域（e-Stat 統計LOD）","license":"MIT（リポジトリ）／政府統計の総合窓口(e-Stat)の利用規約（元データ・出典表記必要）","fetched":"2026-07-06"},"towns":[{"code":"26102001001","name":"桃薗南舟橋町","lat":35.030119,"lng":135.751972},{"code":"26102001002","name":"桃薗橋之上町","lat":35.02954,"lng":135.752311},{"code":"26102001003","name":"桃薗竪門前町","lat":35.0289,"lng":135.751053},{"code":"26102001004","name":"桃薗堀川上之町","lat":35.027308,"lng":135.751874},{"code":"26102001005","name":"桃薗徳屋町","lat":35.027981,"lng":135.751432},{"code":"26102001006","name":"桃薗晴明町","lat":35.027094,"lng":135.751243},{"code":"26102001007","name":"桃薗竪神明町","lat":35.027556,"lng":135.750485},{"code":"26102001008","name":"桃薗横神明町","lat":35.027008,"lng":135.75065},{"code":"26102001009","name":"桃薗毘沙門町","lat":35.027672,"lng":135.74984},{"code":"26102001010","name":"桃薗弾正町","lat":35.026714,"lng":135.749792},{"code":"26102001011","name":"桃薗芝大宮町","lat":35.03163,"lng":135.748743},{"code":"26102001012","name":"桃薗観世町","lat":35.030456,"lng":135.74908},{"code":"26102001013","name":"桃薗薬師町","lat":35.02922,"lng":135.748968},{"code":"26102001014","name":"桃薗北之御門町","lat":35.02823,"lng":135.748841},{"code":"26102001015","name":"桃薗石薬師町","lat":35.027509,"lng":135.748963},{"code":"26102001016","name":"桃薗下石橋町","lat":35.026887,"lng":135.748936},{"code":"26102001017","name":"桃薗栄町","lat":35.027423,"lng":135.747907},{"code":"26102001018","name":"桃薗桜井町","lat":35.030461,"lng":135.747258},{"code":"26102001019","name":"桃薗橘町","lat":35.027572,"lng":135.746756},{"code":"26102001020","name":"桃薗五辻町","lat":35.031087,"lng":135.747194},{"code":"26102001021","name":"桃薗西船橋町","lat":35.029713,"lng":135.751286},{"code":"26102001022","name":"桃薗北猪熊町","lat":35.030588,"lng":135.750671},{"code":"26102001023","name":"桃薗元伊佐町","lat":35.029768,"lng":135.749902},{"code":"26102001024","name":"桃薗元北小路町","lat":35.029845,"lng":135.747821},{"code":"26102001025","name":"桃薗横大宮町","lat":35.029236,"lng":135.74766},{"code":"26102001026","name":"桃薗南門前町","lat":35.028563,"lng":135.750974},{"code":"26102001027","name":"桃薗富小路町","lat":35.028239,"lng":135.751329},{"code":"26102001028","name":"桃薗寺今町","lat":35.028597,"lng":135.750033},{"code":"26102001029","name":"桃薗元妙蓮寺町","lat":35.028611,"lng":135.747707},{"code":"26102001030","name":"桃薗桝屋町","lat":35.028043,"lng":135.74773},{"code":"26102001031","name":"桃薗橋詰町","lat":35.028391,"lng":135.751814},{"code":"26102002001","name":"小川近衛殿表町","lat":35.031302,"lng":135.75574},{"code":"26102002002","name":"小川元本満寺町","lat":35.030018,"lng":135.755582},{"code":"26102002003","name":"小川常盤井図子町","lat":35.028136,"lng":135.755219},{"code":"26102002004","name":"小川大峰図子町","lat":35.027113,"lng":135.755252},{"code":"26102002005","name":"小川上小川町","lat":35.031344,"lng":135.754328},{"code":"26102002006","name":"小川近衛殿北口町","lat":35.031281,"lng":135.754985},{"code":"26102002007","name":"小川実相院町","lat":35.030939,"lng":135.753225},{"code":"26102002008","name":"小川中小川町","lat":35.030196,"lng":135.754181},{"code":"26102002009","name":"小川針屋町","lat":35.029131,"lng":135.754236},{"code":"26102002010","name":"小川靱屋町","lat":35.028187,"lng":135.754423},{"code":"26102002011","name":"小川革堂仲之町","lat":35.027571,"lng":135.754035},{"code":"26102002012","name":"小川革堂町","lat":35.027073,"lng":135.754353},{"code":"26102002013","name":"小川東今町","lat":35.029081,"lng":135.753486},{"code":"26102002014","name":"小川頭町","lat":35.028206,"lng":135.753455},{"code":"26102002015","name":"小川戒光寺町","lat":35.027892,"lng":135.753737},{"code":"26102002016","name":"小川革堂西町","lat":35.027582,"lng":135.753477},{"code":"26102002017","name":"小川元百万遍町","lat":35.026778,"lng":135.753485},{"code":"26102002018","name":"小川西今町","lat":35.029173,"lng":135.752513},{"code":"26102002019","name":"小川村雲町","lat":35.028774,"lng":135.752073},{"code":"26102002020","name":"小川竪富田町","lat":35.027216,"lng":135.752484},{"code":"26102002021","name":"小川西大路町","lat":35.032141,"lng":135.755556},{"code":"26102002022","name":"小川御三軒町","lat":35.032154,"lng":135.754005},{"code":"26102002023","name":"小川水落町","lat":35.03151,"lng":135.753492},{"code":"26102002024","name":"小川堀之上町","lat":35.032013,"lng":135.75278},{"code":"26102002025","name":"小川弁財天町","lat":35.029087,"lng":135.755516},{"code":"26102002026","name":"小川北兼康町","lat":35.030212,"lng":135.754944},{"code":"26102002027","name":"小川南兼康町","lat":35.029381,"lng":135.754922},{"code":"26102002028","name":"小川飛鳥井町","lat":35.029892,"lng":135.753101},{"code":"26102002029","name":"小川元図子町","lat":35.02859,"lng":135.755197},{"code":"26102002030","name":"小川東町","lat":35.028465,"lng":135.753997},{"code":"26102002031","name":"小川仲之町","lat":35.028485,"lng":135.753095},{"code":"26102002032","name":"小川西町","lat":35.02856,"lng":135.752642},{"code":"26102002033","name":"小川西武者小路町","lat":35.027736,"lng":135.755264},{"code":"26102002034","name":"小川一条横町","lat":35.026452,"lng":135.754013},{"code":"26102002035","name":"小川西川端町","lat":35.026508,"lng":135.752977},{"code":"26102002036","name":"小川堀出シ町","lat":35.029222,"lng":135.756748},{"code":"26102002037","name":"小川徳大寺殿町","lat":35.028502,"lng":135.756207},{"code":"26102002038","name":"小川今図子町","lat":35.028454,"lng":135.75709},{"code":"26102002039","name":"小川北小路室町","lat":35.028588,"lng":135.758039},{"code":"26102002040","name":"小川梅屋町","lat":35.028271,"lng":135.758856},{"code":"26102002041","name":"小川武者小路町","lat":35.02785,"lng":135.756982},{"code":"26102002042","name":"小川一条殿町","lat":35.027104,"lng":135.7562},{"code":"26102002043","name":"小川一松町","lat":35.027157,"lng":135.757061},{"code":"26102002044","name":"小川福長町","lat":35.027469,"lng":135.757923},{"code":"26102002045","name":"小川小島町","lat":35.026723,"lng":135.75798},{"code":"26102002046","name":"小川観三橘町","lat":35.027329,"lng":135.758928},{"code":"26102003001","name":"中立龍前町","lat":35.0247,"lng":135.759038},{"code":"26102003002","name":"中立薬屋町","lat":35.025739,"lng":135.757998},{"code":"26102003003","name":"中立花立町","lat":35.024423,"lng":135.757978},{"code":"26102003004","name":"中立清和院町","lat":35.023195,"lng":135.758016},{"code":"26102003005","name":"中立正親町","lat":35.025682,"lng":135.756609},{"code":"26102003006","name":"中立仕丁町","lat":35.02434,"lng":135.756629},{"code":"26102003007","name":"中立元頂妙寺町","lat":35.0231,"lng":135.756647},{"code":"26102003008","name":"中立讃州寺町","lat":35.025796,"lng":135.755143},{"code":"26102003009","name":"中立菊屋町","lat":35.024192,"lng":135.755058},{"code":"26102003010","name":"中立頭町","lat":35.023264,"lng":135.754992},{"code":"26102003011","name":"中立小川町","lat":35.025701,"lng":135.754284},{"code":"26102003012","name":"中立下小川町","lat":35.024155,"lng":135.754257},{"code":"26102003013","name":"中立油橋詰町","lat":35.025673,"lng":135.75363},{"code":"26102003014","name":"中立甲斐守町","lat":35.024413,"lng":135.753536},{"code":"26102003015","name":"中立亀屋町","lat":35.023167,"lng":135.753426},{"code":"26102003016","name":"中立松之下町","lat":35.025823,"lng":135.752743},{"code":"26102003017","name":"中立突抜町","lat":35.024307,"lng":135.752871},{"code":"26102003018","name":"中立主計町","lat":35.02586,"lng":135.752296},{"code":"26102003019","name":"中立一町目","lat":35.024221,"lng":135.752342},{"code":"26102003020","name":"中立二町目","lat":35.023278,"lng":135.752277},{"code":"26102003021","name":"中立広橋殿町","lat":35.026336,"lng":135.758759},{"code":"26102003022","name":"中立東日野殿町","lat":35.02615,"lng":135.757381},{"code":"26102003023","name":"中立西日野殿町","lat":35.026256,"lng":135.756753},{"code":"26102003024","name":"中立元真如堂町","lat":35.026298,"lng":135.755809},{"code":"26102003025","name":"中立西之口町","lat":35.026333,"lng":135.754714},{"code":"26102003026","name":"中立東町","lat":35.025087,"lng":135.758687},{"code":"26102003027","name":"中立三丁町","lat":35.025008,"lng":135.755813},{"code":"26102003028","name":"中立東橋詰町","lat":35.024976,"lng":135.752635},{"code":"26102003029","name":"中立元浄花院町","lat":35.023446,"lng":135.758669},{"code":"26102003030","name":"中立元土御門町","lat":35.023968,"lng":135.757223},{"code":"26102003031","name":"中立土御門町","lat":35.024303,"lng":135.755758},{"code":"26102003032","name":"中立有春町","lat":35.023719,"lng":135.754386},{"code":"26102003033","name":"中立橋本町","lat":35.0234,"lng":135.7527},{"code":"26102003034","name":"中立東長者町","lat":35.023195,"lng":135.757283},{"code":"26102003035","name":"中立仲之町","lat":35.023259,"lng":135.755853},{"code":"26102003036","name":"中立中橋詰町","lat":35.02324,"lng":135.754249},{"code":"26102004001","name":"聚楽皀莢町","lat":35.02409,"lng":135.751731},{"code":"26102004002","name":"聚楽奈良物町","lat":35.023061,"lng":135.75178},{"code":"26102004003","name":"聚楽福大明神町","lat":35.02585,"lng":135.751268},{"code":"26102004004","name":"聚楽北俵町","lat":35.024539,"lng":135.751206},{"code":"26102004005","name":"聚楽南俵町","lat":35.023963,"lng":135.751195},{"code":"26102004006","name":"聚楽菊屋町","lat":35.023067,"lng":135.751113},{"code":"26102004007","name":"聚楽小寺町","lat":35.02565,"lng":135.750513},{"code":"26102004008","name":"聚楽猪熊一丁目","lat":35.024138,"lng":135.75055},{"code":"26102004009","name":"聚楽猪熊二丁目","lat":35.023071,"lng":135.750568},{"code":"26102004010","name":"聚楽飛弾殿町","lat":35.025684,"lng":135.749864},{"code":"26102004011","name":"聚楽榎町","lat":35.024136,"lng":135.749931},{"code":"26102004012","name":"聚楽北小大門町","lat":35.023193,"lng":135.749847},{"code":"26102004013","name":"聚楽南小大門町","lat":35.022764,"lng":135.749769},{"code":"26102004014","name":"聚楽庇町","lat":35.025877,"lng":135.749612},{"code":"26102004015","name":"聚楽梨木町","lat":35.025539,"lng":135.749319},{"code":"26102004016","name":"聚楽糸屋町","lat":35.02563,"lng":135.748864},{"code":"26102004017","name":"聚楽常陸町","lat":35.024177,"lng":135.749274},{"code":"26102004018","name":"聚楽藤五郎町","lat":35.023068,"lng":135.749306},{"code":"26102004019","name":"聚楽和水町","lat":35.024182,"lng":135.748837},{"code":"26102004020","name":"聚楽東堀町","lat":35.023123,"lng":135.748602},{"code":"26102004021","name":"聚楽下鏡石町","lat":35.025773,"lng":135.748448},{"code":"26102004022","name":"聚楽神明町","lat":35.024235,"lng":135.748213},{"code":"26102004023","name":"聚楽如水町","lat":35.026354,"lng":135.750568},{"code":"26102004024","name":"聚楽鏡石町","lat":35.026509,"lng":135.747792},{"code":"26102004025","name":"聚楽下石橋南半町","lat":35.026416,"lng":135.749094},{"code":"26102004026","name":"聚楽役人町","lat":35.024997,"lng":135.750943},{"code":"26102004027","name":"聚楽新元町","lat":35.024904,"lng":135.749063},{"code":"26102004028","name":"聚楽杉本町","lat":35.023501,"lng":135.750568},{"code":"26102004029","name":"聚楽須浜東町","lat":35.023452,"lng":135.747866},{"code":"26102004030","name":"聚楽堀川下之町","lat":35.025658,"lng":135.75179},{"code":"26102005001","name":"正親須浜池町","lat":35.024269,"lng":135.747494},{"code":"26102005002","name":"正親智恵光院前之町","lat":35.026973,"lng":135.746291},{"code":"26102005003","name":"正親山里町","lat":35.024228,"lng":135.74676},{"code":"26102005004","name":"正親下山里町","lat":35.023111,"lng":135.746467},{"code":"26102005005","name":"正親今新在家町","lat":35.025705,"lng":135.746054},{"code":"26102005006","name":"正親高台院竪町","lat":35.024141,"lng":135.746232},{"code":"26102005007","name":"正親亀木町","lat":35.023153,"lng":135.746248},{"code":"26102005008","name":"正親福本町","lat":35.026852,"lng":135.745076},{"code":"26102005009","name":"正親東西俵屋町","lat":35.025813,"lng":135.744449},{"code":"26102005010","name":"正親菱丸町","lat":35.024303,"lng":135.745221},{"code":"26102005011","name":"正親長谷町","lat":35.023078,"lng":135.744862},{"code":"26102005012","name":"正親山王町","lat":35.023196,"lng":135.743922},{"code":"26102005013","name":"正親東石橋町","lat":35.02582,"lng":135.742657},{"code":"26102005014","name":"正親西中筋町","lat":35.025768,"lng":135.741668},{"code":"26102005015","name":"正親玉屋町","lat":35.025274,"lng":135.742518},{"code":"26102005016","name":"正親亀屋町","lat":35.024943,"lng":135.742172},{"code":"26102005017","name":"正親仲御霊町","lat":35.024197,"lng":135.74241},{"code":"26102005018","name":"正親百万遍町","lat":35.023715,"lng":135.742488},{"code":"26102005019","name":"正親革堂前之町","lat":35.023064,"lng":135.742584},{"code":"26102005020","name":"正親北新在家町","lat":35.026607,"lng":135.746103},{"code":"26102005021","name":"正親南新在家町","lat":35.026188,"lng":135.74572},{"code":"26102005022","name":"正親革堂之内町","lat":35.026371,"lng":135.744793},{"code":"26102005023","name":"正親伊勢殿構町","lat":35.026551,"lng":135.743507},{"code":"26102005024","name":"正親泰童町","lat":35.026495,"lng":135.744249},{"code":"26102005025","name":"正親新白水丸町","lat":35.025488,"lng":135.747481},{"code":"26102005026","name":"正親多門町","lat":35.024987,"lng":135.746632},{"code":"26102005027","name":"正親新桝屋町","lat":35.024981,"lng":135.745547},{"code":"26102005028","name":"正親加賀屋町","lat":35.025012,"lng":135.744572},{"code":"26102005029","name":"正親田丸町","lat":35.024952,"lng":135.743845},{"code":"26102005030","name":"正親丹波屋町","lat":35.024975,"lng":135.743062},{"code":"26102005031","name":"正親須浜町","lat":35.02341,"lng":135.746991},{"code":"26102005032","name":"正親高台院町","lat":35.023573,"lng":135.7456},{"code":"26102005033","name":"正親新柳馬場頭町","lat":35.023581,"lng":135.74464},{"code":"26102005034","name":"正親信濃町","lat":35.023701,"lng":135.743192},{"code":"26102005035","name":"正親愛染寺町","lat":35.023484,"lng":135.743382},{"code":"26102005036","name":"正親西富仲町","lat":35.024192,"lng":135.743748},{"code":"26102006001","name":"嘉楽有馬町","lat":35.030398,"lng":135.74539},{"code":"26102006002","name":"嘉楽竪亀屋町","lat":35.029315,"lng":135.745513},{"code":"26102006003","name":"嘉楽上善寺町","lat":35.030291,"lng":135.742435},{"code":"26102006004","name":"嘉楽南辻町","lat":35.02939,"lng":135.742518},{"code":"26102006005","name":"嘉楽泰童片原町","lat":35.027427,"lng":135.74252},{"code":"26102006006","name":"嘉楽北伊勢殿構町","lat":35.026658,"lng":135.742491},{"code":"26102006007","name":"嘉楽一色町","lat":35.031027,"lng":135.744948},{"code":"26102006008","name":"嘉楽西五辻東町","lat":35.031046,"lng":135.74333},{"code":"26102006009","name":"嘉楽西北小路町","lat":35.029985,"lng":135.746416},{"code":"26102006010","name":"嘉楽北小路中之町","lat":35.029956,"lng":135.745432},{"code":"26102006011","name":"嘉楽東上善寺町","lat":35.029881,"lng":135.744365},{"code":"26102006012","name":"嘉楽般舟院前町","lat":35.030166,"lng":135.743394},{"code":"26102006013","name":"嘉楽菱屋町","lat":35.029319,"lng":135.746287},{"code":"26102006014","name":"嘉楽中宮町","lat":35.029298,"lng":135.744384},{"code":"26102006015","name":"嘉楽西亀屋町","lat":35.029321,"lng":135.743386},{"code":"26102006016","name":"嘉楽元中之町","lat":35.028646,"lng":135.746236},{"code":"26102006017","name":"嘉楽今出川町","lat":35.028689,"lng":135.745038},{"code":"26102006018","name":"嘉楽革堂町","lat":35.028727,"lng":135.744369},{"code":"26102006019","name":"嘉楽元四丁目","lat":35.02877,"lng":135.743296},{"code":"26102006020","name":"嘉楽松屋町","lat":35.028823,"lng":135.742006},{"code":"26102006021","name":"嘉楽笹屋町一丁目","lat":35.027908,"lng":135.745979},{"code":"26102006022","name":"嘉楽笹屋町二丁目","lat":35.027636,"lng":135.744445},{"code":"26102006023","name":"嘉楽笹屋町三丁目","lat":35.028167,"lng":135.743174},{"code":"26102007001","name":"乾隆大黒町","lat":35.033111,"lng":135.745648},{"code":"26102007002","name":"乾隆杉若町","lat":35.031686,"lng":135.745296},{"code":"26102007003","name":"乾隆閻魔前町","lat":35.035503,"lng":135.740657},{"code":"26102007004","name":"乾隆西五辻北町","lat":35.034486,"lng":135.741063},{"code":"26102007005","name":"乾隆花車町","lat":35.033495,"lng":135.741682},{"code":"26102007006","name":"乾隆作庵町","lat":35.032672,"lng":135.741572},{"code":"26102007007","name":"乾隆牡丹鉾町","lat":35.031697,"lng":135.742011},{"code":"26102007008","name":"乾隆西社町","lat":35.035297,"lng":135.745798},{"code":"26102007009","name":"乾隆戌亥町","lat":35.035191,"lng":135.744101},{"code":"26102007010","name":"乾隆木瓜原町","lat":35.035639,"lng":135.743208},{"code":"26102007011","name":"乾隆西芦山寺町","lat":35.035158,"lng":135.742866},{"code":"26102007012","name":"乾隆北玄蕃町","lat":35.035147,"lng":135.741773},{"code":"26102007013","name":"乾隆歓喜町","lat":35.034594,"lng":135.745703},{"code":"26102007014","name":"乾隆中猪熊町","lat":35.034107,"lng":135.745629},{"code":"26102007015","name":"乾隆西熊町","lat":35.034643,"lng":135.744615},{"code":"26102007016","name":"乾隆姥ケ北町","lat":35.033292,"lng":135.744003},{"code":"26102007017","name":"乾隆新猪熊東町","lat":35.034226,"lng":135.743801},{"code":"26102007018","name":"乾隆姥ケ寺之前町","lat":35.033449,"lng":135.743003},{"code":"26102007019","name":"乾隆井田町","lat":35.034684,"lng":135.742717},{"code":"26102007020","name":"乾隆新猪熊町","lat":35.034256,"lng":135.742284},{"code":"26102007021","name":"乾隆蛭子町","lat":35.032305,"lng":135.745018},{"code":"26102007022","name":"乾隆真倉町","lat":35.033259,"lng":135.744788},{"code":"26102007023","name":"乾隆姥ケ榎木町","lat":35.031781,"lng":135.743924},{"code":"26102007024","name":"乾隆姥ケ東西町","lat":35.032528,"lng":135.743845},{"code":"26102007025","name":"乾隆桐木町","lat":35.031776,"lng":135.742955},{"code":"26102007026","name":"乾隆姥ケ西町","lat":35.03259,"lng":135.742602},{"code":"26102008001","name":"西陣竹屋町","lat":35.032879,"lng":135.752246},{"code":"26102008002","name":"西陣北舟橋町","lat":35.030948,"lng":135.752018},{"code":"26102008003","name":"西陣山名町","lat":35.031489,"lng":135.751371},{"code":"26102008004","name":"西陣花開院町","lat":35.0334,"lng":135.748892},{"code":"26102008005","name":"西陣新美濃部町","lat":35.033463,"lng":135.747809},{"code":"26102008006","name":"西陣大北小路東町","lat":35.032988,"lng":135.751045},{"code":"26102008007","name":"西陣西北小路町","lat":35.033139,"lng":135.749942},{"code":"26102008008","name":"西陣伊佐町","lat":35.032735,"lng":135.74736},{"code":"26102008009","name":"西陣樋之口町","lat":35.032546,"lng":135.748685},{"code":"26102008010","name":"西陣曼陀羅町","lat":35.032731,"lng":135.749414},{"code":"26102008011","name":"西陣硯屋町","lat":35.03236,"lng":135.747809},{"code":"26102008012","name":"西陣紋屋町","lat":35.031808,"lng":135.7469},{"code":"26102008013","name":"西陣古美濃部町","lat":35.033528,"lng":135.746986},{"code":"26102008014","name":"西陣聖天町","lat":35.032918,"lng":135.746264},{"code":"26102008015","name":"西陣百々町","lat":35.034026,"lng":135.752576},{"code":"26102008016","name":"西陣東西町","lat":35.033927,"lng":135.751017},{"code":"26102008017","name":"西陣妙蓮寺前町","lat":35.034382,"lng":135.749997},{"code":"26102008018","name":"西陣大猪熊町","lat":35.034044,"lng":135.747539},{"code":"26102008019","name":"西陣芝之町","lat":35.033027,"lng":135.751799},{"code":"26102008020","name":"西陣芝薬師町","lat":35.032187,"lng":135.751305},{"code":"26102008021","name":"西陣幸在町","lat":35.032176,"lng":135.749952},{"code":"26102008022","name":"西陣阿弥陀寺町","lat":35.032351,"lng":135.749291},{"code":"26102008023","name":"西陣土田町","lat":35.03227,"lng":135.750162},{"code":"26102008024","name":"西陣藤木町","lat":35.031456,"lng":135.750532},{"code":"26102008025","name":"西陣東石屋町","lat":35.031445,"lng":135.74971},{"code":"26102008026","name":"西陣慈眼庵町","lat":35.030792,"lng":135.749714},{"code":"26102008027","name":"西陣西石屋町","lat":35.031382,"lng":135.749612},{"code":"26102009001","name":"成逸瑞光院前町","lat":35.037629,"lng":135.751324},{"code":"26102009002","name":"成逸天神北町","lat":35.037251,"lng":135.75088},{"code":"26102009003","name":"成逸上天神町","lat":35.036367,"lng":135.750485},{"code":"26102009004","name":"成逸下天神町","lat":35.035608,"lng":135.750494},{"code":"26102009005","name":"成逸寺之内竪町","lat":35.034407,"lng":135.751467},{"code":"26102009006","name":"成逸若宮横町","lat":35.039042,"lng":135.748638},{"code":"26102009007","name":"成逸若宮竪町","lat":35.038449,"lng":135.74908},{"code":"26102009008","name":"成逸筋違橋町","lat":35.037276,"lng":135.748831},{"code":"26102009009","name":"成逸新ン町","lat":35.037215,"lng":135.749849},{"code":"26102009010","name":"成逸北仲之町","lat":35.036193,"lng":135.748873},{"code":"26102009011","name":"成逸仲之町","lat":35.035442,"lng":135.7489},{"code":"26102009012","name":"成逸前之町","lat":35.034526,"lng":135.748855},{"code":"26102009013","name":"成逸東千本町","lat":35.034536,"lng":135.747695},{"code":"26102009014","name":"成逸西千本町","lat":35.034574,"lng":135.746657},{"code":"26102009015","name":"成逸社突抜町","lat":35.036558,"lng":135.747515},{"code":"26102009016","name":"成逸社横町","lat":35.035848,"lng":135.747737},{"code":"26102009017","name":"成逸西若宮北半町","lat":35.038442,"lng":135.748021},{"code":"26102009018","name":"成逸西若宮南半町","lat":35.037721,"lng":135.748138},{"code":"26102009019","name":"成逸竪社北半町","lat":35.036932,"lng":135.748073},{"code":"26102009020","name":"成逸竪社南半町","lat":35.036248,"lng":135.748118},{"code":"26102009021","name":"成逸東若宮町","lat":35.038119,"lng":135.749957},{"code":"26102009022","name":"成逸東社町","lat":35.035127,"lng":135.747984},{"code":"26102009023","name":"成逸中社町","lat":35.035101,"lng":135.747018},{"code":"26102009024","name":"成逸薬師前町","lat":35.035514,"lng":135.747204},{"code":"26102009025","name":"成逸田畑町","lat":35.03551,"lng":135.746935},{"code":"26102009026","name":"成逸扇町","lat":35.036435,"lng":135.752039},{"code":"26102009027","name":"成逸下清蔵口町","lat":35.036766,"lng":135.752572},{"code":"26102010012","name":"室町今出川町","lat":35.029074,"lng":135.758913},{"code":"26102010013","name":"室町玄武町","lat":35.02955,"lng":135.76239},{"code":"26102010014","name":"室町新北小路町","lat":35.029683,"lng":135.761352},{"code":"26102010015","name":"室町御所八幡町","lat":35.030997,"lng":135.759341},{"code":"26102010016","name":"室町岡松町","lat":35.029876,"lng":135.759316},{"code":"26102010017","name":"室町築山南半町","lat":35.029467,"lng":135.757955},{"code":"26102010018","name":"室町築山北半町","lat":35.030191,"lng":135.757994},{"code":"26102010019","name":"室町畠山町","lat":35.030062,"lng":135.757174},{"code":"26102010020","name":"室町元新在家町","lat":35.029993,"lng":135.756184},{"code":"26102010021","name":"室町中御霊図子町","lat":35.030881,"lng":135.756719},{"code":"26102010022","name":"室町蒔鳥屋町","lat":35.030612,"lng":135.757437},{"code":"26102010023","name":"室町瓢箪図子町","lat":35.031231,"lng":135.757267},{"code":"26102010024","name":"室町裏築地町","lat":35.03118,"lng":135.758013},{"code":"26102010025","name":"室町上立売町","lat":35.031831,"lng":135.756867},{"code":"26102010026","name":"室町上立売東町","lat":35.032006,"lng":135.75878},{"code":"26102010027","name":"室町柳図子町","lat":35.033002,"lng":135.758899},{"code":"26102010028","name":"室町室町頭町","lat":35.032846,"lng":135.757863},{"code":"26102010029","name":"室町木下突抜町","lat":35.033303,"lng":135.756977},{"code":"26102010030","name":"室町裏風呂町","lat":35.032632,"lng":135.756874},{"code":"26102010031","name":"室町安楽小路町","lat":35.032846,"lng":135.75554},{"code":"26102010032","name":"室町挽木町","lat":35.032883,"lng":135.754514},{"code":"26102010033","name":"室町射場町","lat":35.032953,"lng":135.753283},{"code":"26102010034","name":"室町本法寺前町","lat":35.035,"lng":135.752754},{"code":"26102010035","name":"室町納屋町","lat":35.033778,"lng":135.757533},{"code":"26102010036","name":"室町妙顕寺前町","lat":35.034675,"lng":135.754671},{"code":"26102010037","name":"室町宝鏡院東町","lat":35.033771,"lng":135.753519},{"code":"26102010038","name":"室町内藤町","lat":35.033648,"lng":135.755708},{"code":"26102010039","name":"室町道正町","lat":35.034385,"lng":135.756048},{"code":"26102010040","name":"室町古木町","lat":35.033588,"lng":135.756238},{"code":"26102010041","name":"室町下木下町","lat":35.03457,"lng":135.75729},{"code":"26102010042","name":"室町下柳原北半町","lat":35.034618,"lng":135.758342},{"code":"26102010043","name":"室町下柳原南半町","lat":35.034007,"lng":135.75826},{"code":"26102010044","name":"室町相国寺門前町","lat":35.033009,"lng":135.761801},{"code":"26102010045","name":"室町内構町","lat":35.036207,"lng":135.758914},{"code":"26102010046","name":"室町上柳原町","lat":35.035515,"lng":135.758153},{"code":"26102010047","name":"室町上木下町","lat":35.035345,"lng":135.756846},{"code":"26102010048","name":"室町畠中町","lat":35.034927,"lng":135.756217},{"code":"26102010049","name":"室町大心院町","lat":35.03553,"lng":135.755692},{"code":"26102010050","name":"室町禅昌院町","lat":35.03551,"lng":135.753512},{"code":"26102010051","name":"室町下清蔵口町","lat":35.036868,"lng":135.754184},{"code":"26102010052","name":"室町継孝院町","lat":35.036015,"lng":135.756463},{"code":"26102010053","name":"室町岩栖院町","lat":35.036792,"lng":135.756733},{"code":"26102010054","name":"室町玄蕃町","lat":35.036008,"lng":135.757403},{"code":"26102010055","name":"室町竹園町","lat":35.036448,"lng":135.75798},{"code":"26102010056","name":"室町森之木町","lat":35.037217,"lng":135.758193},{"code":"26102010057","name":"室町上御霊中町","lat":35.037085,"lng":135.759485},{"code":"26102010058","name":"室町上御霊竪町","lat":35.036681,"lng":135.761235},{"code":"26102010059","name":"室町上御霊前町","lat":35.036422,"lng":135.759993},{"code":"26102010060","name":"室町上御霊馬場町","lat":35.035983,"lng":135.762594},{"code":"26102010061","name":"室町新御霊口町","lat":35.036582,"lng":135.76316},{"code":"26102010062","name":"室町高徳寺町","lat":35.036343,"lng":135.764312},{"code":"26102011001","name":"京極不動前町","lat":35.035104,"lng":135.764671},{"code":"26102011002","name":"京極歓喜寺前町","lat":35.034219,"lng":135.765199},{"code":"26102011003","name":"京極桜木町","lat":35.033522,"lng":135.765011},{"code":"26102011004","name":"京極藪之下町","lat":35.033065,"lng":135.764471},{"code":"26102011005","name":"京極阿弥陀寺前町","lat":35.033473,"lng":135.765809},{"code":"26102011006","name":"京極毘沙門町","lat":35.031548,"lng":135.765274},{"code":"26102011007","name":"京極十念寺前町","lat":35.032576,"lng":135.76641},{"code":"26102011008","name":"京極上片原町","lat":35.032957,"lng":135.76587},{"code":"26102011009","name":"京極毘沙門横町","lat":35.032403,"lng":135.765858},{"code":"26102011010","name":"京極北横町","lat":35.031847,"lng":135.766044},{"code":"26102011011","name":"京極本満寺前町","lat":35.031794,"lng":135.767187},{"code":"26102011012","name":"京極立本寺前町","lat":35.030341,"lng":135.767638},{"code":"26102011013","name":"京極幸神町","lat":35.030584,"lng":135.76694},{"code":"26102011014","name":"京極上神輿町","lat":35.03128,"lng":135.767058},{"code":"26102011015","name":"京極松之木町","lat":35.031263,"lng":135.76661},{"code":"26102011016","name":"京極真如堂前町","lat":35.028197,"lng":135.767531},{"code":"26102011017","name":"京極真如堂突抜町","lat":35.028426,"lng":135.76715},{"code":"26102011018","name":"京極染殿町","lat":35.025763,"lng":135.76735},{"code":"26102011019","name":"京極大原口町","lat":35.029168,"lng":135.767437},{"code":"26102011020","name":"京極下御輿町","lat":35.029847,"lng":135.767282},{"code":"26102011021","name":"京極大原口突抜町","lat":35.028647,"lng":135.766572},{"code":"26102011022","name":"京極柳風呂町","lat":35.0299,"lng":135.766885},{"code":"26102011023","name":"京極上塔之段町","lat":35.031199,"lng":135.766024},{"code":"26102011024","name":"京極下塔之段町","lat":35.029995,"lng":135.766449},{"code":"26102011025","name":"京極革堂内町","lat":35.02933,"lng":135.766671},{"code":"26102011026","name":"京極常盤井殿町","lat":35.029931,"lng":135.765326},{"code":"26102011027","name":"京極後藤町","lat":35.031521,"lng":135.769452},{"code":"26102011028","name":"京極青龍町","lat":35.030556,"lng":135.770106},{"code":"26102011029","name":"京極栄町","lat":35.02736,"lng":135.769124},{"code":"26102011030","name":"京極梶井町","lat":35.025873,"lng":135.770513},{"code":"26102011031","name":"京極九軒町","lat":35.026268,"lng":135.768976},{"code":"26102011032","name":"京極米屋町","lat":35.028866,"lng":135.768383},{"code":"26102011033","name":"京極大猪熊町","lat":35.027763,"lng":135.768633},{"code":"26102011034","name":"京極新夷町","lat":35.02716,"lng":135.768409},{"code":"26102011035","name":"京極一真町","lat":35.029707,"lng":135.768506},{"code":"26102011036","name":"京極鶴山町","lat":35.033609,"lng":135.766773},{"code":"26102011037","name":"京極表町","lat":35.030424,"lng":135.768053},{"code":"26102011038","name":"京極扇町","lat":35.02777,"lng":135.767978},{"code":"26102011039","name":"京極北之辺町","lat":35.025212,"lng":135.768402},{"code":"26102011040","name":"京極二神町","lat":35.0303,"lng":135.769091},{"code":"26102011041","name":"京極相生町","lat":35.031133,"lng":135.768907},{"code":"26102011042","name":"京極三栄町","lat":35.030936,"lng":135.768452},{"code":"26102011043","name":"京極三芳町","lat":35.029697,"lng":135.769102},{"code":"26102011044","name":"京極大宮町","lat":35.028551,"lng":135.769042},{"code":"26102011045","name":"京極中御霊町","lat":35.023652,"lng":135.768442},{"code":"26102011046","name":"京極京都御苑","lat":35.02846,"lng":135.764573},{"code":"26102012001","name":"春日上之町","lat":35.019449,"lng":135.770816},{"code":"26102012002","name":"春日中之町","lat":35.018759,"lng":135.771},{"code":"26102012003","name":"春日南町","lat":35.018123,"lng":135.770961},{"code":"26102012004","name":"春日真町","lat":35.018542,"lng":135.770089},{"code":"26102012005","name":"春日袋町","lat":35.018783,"lng":135.769757},{"code":"26102012006","name":"春日俵屋町","lat":35.017887,"lng":135.770167},{"code":"26102012007","name":"春日駒之町","lat":35.017095,"lng":135.770473},{"code":"26102012008","name":"春日上生洲町","lat":35.020622,"lng":135.770223},{"code":"26102012009","name":"春日出水町","lat":35.019186,"lng":135.769481},{"code":"26102012010","name":"春日桝屋町","lat":35.018114,"lng":135.769275},{"code":"26102012011","name":"春日伊勢屋町","lat":35.017022,"lng":135.769121},{"code":"26102012012","name":"春日東土御門町","lat":35.016905,"lng":135.768595},{"code":"26102012013","name":"春日高島町","lat":35.017682,"lng":135.768619},{"code":"26102012014","name":"春日新烏丸頭町","lat":35.019669,"lng":135.76861},{"code":"26102012015","name":"春日信富町","lat":35.017802,"lng":135.767879},{"code":"26102012016","name":"春日錦砂町","lat":35.018437,"lng":135.768558},{"code":"26102012017","name":"春日東桜町","lat":35.022475,"lng":135.769271},{"code":"26102012018","name":"春日宮垣町","lat":35.021782,"lng":135.769098},{"code":"26102012019","name":"春日松蔭町","lat":35.019907,"lng":135.767759},{"code":"26102012020","name":"春日亀屋町","lat":35.021576,"lng":135.770778},{"code":"26102012021","name":"春日荒神町","lat":35.021461,"lng":135.768444},{"code":"26102013001","name":"滋野丁子風呂町","lat":35.021226,"lng":135.754313},{"code":"26102013002","name":"滋野東裏辻町","lat":35.019402,"lng":135.75553},{"code":"26102013003","name":"滋野夷川町","lat":35.018107,"lng":135.75511},{"code":"26102013004","name":"滋野茶屋町","lat":35.021951,"lng":135.754286},{"code":"26102013005","name":"滋野勘兵衛町","lat":35.020675,"lng":135.754278},{"code":"26102013006","name":"滋野八幡町","lat":35.019254,"lng":135.754188},{"code":"26102013007","name":"滋野上鍛冶町","lat":35.018011,"lng":135.754273},{"code":"26102013008","name":"滋野大黒屋町","lat":35.021928,"lng":135.753414},{"code":"26102013009","name":"滋野近衛町（油小路通）","lat":35.020747,"lng":135.753397},{"code":"26102013010","name":"滋野西裏辻町","lat":35.019345,"lng":135.75344},{"code":"26102013011","name":"滋野米屋町","lat":35.018018,"lng":135.753373},{"code":"26102013012","name":"滋野三町目","lat":35.021943,"lng":135.752423},{"code":"26102013013","name":"滋野四町目","lat":35.020914,"lng":135.752451},{"code":"26102013014","name":"滋野五町目","lat":35.019221,"lng":135.752506},{"code":"26102013015","name":"滋野六町目","lat":35.018151,"lng":135.752193},{"code":"26102013016","name":"滋野藪之内町","lat":35.02139,"lng":135.755646},{"code":"26102013017","name":"滋野鷹司町（西洞院西入）","lat":35.022701,"lng":135.754348},{"code":"26102013018","name":"滋野紹巴町","lat":35.022576,"lng":135.752725},{"code":"26102013019","name":"滋野西大路町","lat":35.019847,"lng":135.754328},{"code":"26102013020","name":"滋野東橋詰町","lat":35.01991,"lng":135.75274},{"code":"26102013021","name":"滋野東魚屋町","lat":35.018693,"lng":135.754203},{"code":"26102013022","name":"滋野西山崎町","lat":35.0186,"lng":135.752569},{"code":"26102013023","name":"滋野桜鶴円町","lat":35.021536,"lng":135.758979},{"code":"26102013024","name":"滋野堀松町","lat":35.019575,"lng":135.759199},{"code":"26102013025","name":"滋野春日町","lat":35.018008,"lng":135.759032},{"code":"26102013026","name":"滋野近衛町（室町通）","lat":35.021953,"lng":135.758098},{"code":"26102013027","name":"滋野勘解由小路町","lat":35.020618,"lng":135.758093},{"code":"26102013028","name":"滋野武衛陣町","lat":35.019313,"lng":135.758005},{"code":"26102013029","name":"滋野大門町","lat":35.018013,"lng":135.758043},{"code":"26102013030","name":"滋野御霊町","lat":35.021805,"lng":135.757183},{"code":"26102013031","name":"滋野常泉院町","lat":35.020892,"lng":135.757477},{"code":"26102013032","name":"滋野門跡町","lat":35.019088,"lng":135.757172},{"code":"26102013033","name":"滋野今薬屋町","lat":35.018083,"lng":135.757256},{"code":"26102013034","name":"滋野両御霊町","lat":35.020986,"lng":135.756699},{"code":"26102013035","name":"滋野春帯町","lat":35.01863,"lng":135.756335},{"code":"26102013036","name":"滋野鷹司町（烏丸西入）","lat":35.022729,"lng":135.758763},{"code":"26102013037","name":"滋野西鷹司町","lat":35.022551,"lng":135.757311},{"code":"26102013038","name":"滋野中出水町","lat":35.02125,"lng":135.758665},{"code":"26102013039","name":"滋野西出水町","lat":35.020972,"lng":135.757047},{"code":"26102013040","name":"滋野五町目町","lat":35.019976,"lng":135.758832},{"code":"26102013041","name":"滋野東立売町","lat":35.019894,"lng":135.757325},{"code":"26102013042","name":"滋野養安町","lat":35.018799,"lng":135.758736},{"code":"26102013043","name":"滋野京都御苑","lat":35.022815,"lng":135.76319},{"code":"26102014001","name":"待賢桝屋町","lat":35.021903,"lng":135.75171},{"code":"26102014002","name":"待賢四町目","lat":35.020719,"lng":135.751693},{"code":"26102014003","name":"待賢長尾町","lat":35.019236,"lng":135.751761},{"code":"26102014004","name":"待賢上堀川町","lat":35.018106,"lng":135.751702},{"code":"26102014005","name":"待賢下堀川町","lat":35.016316,"lng":135.751595},{"code":"26102014006","name":"待賢亀屋町","lat":35.021844,"lng":135.75115},{"code":"26102014007","name":"待賢元福大明神町","lat":35.02078,"lng":135.751155},{"code":"26102014008","name":"待賢丸屋町","lat":35.019349,"lng":135.751197},{"code":"26102014009","name":"待賢直家町","lat":35.018028,"lng":135.751039},{"code":"26102014010","name":"待賢蛭子町","lat":35.021911,"lng":135.750536},{"code":"26102014011","name":"待賢荒神町","lat":35.020753,"lng":135.750582},{"code":"26102014012","name":"待賢大黒町","lat":35.019228,"lng":135.750471},{"code":"26102014013","name":"待賢木屋之町","lat":35.01799,"lng":135.750581},{"code":"26102014014","name":"待賢中之町","lat":35.016493,"lng":135.750853},{"code":"26102014015","name":"待賢藁屋町","lat":35.016618,"lng":135.749318},{"code":"26102014016","name":"待賢吉野町","lat":35.021887,"lng":135.749814},{"code":"26102014017","name":"待賢北蟹屋町","lat":35.02097,"lng":135.749863},{"code":"26102014018","name":"待賢南蟹屋町","lat":35.020527,"lng":135.749815},{"code":"26102014019","name":"待賢森中町","lat":35.019331,"lng":135.749709},{"code":"26102014020","name":"待賢小伝馬町","lat":35.018059,"lng":135.749737},{"code":"26102014021","name":"待賢清元町","lat":35.021922,"lng":135.749081},{"code":"26102014022","name":"待賢家永町","lat":35.02076,"lng":135.749133},{"code":"26102014023","name":"待賢菱屋町","lat":35.019247,"lng":135.74899},{"code":"26102014024","name":"待賢一町目","lat":35.018075,"lng":135.748924},{"code":"26102014025","name":"待賢西橋詰町","lat":35.020033,"lng":135.751296},{"code":"26102014026","name":"待賢橋西二町目","lat":35.020005,"lng":135.749786},{"code":"26102014027","name":"待賢講堂町","lat":35.018713,"lng":135.751176},{"code":"26102014028","name":"待賢中御門横町","lat":35.018727,"lng":135.749845},{"code":"26102014029","name":"待賢西丸太町","lat":35.017203,"lng":135.751374},{"code":"26102015001","name":"出水南清水町","lat":35.021998,"lng":135.74832},{"code":"26102015002","name":"出水一町目","lat":35.020657,"lng":135.748434},{"code":"26102015003","name":"出水二町目","lat":35.019367,"lng":135.74842},{"code":"26102015004","name":"出水三町目","lat":35.018126,"lng":135.748327},{"code":"26102015005","name":"出水左馬松町","lat":35.01711,"lng":135.748165},{"code":"26102015006","name":"出水秤口町","lat":35.022036,"lng":135.747444},{"code":"26102015007","name":"出水天秤町","lat":35.020733,"lng":135.74787},{"code":"26102015008","name":"出水分銅町","lat":35.02068,"lng":135.746391},{"code":"26102015009","name":"出水櫛笥町","lat":35.019232,"lng":135.74775},{"code":"26102015010","name":"出水北伊勢屋町","lat":35.018201,"lng":135.747778},{"code":"26102015011","name":"出水南伊勢屋町","lat":35.017379,"lng":135.747745},{"code":"26102015012","name":"出水四町目","lat":35.016479,"lng":135.74764},{"code":"26102015013","name":"出水天秤丸町","lat":35.021998,"lng":135.746663},{"code":"26102015014","name":"出水白銀町","lat":35.022005,"lng":135.745451},{"code":"26102015015","name":"出水弁天町","lat":35.022053,"lng":135.743664},{"code":"26102015016","name":"出水中務町","lat":35.018807,"lng":135.74492},{"code":"26102015017","name":"出水福島町","lat":35.022226,"lng":135.742138},{"code":"26102015018","name":"出水十四軒町","lat":35.020836,"lng":135.742769},{"code":"26102015019","name":"出水小山町","lat":35.019102,"lng":135.742981},{"code":"26102015020","name":"出水聚楽町","lat":35.015825,"lng":135.742952},{"code":"26102015021","name":"出水東辰巳町","lat":35.022572,"lng":135.748405},{"code":"26102015022","name":"出水西辰巳町","lat":35.02263,"lng":135.747533},{"code":"26102015023","name":"出水山本町","lat":35.022553,"lng":135.746279},{"code":"26102015024","name":"出水坤高町","lat":35.022731,"lng":135.745522},{"code":"26102015025","name":"出水新御幸町","lat":35.022609,"lng":135.744492},{"code":"26102015026","name":"出水二本松町","lat":35.022534,"lng":135.743454},{"code":"26102015027","name":"出水東天秤町","lat":35.021174,"lng":135.748436},{"code":"26102015028","name":"出水西天秤町","lat":35.021463,"lng":135.748063},{"code":"26102015029","name":"出水金馬場町","lat":35.02139,"lng":135.747131},{"code":"26102015030","name":"出水田村備前町","lat":35.021274,"lng":135.745698},{"code":"26102015031","name":"出水東神明町","lat":35.021344,"lng":135.744406},{"code":"26102015032","name":"出水西神明町","lat":35.021398,"lng":135.743523},{"code":"26102015033","name":"出水尼ケ崎横町","lat":35.021555,"lng":135.74235},{"code":"26102015034","name":"出水浮田町","lat":35.020051,"lng":135.748481},{"code":"26102015035","name":"出水中村町","lat":35.020064,"lng":135.746931},{"code":"26102015036","name":"出水下丸屋町","lat":35.020216,"lng":135.745365},{"code":"26102015037","name":"出水田中町","lat":35.020274,"lng":135.743878},{"code":"26102015038","name":"出水中書町","lat":35.018719,"lng":135.748321},{"code":"26102015039","name":"出水西院町","lat":35.018758,"lng":135.74686},{"code":"26102015040","name":"出水主税町","lat":35.016604,"lng":135.744871},{"code":"26102016001","name":"仁和東竪町","lat":35.025843,"lng":135.736197},{"code":"26102016002","name":"仁和下竪町","lat":35.024585,"lng":135.735461},{"code":"26102016003","name":"仁和西上之町","lat":35.022978,"lng":135.736197},{"code":"26102016004","name":"仁和川瀬町","lat":35.022278,"lng":135.735187},{"code":"26102016005","name":"仁和仲之町","lat":35.021914,"lng":135.736361},{"code":"26102016006","name":"仁和天満屋町","lat":35.020918,"lng":135.736186},{"code":"26102016007","name":"仁和下之町","lat":35.019355,"lng":135.736105},{"code":"26102016008","name":"仁和大上之町","lat":35.026672,"lng":135.734713},{"code":"26102016009","name":"仁和北町","lat":35.022697,"lng":135.73418},{"code":"26102016010","name":"仁和大東町","lat":35.025713,"lng":135.735052},{"code":"26102016011","name":"仁和西町（天神西入）","lat":35.025905,"lng":135.7336},{"code":"26102016012","name":"仁和下横町","lat":35.024029,"lng":135.734143},{"code":"26102016013","name":"仁和三助町","lat":35.022567,"lng":135.737319},{"code":"26102016014","name":"仁和大宮町","lat":35.021179,"lng":135.735091},{"code":"26102016015","name":"仁和堀川町","lat":35.021289,"lng":135.733457},{"code":"26102016016","name":"仁和西東町","lat":35.020194,"lng":135.73765},{"code":"26102016017","name":"仁和突抜町","lat":35.020305,"lng":135.735283},{"code":"26102016018","name":"仁和行衛町","lat":35.020103,"lng":135.734087},{"code":"26102016019","name":"仁和七番町","lat":35.021619,"lng":135.740551},{"code":"26102016020","name":"仁和三軒町","lat":35.02564,"lng":135.73982},{"code":"26102016021","name":"仁和三番町","lat":35.021945,"lng":135.739094},{"code":"26102016022","name":"仁和東町","lat":35.026155,"lng":135.738553},{"code":"26102016023","name":"仁和西町（下ノ森西入）","lat":35.025833,"lng":135.737256},{"code":"26102016024","name":"仁和五番町","lat":35.023939,"lng":135.741676},{"code":"26102016025","name":"仁和四番町","lat":35.024136,"lng":135.740824},{"code":"26102016026","name":"仁和白竹町","lat":35.023818,"lng":135.73985},{"code":"26102016027","name":"仁和一番町","lat":35.024798,"lng":135.738937},{"code":"26102016028","name":"仁和二番町","lat":35.023865,"lng":135.738674},{"code":"26102016029","name":"仁和六番町","lat":35.022645,"lng":135.741727},{"code":"26102016030","name":"仁和利生町","lat":35.022802,"lng":135.740355},{"code":"26102016031","name":"仁和鳳瑞町","lat":35.022637,"lng":135.737771},{"code":"26102016032","name":"仁和稲葉町","lat":35.020029,"lng":135.74171},{"code":"26102016033","name":"仁和長門町","lat":35.020408,"lng":135.739808},{"code":"26102016034","name":"仁和新建町","lat":35.026653,"lng":135.736523},{"code":"26102017001","name":"翔鸞末広町","lat":35.031613,"lng":135.741153},{"code":"26102017002","name":"翔鸞佐竹町","lat":35.030264,"lng":135.740768},{"code":"26102017003","name":"翔鸞南佐竹町","lat":35.029252,"lng":135.741102},{"code":"26102017004","name":"翔鸞若松町","lat":35.027416,"lng":135.741015},{"code":"26102017005","name":"翔鸞片原町","lat":35.03022,"lng":135.739615},{"code":"26102017006","name":"翔鸞東柳町","lat":35.03096,"lng":135.73904},{"code":"26102017007","name":"翔鸞毘沙門町","lat":35.02964,"lng":135.739069},{"code":"26102017008","name":"翔鸞末之口町","lat":35.028134,"lng":135.738763},{"code":"26102017009","name":"翔鸞滝ケ鼻町","lat":35.026866,"lng":135.738138},{"code":"26102017010","name":"翔鸞神明町","lat":35.034178,"lng":135.736004},{"code":"26102017011","name":"翔鸞北町","lat":35.032834,"lng":135.736032},{"code":"26102017012","name":"翔鸞鳥居前町","lat":35.031734,"lng":135.736966},{"code":"26102017013","name":"翔鸞馬喰町","lat":35.029691,"lng":135.735674},{"code":"26102017014","name":"翔鸞柏清盛町","lat":35.033564,"lng":135.740174},{"code":"26102017015","name":"翔鸞風呂屋町","lat":35.030716,"lng":135.741512},{"code":"26102017016","name":"翔鸞溝前町","lat":35.031733,"lng":135.740005},{"code":"26102017017","name":"翔鸞老松町","lat":35.032531,"lng":135.738676},{"code":"26102017018","name":"翔鸞西柳町","lat":35.030947,"lng":135.737886},{"code":"26102017019","name":"翔鸞東今小路町","lat":35.028668,"lng":135.737638},{"code":"26102017020","name":"翔鸞西今小路町","lat":35.02829,"lng":135.736922},{"code":"26102017021","name":"翔鸞観音寺門前町","lat":35.029222,"lng":135.734443},{"code":"26102017022","name":"翔鸞紙屋川町","lat":35.028073,"lng":135.73428},{"code":"26102017023","name":"翔鸞南上善寺町","lat":35.029741,"lng":135.741691},{"code":"26102017024","name":"翔鸞西上善寺町","lat":35.029599,"lng":135.740321},{"code":"26102017025","name":"翔鸞突抜町","lat":35.03026,"lng":135.740114},{"code":"26102017026","name":"翔鸞真盛町","lat":35.030059,"lng":135.737705},{"code":"26102017027","name":"翔鸞社家長屋町","lat":35.030742,"lng":135.73665},{"code":"26102017028","name":"翔鸞笹屋四丁目","lat":35.028196,"lng":135.741674},{"code":"26102017029","name":"翔鸞笹屋五丁目","lat":35.028105,"lng":135.740123},{"code":"26102017030","name":"翔鸞玉屋町","lat":35.028796,"lng":135.741359},{"code":"26102017031","name":"翔鸞大文字町","lat":35.028824,"lng":135.74041},{"code":"26102017032","name":"翔鸞元観音町","lat":35.029052,"lng":135.739663},{"code":"26102017033","name":"翔鸞烏丸町","lat":35.026563,"lng":135.741687},{"code":"26102017034","name":"翔鸞三条殿町","lat":35.026502,"lng":135.740817},{"code":"26102017035","name":"翔鸞西今出川町","lat":35.026638,"lng":135.740177},{"code":"26102017036","name":"翔鸞一観音町","lat":35.027091,"lng":135.739714},{"code":"26102017037","name":"翔鸞松永町","lat":35.02716,"lng":135.7366}]}
