{"municipality":"26206","name":"亀岡市","prefecture":"京都府","source":{"dataset":"frogcat/japan-small-area","census":"平成27年国勢調査 小地域（e-Stat 統計LOD）","license":"MIT（リポジトリ）／政府統計の総合窓口(e-Stat)の利用規約（元データ・出典表記必要）","fetched":"2026-07-06"},"towns":[{"code":"26206001001","name":"三宅町三宅町","lat":35.011966,"lng":135.59015},{"code":"26206001037","name":"三宅町三宅荘園","lat":35.010485,"lng":135.591119},{"code":"26206001039","name":"三宅町クニッテル","lat":35.005521,"lng":135.588495},{"code":"26206001042","name":"三宅町三宅町寺井","lat":35.006832,"lng":135.590944},{"code":"262060020","name":"東竪町","lat":35.008508,"lng":135.586847},{"code":"262060030","name":"西竪町","lat":35.008345,"lng":135.584924},{"code":"262060040","name":"突抜町","lat":35.009488,"lng":135.585093},{"code":"262060050","name":"横町","lat":35.010711,"lng":135.582603},{"code":"26206006006","name":"古世町古世町","lat":35.007054,"lng":135.583971},{"code":"26206006007","name":"古世町北古世町","lat":35.014011,"lng":135.583332},{"code":"26206006028","name":"古世町向嶋","lat":35.014266,"lng":135.585827},{"code":"26206006038","name":"古世町南古世町","lat":35.005815,"lng":135.585607},{"code":"26206006039","name":"古世町クニッテル","lat":35.0066,"lng":135.588521},{"code":"26206007007","name":"北古世町北古世町","lat":35.011212,"lng":135.586509},{"code":"26206007044","name":"北古世町駅前荘園","lat":35.012407,"lng":135.587741},{"code":"262060080","name":"京町","lat":35.008391,"lng":135.582344},{"code":"262060090","name":"呉服町","lat":35.009094,"lng":135.581904},{"code":"262060100","name":"旅篭町","lat":35.010014,"lng":135.58165},{"code":"262060110","name":"新町","lat":35.010064,"lng":135.58056},{"code":"262060120","name":"矢田町","lat":35.008585,"lng":135.580301},{"code":"26206013013","name":"上矢田町上矢田町","lat":34.990493,"lng":135.573145},{"code":"26206013043","name":"上矢田町中矢田グリーンタウン","lat":35.000364,"lng":135.580697},{"code":"26206014006","name":"中矢田町古世町","lat":35.004999,"lng":135.582577},{"code":"26206014035","name":"中矢田町第１中矢田町","lat":35.001767,"lng":135.582842},{"code":"26206014036","name":"中矢田町第２中矢田町","lat":35.003818,"lng":135.582457},{"code":"26206014043","name":"中矢田町中矢田グリーンタウン","lat":35.001116,"lng":135.579802},{"code":"26206015014","name":"下矢田町東","lat":35.007487,"lng":135.579466},{"code":"26206015015","name":"下矢田町西","lat":35.003567,"lng":135.576044},{"code":"26206015016","name":"下矢田町北","lat":35.008401,"lng":135.574696},{"code":"26206015017","name":"下矢田町小石","lat":35.008727,"lng":135.572882},{"code":"26206015018","name":"下矢田町君塚","lat":35.001083,"lng":135.575996},{"code":"26206015019","name":"下矢田町城山","lat":35.004667,"lng":135.574491},{"code":"26206015020","name":"下矢田町あさひが丘","lat":35.006018,"lng":135.578826},{"code":"26206015048","name":"下矢田町下矢田団地","lat":35.009412,"lng":135.575753},{"code":"262060160","name":"塩屋町","lat":35.009099,"lng":135.57859},{"code":"262060170","name":"柳町","lat":35.009735,"lng":135.578858},{"code":"262060180","name":"本町","lat":35.010566,"lng":135.578868},{"code":"262060190","name":"紺屋町","lat":35.01123,"lng":135.577151},{"code":"26206020024","name":"荒塚町紺屋町","lat":35.010982,"lng":135.574894},{"code":"26206020026","name":"荒塚町西町","lat":35.01328,"lng":135.57534},{"code":"26206020029","name":"荒塚町北町","lat":35.014539,"lng":135.575225},{"code":"262060210","name":"南郷町","lat":35.01455,"lng":135.579426},{"code":"26206022026","name":"西町西町","lat":35.013458,"lng":135.576748},{"code":"26206022029","name":"西町北町","lat":35.015097,"lng":135.575992},{"code":"262060230","name":"内丸町","lat":35.012852,"lng":135.580358},{"code":"262060240","name":"追分町","lat":35.016848,"lng":135.581745},{"code":"262060250","name":"北町","lat":35.015193,"lng":135.577113},{"code":"262060260","name":"安町","lat":35.013998,"lng":135.572207},{"code":"262060270","name":"河原町","lat":35.01993,"lng":135.572428},{"code":"26206028030","name":"余部町安町","lat":35.017176,"lng":135.574356},{"code":"26206028032","name":"余部町余部町","lat":35.015708,"lng":135.563344},{"code":"26206028046","name":"余部町清水","lat":35.018849,"lng":135.574485},{"code":"262060290","name":"宇津根町","lat":35.023388,"lng":135.571546},{"code":"262060300","name":"余部町前川原","lat":35.017041,"lng":135.571394},{"code":"26206031040","name":"北河原町保津川団地","lat":35.020482,"lng":135.568766},{"code":"26206031041","name":"北河原町保津川第２住宅","lat":35.021645,"lng":135.567501},{"code":"26206031045","name":"北河原町メルサンテかめおか","lat":35.021654,"lng":135.568553},{"code":"26206031047","name":"北河原町保津川第３住宅","lat":35.022297,"lng":135.566529},{"code":"26206032001","name":"東別院町神原","lat":34.97962,"lng":135.562246},{"code":"26206032002","name":"東別院町小泉","lat":34.957651,"lng":135.563855},{"code":"26206032003","name":"東別院町東掛","lat":34.955938,"lng":135.545231},{"code":"26206032004","name":"東別院町大野","lat":34.961206,"lng":135.528609},{"code":"26206032005","name":"東別院町南掛","lat":34.941997,"lng":135.542721},{"code":"26206032006","name":"東別院町湯谷","lat":34.9338,"lng":135.534973},{"code":"26206032007","name":"東別院町倉谷","lat":34.934266,"lng":135.547975},{"code":"26206032008","name":"東別院町鎌倉","lat":34.924205,"lng":135.548966},{"code":"26206032009","name":"東別院町鎌倉見立","lat":34.92113,"lng":135.53901},{"code":"26206032010","name":"東別院町栢原","lat":34.928065,"lng":135.568407},{"code":"26206032011","name":"東別院町ローズタウン","lat":34.933816,"lng":135.525933},{"code":"26206032012","name":"東別院町城山台","lat":34.962285,"lng":135.55758},{"code":"26206032013","name":"東別院町鎌倉雁松","lat":34.918487,"lng":135.546067},{"code":"26206033001","name":"西別院町大槻並","lat":34.952814,"lng":135.528554},{"code":"26206033002","name":"西別院町万願寺","lat":34.946418,"lng":135.52374},{"code":"26206033003","name":"西別院町柚原","lat":34.955205,"lng":135.510653},{"code":"26206033004","name":"西別院町神地","lat":34.950389,"lng":135.493929},{"code":"26206033005","name":"西別院町笑路","lat":34.97175,"lng":135.518742},{"code":"26206033006","name":"西別院町犬甘野下ノ谷","lat":34.962478,"lng":135.499254},{"code":"26206033007","name":"西別院町犬甘野中ノ谷","lat":34.969561,"lng":135.494116},{"code":"26206033008","name":"西別院町犬甘野下條","lat":34.967323,"lng":135.504375},{"code":"26206033009","name":"西別院町犬甘野上ノ谷","lat":34.977316,"lng":135.510601},{"code":"26206033010","name":"西別院町大堂","lat":34.937987,"lng":135.519543},{"code":"26206034001","name":"曽我部町春日部","lat":34.977355,"lng":135.543246},{"code":"26206034002","name":"曽我部町中","lat":34.984221,"lng":135.540361},{"code":"26206034003","name":"曽我部町寺","lat":34.987703,"lng":135.54884},{"code":"26206034004","name":"曽我部町法貴","lat":34.98959,"lng":135.538125},{"code":"26206034005","name":"曽我部町犬飼","lat":34.995834,"lng":135.532712},{"code":"26206034006","name":"曽我部町南条","lat":34.998261,"lng":135.549969},{"code":"26206034007","name":"曽我部町西条","lat":35.003309,"lng":135.547482},{"code":"26206034008","name":"曽我部町重利","lat":35.005204,"lng":135.556158},{"code":"26206034009","name":"曽我部町穴太","lat":35.010321,"lng":135.549368},{"code":"26206034010","name":"曽我部町学ヶ丘","lat":34.996035,"lng":135.555221},{"code":"26206034011","name":"曽我部町夫婦池","lat":34.995919,"lng":135.544087},{"code":"26206034012","name":"曽我部町穴太口山","lat":35.005414,"lng":135.53683},{"code":"26206034013","name":"曽我部町その他","lat":34.98402,"lng":135.526303},{"code":"26206035001","name":"吉川町穴川","lat":35.019536,"lng":135.555196},{"code":"26206035002","name":"吉川町穴川西","lat":35.016278,"lng":135.553524},{"code":"26206035003","name":"吉川町吉田東","lat":35.017888,"lng":135.550423},{"code":"26206035004","name":"吉川町吉田中","lat":35.017249,"lng":135.547391},{"code":"26206035005","name":"吉川町吉田西","lat":35.017918,"lng":135.543921},{"code":"26206035006","name":"吉川町堂ノ前","lat":35.017086,"lng":135.552232},{"code":"26206035007","name":"吉川町替田","lat":35.019597,"lng":135.553334},{"code":"26206035008","name":"吉川町吹ヶ","lat":35.019564,"lng":135.554626},{"code":"26206036001","name":"稗田野町上佐伯","lat":35.01416,"lng":135.52714},{"code":"26206036002","name":"稗田野町下佐伯","lat":35.016782,"lng":135.537643},{"code":"26206036003","name":"稗田野町天川","lat":35.011851,"lng":135.541282},{"code":"26206036004","name":"稗田野町太田","lat":35.023653,"lng":135.542461},{"code":"26206036005","name":"稗田野町鹿谷","lat":35.032137,"lng":135.523659},{"code":"26206036006","name":"稗田野町柿花","lat":35.021421,"lng":135.524446},{"code":"26206036007","name":"稗田野町奥条","lat":35.026501,"lng":135.513991},{"code":"26206036008","name":"稗田野町芦ノ山","lat":35.007149,"lng":135.510884},{"code":"26206036009","name":"稗田野町西佐伯","lat":35.014697,"lng":135.521692},{"code":"26206036010","name":"稗田野町加茂","lat":35.020564,"lng":135.534196},{"code":"26206036011","name":"稗田野町宮ノ奥","lat":35.024398,"lng":135.508655},{"code":"26206037001","name":"本梅町中野","lat":35.027568,"lng":135.483778},{"code":"26206037002","name":"本梅町平松","lat":35.019583,"lng":135.493083},{"code":"26206037003","name":"本梅町井手","lat":35.013682,"lng":135.486444},{"code":"26206037004","name":"本梅町西加舎","lat":35.011636,"lng":135.470183},{"code":"26206037005","name":"本梅町東加舎","lat":35.004665,"lng":135.491469},{"code":"26206037006","name":"本梅町グリーンタウン","lat":35.019329,"lng":135.493912},{"code":"26206037007","name":"本梅町平松平","lat":35.018059,"lng":135.493122},{"code":"26206038001","name":"畑野町千ヶ畑","lat":35.020537,"lng":135.442864},{"code":"26206038002","name":"畑野町広野１区","lat":35.012565,"lng":135.433194},{"code":"26206038003","name":"畑野町広野２区","lat":35.008681,"lng":135.422702},{"code":"26206038004","name":"畑野町土ヶ畑","lat":35.019404,"lng":135.388973},{"code":"26206038005","name":"畑野町土ヶ畑２区","lat":35.017348,"lng":135.404092},{"code":"26206038006","name":"畑野町高橋","lat":35.018833,"lng":135.428838},{"code":"26206038007","name":"畑野町高橋２区","lat":35.018623,"lng":135.422677},{"code":"26206038008","name":"畑野町高橋３区","lat":35.015254,"lng":135.415082},{"code":"26206039001","name":"宮前町宮川","lat":35.039035,"lng":135.486162},{"code":"26206039002","name":"宮前町神前","lat":35.052442,"lng":135.511634},{"code":"26206039003","name":"宮前町猪倉","lat":35.029329,"lng":135.495269},{"code":"26206039004","name":"宮前町湯ノ花平","lat":35.024786,"lng":135.500905},{"code":"26206040001","name":"大井町並河","lat":35.028279,"lng":135.558598},{"code":"26206040002","name":"大井町土田","lat":35.036043,"lng":135.552483},{"code":"26206040003","name":"大井町かすみヶ丘","lat":35.033309,"lng":135.555792},{"code":"26206040004","name":"大井町西かすみヶ丘","lat":35.033719,"lng":135.553966},{"code":"26206040005","name":"大井町南金岐","lat":35.029588,"lng":135.541806},{"code":"26206040006","name":"大井町北金岐","lat":35.031399,"lng":135.544595},{"code":"26206040007","name":"大井町小金岐","lat":35.036485,"lng":135.540432},{"code":"26206040008","name":"大井町桜ヶ丘","lat":35.038867,"lng":135.542865},{"code":"26206040009","name":"大井町ジョイタウン","lat":35.031792,"lng":135.550675},{"code":"26206040010","name":"大井町緑ヶ丘","lat":35.037606,"lng":135.545048},{"code":"26206040011","name":"大井町メディアス亀岡","lat":35.032835,"lng":135.554143},{"code":"26206040012","name":"大井町メディアス亀岡２番館","lat":35.034744,"lng":135.553108},{"code":"26206041001","name":"千代川町北ノ庄","lat":35.050039,"lng":135.530254},{"code":"26206041002","name":"千代川町湯井","lat":35.042624,"lng":135.535121},{"code":"26206041003","name":"千代川町小林","lat":35.040526,"lng":135.550653},{"code":"26206041004","name":"千代川町高野林","lat":35.043765,"lng":135.550334},{"code":"26206041005","name":"千代川町第２高野林","lat":35.044041,"lng":135.546826},{"code":"26206041006","name":"千代川町第３高野林","lat":35.045134,"lng":135.548516},{"code":"26206041007","name":"千代川町小川","lat":35.046822,"lng":135.54554},{"code":"26206041008","name":"千代川町小川第２","lat":35.046916,"lng":135.546927},{"code":"26206041009","name":"千代川町小川第３","lat":35.046146,"lng":135.549611},{"code":"26206041010","name":"千代川町今津","lat":35.050275,"lng":135.547817},{"code":"26206041011","name":"千代川町今津第２","lat":35.048358,"lng":135.550401},{"code":"26206041012","name":"千代川町千原","lat":35.053978,"lng":135.542658},{"code":"26206041013","name":"千代川町川関","lat":35.060279,"lng":135.544034},{"code":"26206041014","name":"千代川町拝田","lat":35.055525,"lng":135.53607},{"code":"26206041015","name":"千代川町日吉台","lat":35.042416,"lng":135.543528},{"code":"26206041016","name":"千代川町クラウンハイム","lat":35.048868,"lng":135.546467},{"code":"26206042001","name":"馬路町池尻","lat":35.068428,"lng":135.577536},{"code":"26206042002","name":"馬路町北","lat":35.058626,"lng":135.562341},{"code":"26206042003","name":"馬路町中","lat":35.055869,"lng":135.567695},{"code":"26206042004","name":"馬路町南","lat":35.052716,"lng":135.56424},{"code":"26206042005","name":"馬路町三軒屋","lat":35.049974,"lng":135.55706},{"code":"26206042006","name":"馬路町三ツ辻","lat":35.056236,"lng":135.553122},{"code":"26206043001","name":"旭町美濃田","lat":35.078959,"lng":135.575524},{"code":"26206043002","name":"旭町杉","lat":35.076828,"lng":135.557038},{"code":"26206043003","name":"旭町山階","lat":35.091541,"lng":135.575731},{"code":"26206043004","name":"旭町印地","lat":35.083687,"lng":135.555824},{"code":"26206044001","name":"千歳町毘沙門","lat":35.035773,"lng":135.5829},{"code":"26206044002","name":"千歳町国分","lat":35.041616,"lng":135.581785},{"code":"26206044003","name":"千歳町江島里","lat":35.047657,"lng":135.581314},{"code":"26206044004","name":"千歳町中","lat":35.053456,"lng":135.592892},{"code":"26206044005","name":"千歳町北谷","lat":35.056458,"lng":135.576956},{"code":"26206044006","name":"千歳町出雲","lat":35.059862,"lng":135.575175},{"code":"26206044007","name":"千歳町小口","lat":35.065932,"lng":135.571534},{"code":"26206044008","name":"千歳町出雲台","lat":35.062409,"lng":135.573686},{"code":"26206045001","name":"河原林町中垣内","lat":35.043212,"lng":135.56165},{"code":"26206045002","name":"河原林町北垣内","lat":35.04682,"lng":135.566739},{"code":"26206045003","name":"河原林町東垣内","lat":35.048326,"lng":135.573127},{"code":"26206045004","name":"河原林町綾垣内","lat":35.043653,"lng":135.572403},{"code":"26206045005","name":"河原林町高野垣内","lat":35.040485,"lng":135.572997},{"code":"26206045006","name":"河原林町上島","lat":35.035457,"lng":135.567145},{"code":"26206045007","name":"河原林町下島","lat":35.031304,"lng":135.572754},{"code":"26206046001","name":"保津町１区","lat":35.028946,"lng":135.589204},{"code":"26206046002","name":"保津町２区","lat":35.02513,"lng":135.586141},{"code":"26206046003","name":"保津町３区","lat":35.021702,"lng":135.587792},{"code":"26206046004","name":"保津町４区","lat":35.02301,"lng":135.584459},{"code":"26206046005","name":"保津町５区","lat":35.023137,"lng":135.592853},{"code":"26206046006","name":"保津町６区","lat":35.021177,"lng":135.597177},{"code":"26206046007","name":"保津町７区","lat":35.036335,"lng":135.613313},{"code":"26206046008","name":"保津町８区","lat":35.032384,"lng":135.590283},{"code":"26206047001","name":"東本梅町中野","lat":35.044898,"lng":135.474995},{"code":"26206047002","name":"東本梅町赤熊","lat":35.041093,"lng":135.461331},{"code":"26206047003","name":"東本梅町松熊","lat":35.053292,"lng":135.483704},{"code":"26206047004","name":"東本梅町大内","lat":35.063434,"lng":135.48545},{"code":"26206047005","name":"東本梅町東大谷","lat":35.050998,"lng":135.466603},{"code":"26206047006","name":"東本梅町生子田","lat":35.05183,"lng":135.466757},{"code":"26206047007","name":"東本梅町あせび","lat":35.057734,"lng":135.475766},{"code":"26206048001","name":"篠町王子","lat":34.991798,"lng":135.627454},{"code":"26206048002","name":"篠町篠","lat":34.985223,"lng":135.601863},{"code":"26206048003","name":"篠町山本","lat":35.013948,"lng":135.619806},{"code":"26206048004","name":"篠町馬堀","lat":35.008241,"lng":135.602076},{"code":"26206048005","name":"篠町柏原","lat":35.011375,"lng":135.596442},{"code":"26206048006","name":"篠町浄法寺","lat":35.002032,"lng":135.591924},{"code":"26206048007","name":"篠町広田","lat":35.000425,"lng":135.595247},{"code":"26206048008","name":"篠町森","lat":34.993806,"lng":135.598742},{"code":"26206048009","name":"篠町野条","lat":35.003874,"lng":135.600296},{"code":"26206048010","name":"篠町ひばりヶ丘","lat":35.001836,"lng":135.599088},{"code":"26206048011","name":"篠町第１見晴","lat":35.009757,"lng":135.60627},{"code":"26206048012","name":"篠町第２見晴","lat":35.009189,"lng":135.608341},{"code":"26206048013","name":"篠町第３見晴","lat":35.009595,"lng":135.609622},{"code":"26206048014","name":"篠町第５見晴","lat":35.008543,"lng":135.605929},{"code":"26206048015","name":"篠町第６見晴","lat":35.010586,"lng":135.605206},{"code":"26206048016","name":"篠町八幡","lat":35.005686,"lng":135.611129},{"code":"26206048017","name":"篠町第１紫明","lat":35.00858,"lng":135.598492},{"code":"26206048018","name":"篠町第２紫明","lat":35.008174,"lng":135.600493},{"code":"26206048019","name":"篠町栗掛","lat":35.002346,"lng":135.595449},{"code":"26206048020","name":"篠町雲宮","lat":35.00482,"lng":135.59615},{"code":"26206048021","name":"篠町第２雲宮","lat":35.005787,"lng":135.594017},{"code":"26206048022","name":"篠町森東","lat":34.996814,"lng":135.60107},{"code":"26206048023","name":"篠町野田","lat":35.007991,"lng":135.603275},{"code":"26206048024","name":"篠町西山","lat":34.993338,"lng":135.634748},{"code":"26206048025","name":"篠町森宮","lat":35.000106,"lng":135.598375},{"code":"26206048026","name":"篠町寺前","lat":34.995573,"lng":135.593886},{"code":"26206048027","name":"篠町平塚","lat":34.998838,"lng":135.594317},{"code":"26206048028","name":"篠町川西","lat":35.009859,"lng":135.598776},{"code":"26206048029","name":"篠町みどりヶ丘","lat":34.996208,"lng":135.602788},{"code":"26206048030","name":"篠町第７見晴","lat":35.007382,"lng":135.608839},{"code":"26206048031","name":"篠町グランコート","lat":35.006334,"lng":135.602635},{"code":"26206048032","name":"篠町花水木台","lat":34.994906,"lng":135.600042},{"code":"26206048033","name":"篠町メディアス亀岡５番館","lat":35.009875,"lng":135.60385},{"code":"26206048034","name":"篠町フローラルタウン","lat":35.010297,"lng":135.594325},{"code":"26206048035","name":"篠町第８見晴","lat":35.007332,"lng":135.606992},{"code":"26206048036","name":"篠町夕日ヶ丘１丁目","lat":34.996726,"lng":135.609893},{"code":"26206048037","name":"篠町夕日ケ丘２丁目","lat":34.998064,"lng":135.610086},{"code":"26206048038","name":"篠町夕日ケ丘３丁目","lat":34.997817,"lng":135.606868},{"code":"26206049001","name":"東つつじヶ丘都台１丁目","lat":35.001108,"lng":135.596951},{"code":"26206049002","name":"東つつじヶ丘都台２丁目","lat":34.998746,"lng":135.596471},{"code":"26206049003","name":"東つつじヶ丘都台３丁目","lat":34.998076,"lng":135.597454},{"code":"26206049004","name":"東つつじヶ丘曙台１丁目","lat":34.996664,"lng":135.596775},{"code":"26206049005","name":"東つつじヶ丘曙台２丁目","lat":34.995336,"lng":135.596511},{"code":"26206049006","name":"東つつじヶ丘曙台３丁目","lat":34.994892,"lng":135.595365},{"code":"26206049007","name":"東つつじヶ丘曙台４丁目","lat":34.991921,"lng":135.593895},{"code":"26206050001","name":"西つつじヶ丘大山台１丁目","lat":35.001461,"lng":135.589149},{"code":"26206050002","name":"西つつじヶ丘大山台２丁目","lat":35.00108,"lng":135.586592},{"code":"26206050003","name":"西つつじヶ丘雲仙台１丁目","lat":35.002712,"lng":135.587011},{"code":"26206050004","name":"西つつじヶ丘雲仙台２丁目","lat":35.002125,"lng":135.584649},{"code":"26206050005","name":"西つつじヶ丘霧島台１丁目","lat":34.999541,"lng":135.58934},{"code":"26206050006","name":"西つつじヶ丘霧島台２丁目","lat":34.998557,"lng":135.586967},{"code":"26206050007","name":"西つつじヶ丘美山台１丁目","lat":34.99903,"lng":135.584365},{"code":"26206050008","name":"西つつじヶ丘美山台２丁目","lat":34.996705,"lng":135.5846},{"code":"26206050009","name":"西つつじヶ丘五月台１丁目","lat":35.003654,"lng":135.588711},{"code":"26206050010","name":"西つつじヶ丘五月台２丁目","lat":35.003869,"lng":135.586343},{"code":"26206051001","name":"南つつじヶ丘大葉台１丁目","lat":34.99614,"lng":135.590468},{"code":"26206051002","name":"南つつじヶ丘大葉台２丁目","lat":34.992571,"lng":135.589375},{"code":"26206051003","name":"南つつじヶ丘桜台１丁目","lat":34.987743,"lng":135.589247},{"code":"26206051004","name":"南つつじヶ丘桜台２丁目","lat":34.989987,"lng":135.586882},{"code":"26206051005","name":"南つつじヶ丘桜台３丁目","lat":34.986478,"lng":135.586074},{"code":"26206051006","name":"南つつじヶ丘桜台４丁目","lat":34.983726,"lng":135.586608},{"code":"26206051007","name":"南つつじヶ丘桜台５丁目","lat":34.987083,"lng":135.583924}]}
