{"municipality":"26201","name":"福知山市","prefecture":"京都府","source":{"dataset":"frogcat/japan-small-area","census":"平成27年国勢調査 小地域（e-Stat 統計LOD）","license":"MIT（リポジトリ）／政府統計の総合窓口(e-Stat)の利用規約（元データ・出典表記必要）","fetched":"2026-07-06"},"towns":[{"code":"26201001001","name":"惇明京町","lat":35.299658,"lng":135.128928},{"code":"26201001002","name":"惇明呉服町","lat":35.300792,"lng":135.128631},{"code":"26201001003","name":"惇明長町","lat":35.301429,"lng":135.127122},{"code":"26201001004","name":"惇明上新町","lat":35.299823,"lng":135.126327},{"code":"26201001005","name":"惇明下新町","lat":35.301143,"lng":135.125933},{"code":"26201001006","name":"惇明鍛冶町","lat":35.30002,"lng":135.12561},{"code":"26201001007","name":"惇明上紺屋町","lat":35.301507,"lng":135.125061},{"code":"26201001008","name":"惇明東中ノ町","lat":35.301395,"lng":135.124026},{"code":"26201001009","name":"惇明中ノ町","lat":35.300447,"lng":135.123239},{"code":"26201001010","name":"惇明西中ノ町","lat":35.302327,"lng":135.122246},{"code":"26201001011","name":"惇明南栄町","lat":35.296747,"lng":135.122891},{"code":"26201001012","name":"惇明北栄町","lat":35.298691,"lng":135.122447},{"code":"26201001013","name":"惇明駅前町","lat":35.296933,"lng":135.118744},{"code":"26201001014","name":"惇明内記一丁目","lat":35.297946,"lng":135.12971},{"code":"26201001015","name":"惇明内記二丁目","lat":35.298144,"lng":135.127903},{"code":"26201001016","name":"惇明内記三丁目","lat":35.297166,"lng":135.126635},{"code":"26201001017","name":"惇明内記四丁目","lat":35.298239,"lng":135.126038},{"code":"26201001018","name":"惇明内記五丁目","lat":35.297341,"lng":135.124735},{"code":"26201001019","name":"惇明内記六丁目","lat":35.297729,"lng":135.124087},{"code":"26201001020","name":"惇明内記六丁目北","lat":35.299193,"lng":135.123959},{"code":"26201001021","name":"惇明岡ノ一町","lat":35.294837,"lng":135.128868},{"code":"26201001022","name":"惇明岡ノ二町","lat":35.295168,"lng":135.126803},{"code":"26201001023","name":"惇明岡ノ三町","lat":35.29492,"lng":135.130935},{"code":"26201001024","name":"惇明岡ノ上町","lat":35.29318,"lng":135.12558},{"code":"26201001025","name":"惇明東岡町","lat":35.287663,"lng":135.124134},{"code":"26201001026","name":"惇明西岡町","lat":35.293487,"lng":135.119473},{"code":"26201001027","name":"惇明広峯町","lat":35.29042,"lng":135.118576},{"code":"26201001028","name":"惇明陵北町","lat":35.294363,"lng":135.12105},{"code":"26201001029","name":"惇明南岡町","lat":35.2911,"lng":135.123177},{"code":"26201001030","name":"惇明緑ケ丘町","lat":35.289546,"lng":135.12258},{"code":"26201001031","name":"惇明北岡町","lat":35.293503,"lng":135.124019},{"code":"26201001032","name":"惇明旭が丘","lat":35.287937,"lng":135.118488},{"code":"26201001033","name":"惇明つつじが丘","lat":35.287504,"lng":135.117043},{"code":"26201001034","name":"惇明夕陽が丘","lat":35.286019,"lng":135.114149},{"code":"26201001035","name":"惇明南天田町","lat":35.286014,"lng":135.120821},{"code":"26201001036","name":"惇明丸田ヶ丘","lat":35.285108,"lng":135.123478},{"code":"26201001037","name":"惇明南天田自衛隊宿舎","lat":35.285178,"lng":135.117304},{"code":"26201002001","name":"昭和下柳町","lat":35.303458,"lng":135.126379},{"code":"26201002002","name":"昭和菱屋町","lat":35.303902,"lng":135.125251},{"code":"26201002003","name":"昭和下紺屋町","lat":35.303487,"lng":135.12445},{"code":"26201002004","name":"昭和西町","lat":35.303697,"lng":135.12376},{"code":"26201002005","name":"昭和寺町","lat":35.305634,"lng":135.123318},{"code":"26201002006","name":"昭和鋳物師町","lat":35.306872,"lng":135.121418},{"code":"26201002007","name":"昭和和久市町","lat":35.30872,"lng":135.11697},{"code":"26201002008","name":"昭和昭和新町","lat":35.304756,"lng":135.116975},{"code":"26201002009","name":"昭和東本町","lat":35.300282,"lng":135.120421},{"code":"26201002010","name":"昭和西本町","lat":35.300062,"lng":135.116815},{"code":"26201002011","name":"昭和南本町","lat":35.299231,"lng":135.120216},{"code":"26201002012","name":"昭和北本町一区","lat":35.301848,"lng":135.118461},{"code":"26201002013","name":"昭和北本町二区","lat":35.303873,"lng":135.119828},{"code":"26201002014","name":"昭和厚中問屋町","lat":35.306814,"lng":135.110576},{"code":"26201002016","name":"昭和下篠尾","lat":35.298438,"lng":135.108144},{"code":"26201002017","name":"昭和篠尾新町","lat":35.300718,"lng":135.111993},{"code":"26201002018","name":"昭和東羽合","lat":35.289461,"lng":135.112316},{"code":"26201002019","name":"昭和西羽合","lat":35.294984,"lng":135.11062},{"code":"26201002020","name":"昭和南羽合","lat":35.291095,"lng":135.109039},{"code":"26201002021","name":"昭和北羽合","lat":35.296468,"lng":135.113558},{"code":"26201002022","name":"昭和向野","lat":35.288155,"lng":135.108166},{"code":"26201002023","name":"昭和厚東町","lat":35.304128,"lng":135.114184},{"code":"26201002024","name":"昭和上篠尾一区","lat":35.294032,"lng":135.106035},{"code":"26201002025","name":"昭和上篠尾二区","lat":35.294137,"lng":135.10855},{"code":"26201003001","name":"大正荒木","lat":35.272241,"lng":135.124951},{"code":"26201003002","name":"大正森垣","lat":35.276006,"lng":135.135838},{"code":"26201003003","name":"大正日吉ケ丘","lat":35.272997,"lng":135.132815},{"code":"26201003004","name":"大正高畑","lat":35.279455,"lng":135.142174},{"code":"26201003005","name":"大正水内","lat":35.285637,"lng":135.138036},{"code":"26201003006","name":"大正本堀","lat":35.288461,"lng":135.133677},{"code":"26201003007","name":"大正南本堀","lat":35.285467,"lng":135.132033},{"code":"26201003008","name":"大正野家","lat":35.289738,"lng":135.130868},{"code":"26201003009","name":"大正東小谷ケ丘","lat":35.286423,"lng":135.130072},{"code":"26201003010","name":"大正西小谷ケ丘","lat":35.284996,"lng":135.126718},{"code":"26201003011","name":"大正南小谷ケ丘","lat":35.285176,"lng":135.13011},{"code":"26201003012","name":"大正北小谷ケ丘","lat":35.288399,"lng":135.128416},{"code":"26201003013","name":"大正内田町","lat":35.29259,"lng":135.128716},{"code":"26201003014","name":"大正蛇ケ端","lat":35.295412,"lng":135.13376},{"code":"26201003015","name":"大正堀口","lat":35.292982,"lng":135.131663},{"code":"26201003016","name":"大正東堀","lat":35.290569,"lng":135.137954},{"code":"26201004001","name":"雀部土師新町南","lat":35.28676,"lng":135.146744},{"code":"26201004002","name":"雀部土師新町東","lat":35.290264,"lng":135.14875},{"code":"26201004003","name":"雀部土師町","lat":35.294879,"lng":135.1465},{"code":"26201004004","name":"雀部土師宮町","lat":35.293456,"lng":135.141916},{"code":"26201004005","name":"雀部前田","lat":35.298489,"lng":135.15182},{"code":"26201004006","name":"雀部小松ヶ丘","lat":35.295102,"lng":135.157877},{"code":"26201004007","name":"雀部東佳屋野町","lat":35.296484,"lng":135.158575},{"code":"26201004008","name":"雀部西佳屋野町","lat":35.295499,"lng":135.152842},{"code":"26201004009","name":"雀部南佳屋野町","lat":35.294371,"lng":135.155048},{"code":"26201004010","name":"雀部秋津が丘","lat":35.29861,"lng":135.159766},{"code":"26201004011","name":"雀部川北","lat":35.311665,"lng":135.155828},{"code":"26201005001","name":"遷喬土","lat":35.300034,"lng":135.167395},{"code":"26201005002","name":"遷喬東野町","lat":35.297642,"lng":135.167115},{"code":"26201005003","name":"遷喬聖佳町","lat":35.296183,"lng":135.16582},{"code":"26201005004","name":"遷喬石原","lat":35.299956,"lng":135.177345},{"code":"26201005005","name":"遷喬観音寺","lat":35.302274,"lng":135.195112},{"code":"26201005006","name":"遷喬興","lat":35.303829,"lng":135.185781},{"code":"26201005007","name":"遷喬戸田","lat":35.30637,"lng":135.175528},{"code":"26201005008","name":"遷喬南土野町","lat":35.296582,"lng":135.169492},{"code":"26201006001","name":"庵我猪崎","lat":35.311785,"lng":135.137915},{"code":"26201006002","name":"庵我城山","lat":35.306563,"lng":135.128659},{"code":"26201006003","name":"庵我下猪崎","lat":35.308931,"lng":135.129044},{"code":"26201006004","name":"庵我中","lat":35.31481,"lng":135.12402},{"code":"26201006005","name":"庵我中村団地","lat":35.311136,"lng":135.130733},{"code":"26201006006","name":"庵我池部","lat":35.331113,"lng":135.131568},{"code":"26201006007","name":"庵我安井","lat":35.339463,"lng":135.116921},{"code":"26201006008","name":"庵我筈巻","lat":35.349246,"lng":135.115491},{"code":"26201007001","name":"佐賀私市","lat":35.316248,"lng":135.183192},{"code":"26201007002","name":"佐賀報恩寺","lat":35.33183,"lng":135.171346},{"code":"26201007003","name":"佐賀印内","lat":35.328842,"lng":135.159816},{"code":"26201007004","name":"佐賀山野口","lat":35.341153,"lng":135.165413},{"code":"26201008001","name":"下豊富上荒河","lat":35.314036,"lng":135.112152},{"code":"26201008002","name":"下豊富下荒河","lat":35.322939,"lng":135.102498},{"code":"26201008003","name":"下豊富かしの木台","lat":35.321048,"lng":135.101889},{"code":"26201008004","name":"下豊富岩井","lat":35.315042,"lng":135.101744},{"code":"26201008005","name":"下豊富奥野部","lat":35.311815,"lng":135.094781},{"code":"26201008006","name":"下豊富和久寺","lat":35.305901,"lng":135.085799},{"code":"26201008007","name":"下豊富大門","lat":35.306904,"lng":135.074099},{"code":"26201008008","name":"下豊富さつきケ丘","lat":35.300918,"lng":135.070004},{"code":"26201008009","name":"下豊富拝師","lat":35.291165,"lng":135.083314},{"code":"26201008010","name":"下豊富山崎","lat":35.296445,"lng":135.079637},{"code":"26201008011","name":"下豊富額塚","lat":35.291206,"lng":135.073961},{"code":"26201008012","name":"下豊富今安","lat":35.292811,"lng":135.089731},{"code":"26201008013","name":"下豊富半田","lat":35.296131,"lng":135.097597},{"code":"26201008014","name":"下豊富新庄","lat":35.305037,"lng":135.101221},{"code":"26201008015","name":"下豊富厚","lat":35.303855,"lng":135.107157},{"code":"26201008016","name":"下豊富正明寺","lat":35.286146,"lng":135.103923},{"code":"26201008017","name":"下豊富市寺","lat":35.274065,"lng":135.091372},{"code":"26201008018","name":"下豊富室","lat":35.278646,"lng":135.106976},{"code":"26201008019","name":"下豊富岩井新町","lat":35.31921,"lng":135.100887},{"code":"26201008020","name":"下豊富荒河ヒルズ","lat":35.324291,"lng":135.099149},{"code":"26201009001","name":"下川口下天津","lat":35.351923,"lng":135.10296},{"code":"26201009002","name":"下川口一尾","lat":35.366129,"lng":135.099431},{"code":"26201009003","name":"下川口瘤木","lat":35.361702,"lng":135.103257},{"code":"26201009004","name":"下川口勅使","lat":35.342464,"lng":135.108193},{"code":"26201009005","name":"下川口牧","lat":35.330467,"lng":135.09278},{"code":"26201009006","name":"下川口石本","lat":35.336311,"lng":135.108621},{"code":"26201009007","name":"下川口波江","lat":35.331433,"lng":135.107442},{"code":"26201009008","name":"下川口漆端","lat":35.328087,"lng":135.109715},{"code":"26201010001","name":"上豊富石場","lat":35.288655,"lng":135.057725},{"code":"26201010002","name":"上豊富畑中","lat":35.283367,"lng":135.043106},{"code":"26201010003","name":"上豊富辻","lat":35.284403,"lng":135.051614},{"code":"26201010004","name":"上豊富北山","lat":35.295369,"lng":135.042822},{"code":"26201010005","name":"上豊富小牧","lat":35.29022,"lng":135.025951},{"code":"26201010006","name":"上豊富下戸","lat":35.286823,"lng":135.015377},{"code":"26201010007","name":"上豊富法用","lat":35.273437,"lng":135.016403},{"code":"26201010008","name":"上豊富談","lat":35.283211,"lng":135.032999},{"code":"26201010009","name":"上豊富樽水","lat":35.274503,"lng":135.037604},{"code":"26201010010","name":"上豊富甘栗","lat":35.27625,"lng":135.044922},{"code":"26201010011","name":"上豊富口榎原","lat":35.284315,"lng":135.068809},{"code":"26201010012","name":"上豊富奥榎原","lat":35.263554,"lng":135.062423},{"code":"26201010013","name":"上豊富茅ノ台","lat":35.28246,"lng":135.057124},{"code":"26201011001","name":"上六人部萩原","lat":35.244235,"lng":135.217391},{"code":"26201011002","name":"上六人部上野","lat":35.241208,"lng":135.201974},{"code":"26201011003","name":"上六人部生野","lat":35.246195,"lng":135.214489},{"code":"26201011004","name":"上六人部堀越","lat":35.248482,"lng":135.209843},{"code":"26201011006","name":"上六人部三俣","lat":35.26136,"lng":135.217269},{"code":"26201011007","name":"上六人部池田","lat":35.258776,"lng":135.197611},{"code":"26201011008","name":"上六人部岩崎","lat":35.261927,"lng":135.18984},{"code":"26201011009","name":"上六人部正後寺","lat":35.249035,"lng":135.205231},{"code":"26201011010","name":"上六人部坂室","lat":35.24999,"lng":135.199563},{"code":"26201012001","name":"中六人部島田","lat":35.260551,"lng":135.18489},{"code":"26201012002","name":"中六人部野間仁田","lat":35.259177,"lng":135.180545},{"code":"26201012003","name":"中六人部下地","lat":35.254587,"lng":135.175262},{"code":"26201012004","name":"中六人部中地","lat":35.254218,"lng":135.179589},{"code":"26201012005","name":"中六人部後正寺","lat":35.249702,"lng":135.180052},{"code":"26201012006","name":"中六人部大内山田","lat":35.238561,"lng":135.183618},{"code":"26201012007","name":"中六人部笹場","lat":35.263232,"lng":135.165887},{"code":"26201012008","name":"中六人部口田野","lat":35.249754,"lng":135.167958},{"code":"26201012009","name":"中六人部田野山田","lat":35.232893,"lng":135.177799},{"code":"26201013001","name":"下六人部多保市","lat":35.286173,"lng":135.191443},{"code":"26201013002","name":"下六人部長田南","lat":35.282486,"lng":135.181521},{"code":"26201013003","name":"下六人部長田北","lat":35.2741,"lng":135.185256},{"code":"26201013004","name":"下六人部上松","lat":35.272848,"lng":135.171177},{"code":"26201013005","name":"下六人部長田段","lat":35.276158,"lng":135.1579},{"code":"26201013006","name":"下六人部市の谷","lat":35.27866,"lng":135.166183},{"code":"26201013007","name":"下六人部大野","lat":35.284947,"lng":135.176214},{"code":"26201013008","name":"下六人部岩間","lat":35.270991,"lng":135.154665},{"code":"26201013010","name":"下六人部駒場新町","lat":35.280271,"lng":135.188997},{"code":"26201014001","name":"上川口野花","lat":35.334603,"lng":135.077102},{"code":"26201014002","name":"上川口立原","lat":35.335596,"lng":135.086499},{"code":"26201014003","name":"上川口十二","lat":35.330151,"lng":135.08332},{"code":"26201014004","name":"上川口六十内","lat":35.320168,"lng":135.068276},{"code":"26201014005","name":"上川口十三丘","lat":35.319934,"lng":135.059937},{"code":"26201014006","name":"上川口住所大山","lat":35.326656,"lng":135.054235},{"code":"26201014007","name":"上川口下小田","lat":35.331775,"lng":135.065977},{"code":"26201014008","name":"上川口小田","lat":35.335382,"lng":135.070768},{"code":"26201014009","name":"上川口夷","lat":35.341501,"lng":135.070088},{"code":"26201014010","name":"上川口上下大内","lat":35.352916,"lng":135.078933},{"code":"26201014011","name":"上川口大呂","lat":35.362895,"lng":135.087194},{"code":"26201015001","name":"金谷猪野々","lat":35.313494,"lng":135.035545},{"code":"26201015002","name":"金谷梅谷","lat":35.323763,"lng":135.025663},{"code":"26201015003","name":"金谷宮垣","lat":35.334203,"lng":135.032197},{"code":"26201015004","name":"金谷田和","lat":35.336588,"lng":135.039513},{"code":"26201015005","name":"金谷大見長祖","lat":35.321098,"lng":135.044795},{"code":"26201015006","name":"金谷野笹","lat":35.323209,"lng":135.051317},{"code":"26201015007","name":"金谷鴨野町","lat":35.325972,"lng":135.044121},{"code":"26201016001","name":"三岳一の宮","lat":35.363742,"lng":135.060008},{"code":"26201016002","name":"三岳日尾","lat":35.352284,"lng":135.060493},{"code":"26201016003","name":"三岳新宮","lat":35.35314,"lng":135.040369},{"code":"26201016004","name":"三岳常願寺","lat":35.347966,"lng":135.053823},{"code":"26201016005","name":"三岳下佐々木","lat":35.375625,"lng":135.046221},{"code":"26201016006","name":"三岳中佐々木","lat":35.384541,"lng":135.041506},{"code":"26201016007","name":"三岳上佐々木","lat":35.387221,"lng":135.040421},{"code":"26201016008","name":"三岳喜多","lat":35.379866,"lng":135.068623},{"code":"26201017001","name":"金山天座一区","lat":35.412478,"lng":135.096984},{"code":"26201017002","name":"金山天座二区","lat":35.425871,"lng":135.093593},{"code":"26201017003","name":"金山下野条","lat":35.402548,"lng":135.07438},{"code":"26201017004","name":"金山坂浦","lat":35.415368,"lng":135.086879},{"code":"26201017005","name":"金山上野条","lat":35.391934,"lng":135.07371},{"code":"26201017006","name":"金山行積","lat":35.395286,"lng":135.091266},{"code":"26201017007","name":"金山長尾","lat":35.38083,"lng":135.096354},{"code":"262010180","name":"雲原","lat":35.42523,"lng":135.064101},{"code":"262010190","name":"長田野工業団地","lat":35.283583,"lng":135.163139},{"code":"26201020001","name":"成仁大池坂町","lat":35.294124,"lng":135.163634},{"code":"26201020002","name":"成仁中坂町","lat":35.294931,"lng":135.168985},{"code":"26201020003","name":"成仁長山町","lat":35.292709,"lng":135.169035},{"code":"26201020004","name":"成仁平野町","lat":35.29362,"lng":135.175156},{"code":"26201020005","name":"成仁桔梗が丘","lat":35.288802,"lng":135.169823},{"code":"26201021001","name":"菟原菟原下一","lat":35.196292,"lng":135.248001},{"code":"26201021002","name":"菟原菟原下二","lat":35.186856,"lng":135.240847},{"code":"26201021003","name":"菟原菟原中","lat":35.204681,"lng":135.265207},{"code":"26201021004","name":"菟原高杉","lat":35.185804,"lng":135.263525},{"code":"26201021005","name":"菟原友渕","lat":35.182929,"lng":135.278039},{"code":"26201021006","name":"菟原大身","lat":35.209935,"lng":135.282953},{"code":"26201022007","name":"細見西松","lat":35.185837,"lng":135.199395},{"code":"26201022008","name":"細見田ノ谷","lat":35.172826,"lng":135.213909},{"code":"26201022009","name":"細見中出","lat":35.194147,"lng":135.221742},{"code":"26201022010","name":"細見辻","lat":35.208994,"lng":135.23447},{"code":"26201022011","name":"細見千束","lat":35.218075,"lng":135.230254},{"code":"26201022012","name":"細見寺尾","lat":35.222284,"lng":135.20707},{"code":"26201022013","name":"細見草山","lat":35.209815,"lng":135.200363},{"code":"26201022014","name":"細見芦渕","lat":35.233953,"lng":135.225911},{"code":"26201022015","name":"細見梅原","lat":35.219397,"lng":135.248221},{"code":"26201022022","name":"細見みわ","lat":35.217175,"lng":135.224507},{"code":"26201023016","name":"川合大原","lat":35.253711,"lng":135.301846},{"code":"26201023017","name":"川合台頭","lat":35.258826,"lng":135.277379},{"code":"26201023018","name":"川合上川合","lat":35.246118,"lng":135.265338},{"code":"26201023019","name":"川合岼","lat":35.249281,"lng":135.247331},{"code":"26201023020","name":"川合下川合","lat":35.232037,"lng":135.247498},{"code":"26201023021","name":"川合加用","lat":35.224939,"lng":135.284579},{"code":"26201024001","name":"字畑今里","lat":35.380944,"lng":135.012414},{"code":"26201024002","name":"字畑柿本","lat":35.367726,"lng":135.004845},{"code":"26201024003","name":"字畑稲垣","lat":35.359607,"lng":135.005315},{"code":"26201024004","name":"字畑金尾","lat":35.357428,"lng":134.991962},{"code":"26201024005","name":"字畑西谷","lat":35.345589,"lng":134.994858},{"code":"26201024006","name":"字畑桑村","lat":35.349675,"lng":135.015521},{"code":"26201024007","name":"字畑小畑","lat":35.363968,"lng":135.024427},{"code":"262010250","name":"字今西","lat":35.337043,"lng":135.005281},{"code":"262010260","name":"字井田","lat":35.324377,"lng":135.005556},{"code":"26201027010","name":"字額田下町","lat":35.321635,"lng":135.000157},{"code":"26201027011","name":"字額田上町","lat":35.323449,"lng":134.997371},{"code":"26201027012","name":"字額田且","lat":35.321818,"lng":134.989238},{"code":"26201027013","name":"字額田奥","lat":35.333374,"lng":134.982661},{"code":"26201027014","name":"字額田向","lat":35.317005,"lng":134.99062},{"code":"26201028015","name":"字千原上千原","lat":35.302745,"lng":134.980807},{"code":"26201028016","name":"字千原中千原","lat":35.310329,"lng":134.996},{"code":"26201028017","name":"字千原下千原","lat":35.303764,"lng":135.006585},{"code":"262010290","name":"字日置","lat":35.323595,"lng":134.970939},{"code":"262010300","name":"字末","lat":35.310105,"lng":134.960775},{"code":"262010310","name":"字高内","lat":35.326616,"lng":134.949107},{"code":"262010320","name":"字大油子","lat":35.33875,"lng":134.956254},{"code":"262010330","name":"字小倉","lat":35.321228,"lng":134.934397},{"code":"26201034023","name":"字直見門垣","lat":35.352842,"lng":134.951663},{"code":"26201034024","name":"字直見副谷","lat":35.351138,"lng":134.968503},{"code":"26201034025","name":"字直見山中","lat":35.361832,"lng":134.962754},{"code":"26201034026","name":"字直見金谷","lat":35.359784,"lng":134.976491},{"code":"26201034027","name":"字直見大岶","lat":35.365958,"lng":134.974406},{"code":"26201034028","name":"字直見桑谷","lat":35.370682,"lng":134.981753},{"code":"26201034029","name":"字直見西垣","lat":35.373193,"lng":134.963392},{"code":"26201034030","name":"字直見宮垣","lat":35.379644,"lng":134.969936},{"code":"26201034031","name":"字直見栗尾","lat":35.385027,"lng":134.979517},{"code":"26201034032","name":"字直見才谷","lat":35.392888,"lng":134.978436},{"code":"26201035000","name":"字板生上町","lat":35.354982,"lng":134.946569},{"code":"26201035033","name":"字板生中田","lat":35.352275,"lng":134.939238},{"code":"26201035035","name":"字板生三谷","lat":35.360768,"lng":134.937148},{"code":"26201035036","name":"字板生羽白","lat":35.368237,"lng":134.935267},{"code":"26201035037","name":"字板生田谷垣","lat":35.378593,"lng":134.940739},{"code":"26201035038","name":"字板生現世","lat":35.390195,"lng":134.939553},{"code":"26201035039","name":"字板生今西","lat":35.396213,"lng":134.951881},{"code":"26201035040","name":"字板生田谷","lat":35.405154,"lng":134.94763},{"code":"26201036041","name":"字平野平野","lat":35.343856,"lng":134.938249},{"code":"26201036042","name":"字平野水上","lat":35.345271,"lng":134.936716},{"code":"26201036043","name":"字平野水坂","lat":35.346145,"lng":134.930037},{"code":"26201036044","name":"字平野駅前","lat":35.341566,"lng":134.93414},{"code":"26201036045","name":"字平野奥水坂","lat":35.347375,"lng":134.923541},{"code":"26201036046","name":"字平野夜久野","lat":35.34233,"lng":134.920236},{"code":"26201037001","name":"河守上野","lat":35.400968,"lng":135.163271},{"code":"26201037002","name":"河守波美","lat":35.385337,"lng":135.157622},{"code":"26201037003","name":"河守金屋","lat":35.396298,"lng":135.155834},{"code":"26201037004","name":"河守関","lat":35.396816,"lng":135.148593},{"code":"26201037005","name":"河守下町","lat":35.395697,"lng":135.146115},{"code":"26201037006","name":"河守中央","lat":35.393879,"lng":135.14214},{"code":"26201037007","name":"河守清水","lat":35.39054,"lng":135.141793},{"code":"26201037008","name":"河守新町","lat":35.388328,"lng":135.140612},{"code":"26201038001","name":"河守上仏性寺","lat":35.452979,"lng":135.138643},{"code":"26201038002","name":"河守上毛原","lat":35.44784,"lng":135.163655},{"code":"26201038003","name":"河守上北原","lat":35.443129,"lng":135.12204},{"code":"26201038004","name":"河守上内宮","lat":35.430494,"lng":135.152232},{"code":"26201038005","name":"河守上二俣一","lat":35.420522,"lng":135.149535},{"code":"26201038006","name":"河守上二俣二","lat":35.414265,"lng":135.146711},{"code":"26201038007","name":"河守上二俣三","lat":35.408379,"lng":135.148501},{"code":"26201038008","name":"河守上天田内","lat":35.404725,"lng":135.136944},{"code":"26201038009","name":"河守上橋谷","lat":35.412506,"lng":135.118781},{"code":"26201038010","name":"河守上美鈴新","lat":35.405593,"lng":135.150211},{"code":"26201039001","name":"河西蓼原","lat":35.385332,"lng":135.135112},{"code":"26201039002","name":"河西小谷","lat":35.397214,"lng":135.124949},{"code":"26201039003","name":"河西小原田","lat":35.39025,"lng":135.111352},{"code":"26201039004","name":"河西公庄","lat":35.378062,"lng":135.131231},{"code":"26201039005","name":"河西公庄","lat":35.373827,"lng":135.11887},{"code":"26201039006","name":"河西日藤","lat":35.368203,"lng":135.112907},{"code":"26201040001","name":"河東千原","lat":35.377926,"lng":135.159878},{"code":"26201040002","name":"河東尾藤口","lat":35.37356,"lng":135.14526},{"code":"26201040003","name":"河東尾藤奥","lat":35.36765,"lng":135.157724},{"code":"26201040004","name":"河東南山東部","lat":35.357108,"lng":135.171362},{"code":"26201040005","name":"河東常津","lat":35.367747,"lng":135.13966},{"code":"26201040006","name":"河東在田","lat":35.35989,"lng":135.131217},{"code":"26201040007","name":"河東南山西部","lat":35.351257,"lng":135.146388},{"code":"26201040008","name":"河東夏間","lat":35.361508,"lng":135.124442},{"code":"26201040009","name":"河東夏間グリーンヒル","lat":35.361693,"lng":135.119834},{"code":"26201041001","name":"有路上南一","lat":35.384684,"lng":135.169687},{"code":"26201041002","name":"有路上南二","lat":35.379323,"lng":135.179929},{"code":"26201041003","name":"有路上南三","lat":35.38097,"lng":135.192971},{"code":"26201041004","name":"有路上南四","lat":35.390275,"lng":135.19784},{"code":"26201041005","name":"有路上北一","lat":35.393045,"lng":135.167921},{"code":"26201041006","name":"有路上北二","lat":35.397601,"lng":135.172959},{"code":"26201041007","name":"有路上北三","lat":35.394045,"lng":135.179829},{"code":"26201041008","name":"有路上北四","lat":35.406848,"lng":135.176378},{"code":"26201042001","name":"有路下二箇上","lat":35.399237,"lng":135.191242},{"code":"26201042002","name":"有路下二箇下","lat":35.406027,"lng":135.204524},{"code":"26201042003","name":"有路下市原谷","lat":35.39849,"lng":135.217568},{"code":"26201042004","name":"有路下三河","lat":35.419204,"lng":135.1803},{"code":"26201042005","name":"有路下高津江","lat":35.422299,"lng":135.19439}]}
