{"municipality":"26303","name":"乙訓郡大山崎町","prefecture":"京都府","source":{"dataset":"frogcat/japan-small-area","census":"平成27年国勢調査 小地域（e-Stat 統計LOD）","license":"MIT（リポジトリ）／政府統計の総合窓口(e-Stat)の利用規約（元データ・出典表記必要）","fetched":"2026-07-06"},"towns":[{"code":"26303001001","name":"字大山崎小字藤井畑","lat":34.890756,"lng":135.680369},{"code":"26303001002","name":"字大山崎小字西谷","lat":34.892769,"lng":135.678679},{"code":"26303001003","name":"字大山崎小字谷田","lat":34.893892,"lng":135.679205},{"code":"26303001004","name":"字大山崎小字竜光","lat":34.892784,"lng":135.681787},{"code":"26303001005","name":"字大山崎小字明島","lat":34.891944,"lng":135.682373},{"code":"26303001006","name":"字大山崎小字高麗田","lat":34.892781,"lng":135.683696},{"code":"26303001007","name":"字大山崎小字銭原","lat":34.895689,"lng":135.678576},{"code":"26303001008","name":"字大山崎小字茶屋前","lat":34.893762,"lng":135.685066},{"code":"26303001009","name":"字大山崎小字高橋","lat":34.894121,"lng":135.683534},{"code":"26303001010","name":"字大山崎小字上ノ田","lat":34.894738,"lng":135.680979},{"code":"26303001011","name":"字大山崎小字琵琶谷","lat":34.895535,"lng":135.681362},{"code":"26303001012","name":"字大山崎小字尻江","lat":34.896231,"lng":135.685469},{"code":"26303001013","name":"字大山崎小字永福寺","lat":34.895824,"lng":135.683827},{"code":"26303001014","name":"字大山崎小字鏡田","lat":34.896668,"lng":135.687393},{"code":"26303001016","name":"字大山崎小字岸畑","lat":34.895283,"lng":135.689908},{"code":"26303001017","name":"字大山崎小字横山","lat":34.896486,"lng":135.681404},{"code":"26303001018","name":"字大山崎小字白味才","lat":34.898026,"lng":135.683487},{"code":"26303001020","name":"字大山崎小字早稲田","lat":34.899614,"lng":135.683796},{"code":"26303001021","name":"字大山崎小字堀尻","lat":34.898872,"lng":135.686137},{"code":"26303001022","name":"字大山崎小字広敷","lat":34.899571,"lng":135.687807},{"code":"26303001023","name":"字大山崎小字斗加坪","lat":34.900109,"lng":135.689311},{"code":"26303001024","name":"字大山崎小字傍示木","lat":34.900493,"lng":135.687297},{"code":"26303001025","name":"字大山崎小字松原","lat":34.901084,"lng":135.686408},{"code":"26303001026","name":"字大山崎小字岩崎","lat":34.901018,"lng":135.685387},{"code":"26303001027","name":"字大山崎小字西山田","lat":34.900984,"lng":135.676772},{"code":"26303001028","name":"字大山崎小字西高田","lat":34.901121,"lng":135.689668},{"code":"26303001029","name":"字大山崎小字東高田","lat":34.900398,"lng":135.693157},{"code":"26303001030","name":"字大山崎小字小泉","lat":34.90155,"lng":135.694177},{"code":"26303001032","name":"字大山崎小字立嶋","lat":34.89779,"lng":135.694479},{"code":"26303001033","name":"字大山崎小字堤外","lat":34.894413,"lng":135.688306},{"code":"26303002001","name":"字円明寺小字夏目","lat":34.902488,"lng":135.688931},{"code":"26303002002","name":"字円明寺小字百々","lat":34.902721,"lng":135.687248},{"code":"26303002003","name":"字円明寺小字宝本","lat":34.902201,"lng":135.691525},{"code":"26303002004","name":"字円明寺小字算用田","lat":34.902918,"lng":135.690893},{"code":"26303002005","name":"字円明寺小字井尻","lat":34.904003,"lng":135.690221},{"code":"26303002006","name":"字円明寺小字東ノ口","lat":34.905104,"lng":135.690245},{"code":"26303002007","name":"字円明寺小字茶屋前","lat":34.90452,"lng":135.688041},{"code":"26303002008","name":"字円明寺小字下金蔵","lat":34.906405,"lng":135.690243},{"code":"26303002009","name":"字円明寺小字金蔵","lat":34.907477,"lng":135.689426},{"code":"26303002010","name":"字円明寺小字長慶","lat":34.908462,"lng":135.689699},{"code":"26303002011","name":"字円明寺小字松田","lat":34.906623,"lng":135.693208},{"code":"26303002012","name":"字円明寺小字一丁田","lat":34.904952,"lng":135.693938},{"code":"26303002013","name":"字円明寺小字門田","lat":34.903937,"lng":135.693119},{"code":"26303002014","name":"字円明寺小字土辺","lat":34.903266,"lng":135.693272},{"code":"26303002015","name":"字円明寺小字鎌田","lat":34.89791,"lng":135.696143},{"code":"26303002016","name":"字円明寺小字佃","lat":34.905211,"lng":135.686631},{"code":"26303002017","name":"字円明寺小字山伏","lat":34.906499,"lng":135.686172},{"code":"26303002018","name":"字円明寺小字香田","lat":34.906739,"lng":135.684809},{"code":"26303002019","name":"字円明寺小字大門脇","lat":34.905448,"lng":135.684689},{"code":"26303002020","name":"字円明寺小字仏生田","lat":34.907015,"lng":135.683623},{"code":"26303002021","name":"字円明寺小字薬師前","lat":34.906304,"lng":135.682593},{"code":"26303002022","name":"字円明寺小字南谷","lat":34.904571,"lng":135.683881},{"code":"26303002023","name":"字円明寺小字稲葉","lat":34.903802,"lng":135.683841},{"code":"26303002024","name":"字円明寺小字開キ","lat":34.903046,"lng":135.685414},{"code":"26303002025","name":"字円明寺小字若宮前","lat":34.909874,"lng":135.686993},{"code":"26303002026","name":"字円明寺小字葛原","lat":34.910319,"lng":135.688276},{"code":"26303002027","name":"字円明寺小字山田","lat":34.909825,"lng":135.684952},{"code":"26303002028","name":"字円明寺小字殿山","lat":34.911071,"lng":135.685545},{"code":"26303002029","name":"字円明寺小字脇山","lat":34.910796,"lng":135.68251},{"code":"26303002030","name":"字円明寺小字鳥居前","lat":34.907392,"lng":135.677223},{"code":"26303002031","name":"字円明寺小字小倉口","lat":34.909555,"lng":135.679424},{"code":"26303002032","name":"字円明寺小字北浦","lat":34.908209,"lng":135.681002},{"code":"26303002033","name":"字円明寺小字横林","lat":34.909106,"lng":135.685518},{"code":"26303002034","name":"字円明寺小字西法寺","lat":34.908801,"lng":135.682946},{"code":"26303002035","name":"字円明寺小字里ノ後","lat":34.907813,"lng":135.687943},{"code":"26303002036","name":"字円明寺小字海道","lat":34.906458,"lng":135.687757},{"code":"26303002037","name":"字円明寺小字御所前","lat":34.90398,"lng":135.686296},{"code":"26303002038","name":"字円明寺小字小泉川","lat":34.909059,"lng":135.689451},{"code":"26303003001","name":"字下植野小字境野","lat":34.910115,"lng":135.696406},{"code":"26303003002","name":"字下植野小字北牧方","lat":34.908778,"lng":135.702059},{"code":"26303003004","name":"字下植野小字山王前","lat":34.907477,"lng":135.69977},{"code":"26303003005","name":"字下植野小字菖蒲原","lat":34.907771,"lng":135.700912},{"code":"26303003007","name":"字下植野小字竜頭","lat":34.908163,"lng":135.698554},{"code":"26303003008","name":"字下植野小字代理分","lat":34.90937,"lng":135.698728},{"code":"26303003009","name":"字下植野小字梅ヶ畑","lat":34.908741,"lng":135.698299},{"code":"26303003010","name":"字下植野小字二階下","lat":34.908616,"lng":135.700755},{"code":"26303003011","name":"字下植野小字宮本","lat":34.907447,"lng":135.697712},{"code":"26303003012","name":"字下植野小字五条本","lat":34.905704,"lng":135.697006},{"code":"26303003014","name":"字下植野小字飯田","lat":34.906705,"lng":135.698522},{"code":"26303003015","name":"字下植野小字大条","lat":34.903197,"lng":135.701541},{"code":"26303003016","name":"字下植野小字宮脇","lat":34.908306,"lng":135.696439},{"code":"26303003017","name":"字下植野小字寺門","lat":34.906813,"lng":135.69584}]}
