{"municipality":"27118","name":"大阪市城東区","prefecture":"大阪府","source":{"dataset":"frogcat/japan-small-area","census":"平成27年国勢調査 小地域（e-Stat 統計LOD）","license":"MIT（リポジトリ）／政府統計の総合窓口(e-Stat)の利用規約（元データ・出典表記必要）","fetched":"2026-07-06"},"towns":[{"code":"27118001001","name":"野江１丁目","lat":34.701618,"lng":135.53862},{"code":"27118001002","name":"野江２丁目","lat":34.704351,"lng":135.538773},{"code":"27118001003","name":"野江３丁目","lat":34.707006,"lng":135.538775},{"code":"27118001004","name":"野江４丁目","lat":34.709388,"lng":135.540035},{"code":"27118002001","name":"成育１丁目","lat":34.705933,"lng":135.543593},{"code":"27118002002","name":"成育２丁目","lat":34.708287,"lng":135.545262},{"code":"27118002003","name":"成育３丁目","lat":34.708401,"lng":135.542716},{"code":"27118002004","name":"成育４丁目","lat":34.711133,"lng":135.543407},{"code":"27118002005","name":"成育５丁目","lat":34.713462,"lng":135.544853},{"code":"27118003001","name":"中央１丁目","lat":34.700996,"lng":135.543475},{"code":"27118003002","name":"中央２丁目","lat":34.703576,"lng":135.542677},{"code":"27118003003","name":"中央３丁目","lat":34.703518,"lng":135.545211},{"code":"27118004001","name":"関目１丁目","lat":34.70705,"lng":135.548095},{"code":"27118004002","name":"関目２丁目","lat":34.707347,"lng":135.552052},{"code":"27118004003","name":"関目３丁目","lat":34.710646,"lng":135.54828},{"code":"27118004004","name":"関目４丁目","lat":34.710564,"lng":135.552154},{"code":"27118004005","name":"関目５丁目","lat":34.713693,"lng":135.548287},{"code":"27118004006","name":"関目６丁目","lat":34.713647,"lng":135.552305},{"code":"27118005001","name":"古市１丁目","lat":34.707192,"lng":135.557203},{"code":"27118005002","name":"古市２丁目","lat":34.710469,"lng":135.557305},{"code":"27118005003","name":"古市３丁目","lat":34.713527,"lng":135.557409},{"code":"27118006001","name":"今福東１丁目","lat":34.700505,"lng":135.556925},{"code":"27118006002","name":"今福東２丁目","lat":34.702498,"lng":135.556775},{"code":"27118006003","name":"今福東３丁目","lat":34.704376,"lng":135.557078},{"code":"27118007001","name":"今福西１丁目","lat":34.699106,"lng":135.547895},{"code":"27118007002","name":"今福西２丁目","lat":34.699808,"lng":135.551733},{"code":"27118007003","name":"今福西３丁目","lat":34.701678,"lng":135.548054},{"code":"27118007004","name":"今福西４丁目","lat":34.701748,"lng":135.551804},{"code":"27118007005","name":"今福西５丁目","lat":34.703877,"lng":135.548093},{"code":"27118007006","name":"今福西６丁目","lat":34.704028,"lng":135.551895},{"code":"27118008001","name":"今福南１丁目","lat":34.696841,"lng":135.548737},{"code":"27118008002","name":"今福南２丁目","lat":34.697226,"lng":135.552064},{"code":"27118008003","name":"今福南３丁目","lat":34.696577,"lng":135.556607},{"code":"27118008004","name":"今福南４丁目","lat":34.698442,"lng":135.55709},{"code":"27118009001","name":"蒲生１丁目","lat":34.698609,"lng":135.537547},{"code":"27118009002","name":"蒲生２丁目","lat":34.699212,"lng":135.540117},{"code":"27118009003","name":"蒲生３丁目","lat":34.69909,"lng":135.542604},{"code":"27118009004","name":"蒲生４丁目","lat":34.698729,"lng":135.545018},{"code":"27118010001","name":"新喜多１丁目","lat":34.696709,"lng":135.537659},{"code":"27118010002","name":"新喜多２丁目","lat":34.696969,"lng":135.542881},{"code":"27118011001","name":"新喜多東１丁目","lat":34.695086,"lng":135.548897},{"code":"27118011002","name":"新喜多東２丁目","lat":34.692366,"lng":135.551935},{"code":"27118012001","name":"放出西１丁目","lat":34.694099,"lng":135.553316},{"code":"27118012002","name":"放出西２丁目","lat":34.693926,"lng":135.557122},{"code":"27118012003","name":"放出西３丁目","lat":34.690633,"lng":135.556986},{"code":"271180130","name":"天王田","lat":34.689619,"lng":135.552068},{"code":"27118014001","name":"鴫野東１丁目","lat":34.694869,"lng":135.545094},{"code":"27118014002","name":"鴫野東２丁目","lat":34.693131,"lng":135.54789},{"code":"27118014003","name":"鴫野東３丁目","lat":34.690106,"lng":135.54801},{"code":"27118015001","name":"鴫野西１丁目","lat":34.694539,"lng":135.537126},{"code":"27118015002","name":"鴫野西２丁目","lat":34.691306,"lng":135.537397},{"code":"27118015003","name":"鴫野西３丁目","lat":34.694816,"lng":135.541346},{"code":"27118015004","name":"鴫野西４丁目","lat":34.691298,"lng":135.540824},{"code":"27118015005","name":"鴫野西５丁目","lat":34.691176,"lng":135.543944},{"code":"27118016001","name":"森之宮１丁目","lat":34.685445,"lng":135.536084},{"code":"27118016002","name":"森之宮２丁目","lat":34.685739,"lng":135.539249},{"code":"27118017001","name":"中浜１丁目","lat":34.687481,"lng":135.543294},{"code":"27118017002","name":"中浜２丁目","lat":34.685053,"lng":135.543021},{"code":"27118017003","name":"中浜３丁目","lat":34.683392,"lng":135.542415},{"code":"27118018001","name":"東中浜１丁目","lat":34.687362,"lng":135.547094},{"code":"27118018002","name":"東中浜２丁目","lat":34.685061,"lng":135.546867},{"code":"27118018003","name":"東中浜３丁目","lat":34.682747,"lng":135.546523},{"code":"27118018004","name":"東中浜４丁目","lat":34.687155,"lng":135.550071},{"code":"27118018005","name":"東中浜５丁目","lat":34.684888,"lng":135.549895},{"code":"27118018006","name":"東中浜６丁目","lat":34.682444,"lng":135.549607},{"code":"27118018007","name":"東中浜７丁目","lat":34.686998,"lng":135.552715},{"code":"27118018008","name":"東中浜８丁目","lat":34.684734,"lng":135.552538},{"code":"27118018009","name":"東中浜９丁目","lat":34.682211,"lng":135.552348},{"code":"27118019001","name":"永田１丁目","lat":34.688638,"lng":135.556284},{"code":"27118019002","name":"永田２丁目","lat":34.686005,"lng":135.556427},{"code":"27118019003","name":"永田３丁目","lat":34.6829,"lng":135.556137},{"code":"27118019004","name":"永田４丁目","lat":34.680799,"lng":135.556186},{"code":"27118020001","name":"諏訪１丁目","lat":34.686505,"lng":135.562252},{"code":"27118020002","name":"諏訪２丁目","lat":34.684727,"lng":135.561438},{"code":"27118020003","name":"諏訪３丁目","lat":34.682516,"lng":135.5612},{"code":"27118020004","name":"諏訪４丁目","lat":34.68,"lng":135.560915}]}
