{"municipality":"27146","name":"堺市北区","prefecture":"大阪府","source":{"dataset":"frogcat/japan-small-area","census":"平成27年国勢調査 小地域（e-Stat 統計LOD）","license":"MIT（リポジトリ）／政府統計の総合窓口(e-Stat)の利用規約（元データ・出典表記必要）","fetched":"2026-07-06"},"towns":[{"code":"27146001001","name":"奥本町１丁","lat":34.581212,"lng":135.51049},{"code":"27146001002","name":"奥本町２丁","lat":34.58071,"lng":135.513086},{"code":"27146002002","name":"金岡町","lat":34.557388,"lng":135.520457},{"code":"27146002003","name":"金岡町","lat":34.553185,"lng":135.514623},{"code":"27146002004","name":"金岡町","lat":34.551424,"lng":135.523397},{"code":"27146003001","name":"北長尾町１丁","lat":34.575764,"lng":135.498429},{"code":"27146003002","name":"北長尾町２丁","lat":34.575948,"lng":135.499968},{"code":"27146003003","name":"北長尾町３丁","lat":34.576012,"lng":135.501263},{"code":"27146003004","name":"北長尾町４丁","lat":34.575874,"lng":135.502571},{"code":"27146003005","name":"北長尾町５丁","lat":34.575882,"lng":135.503703},{"code":"27146003006","name":"北長尾町６丁","lat":34.575772,"lng":135.504792},{"code":"27146003007","name":"北長尾町７丁","lat":34.575914,"lng":135.50615},{"code":"27146003008","name":"北長尾町８丁","lat":34.575581,"lng":135.507255},{"code":"27146004001","name":"北花田町１丁","lat":34.58082,"lng":135.515692},{"code":"27146004002","name":"北花田町２丁","lat":34.581011,"lng":135.5191},{"code":"27146004003","name":"北花田町３丁","lat":34.585826,"lng":135.517282},{"code":"27146004004","name":"北花田町４丁","lat":34.585132,"lng":135.520696},{"code":"27146005001","name":"蔵前町１丁","lat":34.575542,"lng":135.51038},{"code":"27146005002","name":"蔵前町２丁","lat":34.575861,"lng":135.514391},{"code":"27146005003","name":"蔵前町３丁","lat":34.575956,"lng":135.518596},{"code":"271460060","name":"黒土町","lat":34.564482,"lng":135.501557},{"code":"27146007001","name":"東雲東町１丁","lat":34.577584,"lng":135.500198},{"code":"27146007002","name":"東雲東町２丁","lat":34.578891,"lng":135.500684},{"code":"27146007003","name":"東雲東町３丁","lat":34.580445,"lng":135.501365},{"code":"27146007004","name":"東雲東町４丁","lat":34.582428,"lng":135.501926},{"code":"27146008001","name":"新金岡町１丁","lat":34.568535,"lng":135.512636},{"code":"27146008002","name":"新金岡町２丁","lat":34.572866,"lng":135.513145},{"code":"27146008003","name":"新金岡町３丁","lat":34.572543,"lng":135.519574},{"code":"27146008004","name":"新金岡町４丁","lat":34.568036,"lng":135.519388},{"code":"27146008005","name":"新金岡町５丁","lat":34.564396,"lng":135.520081},{"code":"27146009001","name":"新堀町１丁","lat":34.578143,"lng":135.50997},{"code":"27146009002","name":"新堀町２丁","lat":34.577802,"lng":135.514182},{"code":"27146010001","name":"船堂町１丁","lat":34.578088,"lng":135.518488},{"code":"27146010002","name":"船堂町２丁","lat":34.578493,"lng":135.521315},{"code":"27146011001","name":"常磐町１丁","lat":34.586139,"lng":135.505871},{"code":"27146011002","name":"常磐町２丁","lat":34.588668,"lng":135.512311},{"code":"27146011003","name":"常磐町３丁","lat":34.590677,"lng":135.51906},{"code":"27146012000","name":"長曽根町","lat":34.569947,"lng":135.506048},{"code":"27146012001","name":"長曽根町","lat":34.561976,"lng":135.508873},{"code":"27146013001","name":"中長尾町１丁","lat":34.573636,"lng":135.497275},{"code":"27146013002","name":"中長尾町２丁","lat":34.573815,"lng":135.498818},{"code":"27146013003","name":"中長尾町３丁","lat":34.573853,"lng":135.500048},{"code":"27146013004","name":"中長尾町４丁","lat":34.573938,"lng":135.501331},{"code":"271460140","name":"中村町","lat":34.564084,"lng":135.534248},{"code":"27146015001","name":"中百舌鳥町１丁","lat":34.559444,"lng":135.502341},{"code":"27146015002","name":"中百舌鳥町２丁","lat":34.556682,"lng":135.5053},{"code":"27146015003","name":"中百舌鳥町３丁","lat":34.554364,"lng":135.509016},{"code":"27146015004","name":"中百舌鳥町４丁","lat":34.556248,"lng":135.501014},{"code":"27146015005","name":"中百舌鳥町５丁","lat":34.554597,"lng":135.503724},{"code":"27146015006","name":"中百舌鳥町６丁","lat":34.551221,"lng":135.507992},{"code":"271460160","name":"野遠町","lat":34.562775,"lng":135.543303},{"code":"27146017001","name":"東浅香山町１丁","lat":34.581809,"lng":135.505981},{"code":"27146017002","name":"東浅香山町２丁","lat":34.584115,"lng":135.505782},{"code":"27146017003","name":"東浅香山町３丁","lat":34.584978,"lng":135.511108},{"code":"27146017004","name":"東浅香山町４丁","lat":34.585773,"lng":135.514527},{"code":"271460180","name":"東上野芝町","lat":34.551424,"lng":135.484376},{"code":"27146019001","name":"東三国ケ丘町１丁","lat":34.570589,"lng":135.496403},{"code":"27146019002","name":"東三国ケ丘町２丁","lat":34.570144,"lng":135.497749},{"code":"27146019003","name":"東三国ケ丘町３丁","lat":34.569374,"lng":135.499084},{"code":"27146019004","name":"東三国ケ丘町４丁","lat":34.569779,"lng":135.500348},{"code":"27146019005","name":"東三国ケ丘町５丁","lat":34.569205,"lng":135.50106},{"code":"27146020001","name":"大豆塚町１丁","lat":34.579036,"lng":135.50384},{"code":"27146020002","name":"大豆塚町２丁","lat":34.578402,"lng":135.507011},{"code":"27146021001","name":"南長尾町１丁","lat":34.571952,"lng":135.496233},{"code":"27146021002","name":"南長尾町２丁","lat":34.572012,"lng":135.497705},{"code":"27146021003","name":"南長尾町３丁","lat":34.571962,"lng":135.499091},{"code":"27146021004","name":"南長尾町４丁","lat":34.571999,"lng":135.500321},{"code":"27146021005","name":"南長尾町５丁","lat":34.572065,"lng":135.501357},{"code":"271460220","name":"南花田町","lat":34.568714,"lng":135.527433},{"code":"271460230","name":"宮本町","lat":34.580735,"lng":135.514548},{"code":"27146024001","name":"百舌鳥赤畑町１丁","lat":34.562973,"lng":135.492087},{"code":"27146024002","name":"百舌鳥赤畑町２丁","lat":34.561096,"lng":135.49211},{"code":"27146024003","name":"百舌鳥赤畑町３丁","lat":34.559328,"lng":135.49175},{"code":"27146024004","name":"百舌鳥赤畑町４丁","lat":34.557683,"lng":135.492156},{"code":"27146024005","name":"百舌鳥赤畑町５丁","lat":34.554843,"lng":135.494131},{"code":"27146025001","name":"百舌鳥梅北町１丁","lat":34.563571,"lng":135.493758},{"code":"27146025002","name":"百舌鳥梅北町２丁","lat":34.561748,"lng":135.495283},{"code":"27146025003","name":"百舌鳥梅北町３丁","lat":34.559435,"lng":135.496173},{"code":"27146025004","name":"百舌鳥梅北町４丁","lat":34.559358,"lng":135.498661},{"code":"27146025005","name":"百舌鳥梅北町５丁","lat":34.556743,"lng":135.49725},{"code":"27146026001","name":"百舌鳥梅町１丁","lat":34.552865,"lng":135.498449},{"code":"27146026002","name":"百舌鳥梅町２丁","lat":34.551092,"lng":135.495183},{"code":"27146026003","name":"百舌鳥梅町３丁","lat":34.55003,"lng":135.50159},{"code":"27146027001","name":"百舌鳥西之町１丁","lat":34.5499,"lng":135.490154},{"code":"27146027002","name":"百舌鳥西之町２丁","lat":34.548953,"lng":135.493739},{"code":"27146027003","name":"百舌鳥西之町３丁","lat":34.546837,"lng":135.497337},{"code":"27146028001","name":"百舌鳥本町１丁","lat":34.555555,"lng":135.489319},{"code":"27146028002","name":"百舌鳥本町２丁","lat":34.552922,"lng":135.490563},{"code":"27146028003","name":"百舌鳥本町３丁","lat":34.552463,"lng":135.487333},{"code":"27146029001","name":"百舌鳥陵南町１丁","lat":34.547505,"lng":135.488149},{"code":"27146029002","name":"百舌鳥陵南町２丁","lat":34.546432,"lng":135.490867},{"code":"27146029003","name":"百舌鳥陵南町３丁","lat":34.544505,"lng":135.492141},{"code":"271460300","name":"八下北","lat":34.559185,"lng":135.541674}]}
