{"municipality":"27143","name":"堺市東区","prefecture":"大阪府","source":{"dataset":"frogcat/japan-small-area","census":"平成27年国勢調査 小地域（e-Stat 統計LOD）","license":"MIT（リポジトリ）／政府統計の総合窓口(e-Stat)の利用規約（元データ・出典表記必要）","fetched":"2026-07-06"},"towns":[{"code":"27143001001","name":"石原町１丁","lat":34.556592,"lng":135.530362},{"code":"27143001002","name":"石原町２丁","lat":34.555652,"lng":135.535447},{"code":"27143001003","name":"石原町３丁","lat":34.552362,"lng":135.531356},{"code":"27143001004","name":"石原町４丁","lat":34.552043,"lng":135.539491},{"code":"271430020","name":"大美野","lat":34.526628,"lng":135.531568},{"code":"271430030","name":"北野田","lat":34.526831,"lng":135.548121},{"code":"271430040","name":"草尾","lat":34.520597,"lng":135.532441},{"code":"271430050","name":"丈六","lat":34.528158,"lng":135.539912},{"code":"27143006001","name":"白鷺町１丁","lat":34.547799,"lng":135.512923},{"code":"27143006002","name":"白鷺町２丁","lat":34.545713,"lng":135.516664},{"code":"27143006003","name":"白鷺町３丁","lat":34.548056,"lng":135.520909},{"code":"271430070","name":"関茶屋","lat":34.538337,"lng":135.518703},{"code":"271430080","name":"高松","lat":34.529855,"lng":135.534621},{"code":"271430090","name":"中茶屋","lat":34.526637,"lng":135.527136},{"code":"271430100","name":"西野","lat":34.51681,"lng":135.541149},{"code":"271430110","name":"野尻町","lat":34.542458,"lng":135.519665},{"code":"27143012000","name":"日置荘北町","lat":34.539371,"lng":135.537676},{"code":"27143012001","name":"日置荘北町１丁","lat":34.544195,"lng":135.536033},{"code":"27143012002","name":"日置荘北町２丁","lat":34.544069,"lng":135.539819},{"code":"27143012003","name":"日置荘北町３丁","lat":34.54144,"lng":135.537919},{"code":"271430130","name":"日置荘田中町","lat":34.534409,"lng":135.529405},{"code":"27143014001","name":"日置荘西町１丁","lat":34.54446,"lng":135.527961},{"code":"27143014002","name":"日置荘西町２丁","lat":34.542768,"lng":135.530903},{"code":"27143014003","name":"日置荘西町３丁","lat":34.540307,"lng":135.531909},{"code":"27143014004","name":"日置荘西町４丁","lat":34.541697,"lng":135.52501},{"code":"27143014005","name":"日置荘西町５丁","lat":34.538682,"lng":135.52935},{"code":"27143014006","name":"日置荘西町６丁","lat":34.537119,"lng":135.525925},{"code":"27143014007","name":"日置荘西町７丁","lat":34.536856,"lng":135.522787},{"code":"27143014008","name":"日置荘西町８丁","lat":34.531486,"lng":135.527246},{"code":"271430150","name":"日置荘原寺町","lat":34.536196,"lng":135.536993},{"code":"27143016001","name":"引野町１丁","lat":34.549342,"lng":135.523632},{"code":"27143016002","name":"引野町２丁","lat":34.550015,"lng":135.526343},{"code":"27143016003","name":"引野町３丁","lat":34.546384,"lng":135.526705},{"code":"27143017001","name":"菩提町１丁","lat":34.549446,"lng":135.529339},{"code":"27143017002","name":"菩提町２丁","lat":34.54921,"lng":135.532961},{"code":"27143017003","name":"菩提町３丁","lat":34.549652,"lng":135.536657},{"code":"27143017004","name":"菩提町４丁","lat":34.546462,"lng":135.531764},{"code":"27143017005","name":"菩提町５丁","lat":34.54671,"lng":135.536766},{"code":"271430180","name":"南野田","lat":34.520352,"lng":135.548585},{"code":"27143019001","name":"八下町１丁","lat":34.556688,"lng":135.540016},{"code":"27143019002","name":"八下町２丁","lat":34.55675,"lng":135.543152},{"code":"27143019003","name":"八下町３丁","lat":34.556898,"lng":135.545606}]}
