{"municipality":"27224","name":"摂津市","prefecture":"大阪府","source":{"dataset":"frogcat/japan-small-area","census":"平成27年国勢調査 小地域（e-Stat 統計LOD）","license":"MIT（リポジトリ）／政府統計の総合窓口(e-Stat)の利用規約（元データ・出典表記必要）","fetched":"2026-07-06"},"towns":[{"code":"27224001001","name":"千里丘１丁目","lat":34.792203,"lng":135.550565},{"code":"27224001002","name":"千里丘２丁目","lat":34.790009,"lng":135.548254},{"code":"27224001003","name":"千里丘３丁目","lat":34.788143,"lng":135.54614},{"code":"27224001004","name":"千里丘４丁目","lat":34.78546,"lng":135.546525},{"code":"27224001005","name":"千里丘５丁目","lat":34.787609,"lng":135.543208},{"code":"27224001006","name":"千里丘６丁目","lat":34.786823,"lng":135.539055},{"code":"27224001007","name":"千里丘７丁目","lat":34.784392,"lng":135.541588},{"code":"27224002001","name":"千里丘東１丁目","lat":34.792004,"lng":135.554192},{"code":"27224002002","name":"千里丘東２丁目","lat":34.78998,"lng":135.554259},{"code":"27224002003","name":"千里丘東３丁目","lat":34.788972,"lng":135.552445},{"code":"27224002004","name":"千里丘東４丁目","lat":34.786419,"lng":135.551525},{"code":"27224002005","name":"千里丘東５丁目","lat":34.783778,"lng":135.549142},{"code":"27224003001","name":"庄屋１丁目","lat":34.78113,"lng":135.548357},{"code":"27224003002","name":"庄屋２丁目","lat":34.783105,"lng":135.552254},{"code":"272240040","name":"阪急正雀","lat":34.77836,"lng":135.545862},{"code":"272240050","name":"香露園","lat":34.787078,"lng":135.556637},{"code":"272240060","name":"昭和園","lat":34.790244,"lng":135.559378},{"code":"27224007001","name":"桜町１丁目","lat":34.789661,"lng":135.561166},{"code":"27224007002","name":"桜町２丁目","lat":34.788009,"lng":135.561919},{"code":"27224008001","name":"学園町１丁目","lat":34.785899,"lng":135.560794},{"code":"27224008002","name":"学園町２丁目","lat":34.782736,"lng":135.560051},{"code":"27224009001","name":"鶴野１丁目","lat":34.777674,"lng":135.563663},{"code":"27224009002","name":"鶴野２丁目","lat":34.780768,"lng":135.562965},{"code":"27224009003","name":"鶴野３丁目","lat":34.779297,"lng":135.566351},{"code":"27224009004","name":"鶴野４丁目","lat":34.782924,"lng":135.565908},{"code":"27224010001","name":"三島１丁目","lat":34.776545,"lng":135.562053},{"code":"27224010002","name":"三島２丁目","lat":34.77627,"lng":135.558429},{"code":"27224010003","name":"三島３丁目","lat":34.780182,"lng":135.55612},{"code":"272240110","name":"南千里丘","lat":34.784262,"lng":135.555107},{"code":"272240120","name":"東正雀","lat":34.780836,"lng":135.552385},{"code":"27224013001","name":"正雀１丁目","lat":34.778599,"lng":135.54988},{"code":"27224013002","name":"正雀２丁目","lat":34.776928,"lng":135.551642},{"code":"27224013003","name":"正雀３丁目","lat":34.775249,"lng":135.552938},{"code":"27224013004","name":"正雀４丁目","lat":34.773402,"lng":135.55488},{"code":"27224014001","name":"正雀本町１丁目","lat":34.775815,"lng":135.548201},{"code":"27224014002","name":"正雀本町２丁目","lat":34.772584,"lng":135.55067},{"code":"272240150","name":"北別府町","lat":34.771862,"lng":135.55759},{"code":"272240160","name":"浜町","lat":34.769694,"lng":135.552814},{"code":"27224017000","name":"別府","lat":34.75569,"lng":135.554992},{"code":"27224017001","name":"別府１丁目","lat":34.766076,"lng":135.555242},{"code":"27224017002","name":"別府２丁目","lat":34.764439,"lng":135.553169},{"code":"27224017003","name":"別府３丁目","lat":34.76398,"lng":135.551228},{"code":"27224018001","name":"東別府１丁目","lat":34.771248,"lng":135.560916},{"code":"27224018002","name":"東別府２丁目","lat":34.768726,"lng":135.561323},{"code":"27224018003","name":"東別府３丁目","lat":34.766524,"lng":135.561881},{"code":"27224018004","name":"東別府４丁目","lat":34.766415,"lng":135.557605},{"code":"27224018005","name":"東別府５丁目","lat":34.769899,"lng":135.557298},{"code":"272240190","name":"南別府町","lat":34.759328,"lng":135.554022},{"code":"27224020000","name":"一津屋","lat":34.757198,"lng":135.564048},{"code":"27224020001","name":"一津屋１丁目","lat":34.761396,"lng":135.567792},{"code":"27224020002","name":"一津屋２丁目","lat":34.759653,"lng":135.563596},{"code":"27224020003","name":"一津屋３丁目","lat":34.765057,"lng":135.565183},{"code":"272240210","name":"東一津屋","lat":34.76624,"lng":135.569165},{"code":"272240220","name":"西一津屋","lat":34.76119,"lng":135.559878},{"code":"27224023000","name":"鳥飼上","lat":34.771221,"lng":135.588312},{"code":"27224023001","name":"鳥飼上１丁目","lat":34.783062,"lng":135.596748},{"code":"27224023002","name":"鳥飼上２丁目","lat":34.786656,"lng":135.596806},{"code":"27224023003","name":"鳥飼上３丁目","lat":34.787828,"lng":135.59289},{"code":"27224023004","name":"鳥飼上４丁目","lat":34.792302,"lng":135.597329},{"code":"27224023005","name":"鳥飼上５丁目","lat":34.792923,"lng":135.594769},{"code":"272240240","name":"鳥飼銘木町","lat":34.784602,"lng":135.593682},{"code":"27224025001","name":"鳥飼中１丁目","lat":34.779507,"lng":135.59168},{"code":"27224025002","name":"鳥飼中２丁目","lat":34.781674,"lng":135.589778},{"code":"27224025003","name":"鳥飼中３丁目","lat":34.783971,"lng":135.587797},{"code":"27224026001","name":"鳥飼新町１丁目","lat":34.786246,"lng":135.586509},{"code":"27224026002","name":"鳥飼新町２丁目","lat":34.789402,"lng":135.590413},{"code":"27224027001","name":"鳥飼八町１丁目","lat":34.789703,"lng":135.586984},{"code":"27224027002","name":"鳥飼八町２丁目","lat":34.795371,"lng":135.594017},{"code":"27224028001","name":"鳥飼下１丁目","lat":34.776494,"lng":135.588481},{"code":"27224028002","name":"鳥飼下２丁目","lat":34.77507,"lng":135.586383},{"code":"27224028003","name":"鳥飼下３丁目","lat":34.773417,"lng":135.583794},{"code":"27224029001","name":"鳥飼本町１丁目","lat":34.780236,"lng":135.585878},{"code":"27224029002","name":"鳥飼本町２丁目","lat":34.781632,"lng":135.580806},{"code":"27224029003","name":"鳥飼本町３丁目","lat":34.778816,"lng":135.583397},{"code":"27224029004","name":"鳥飼本町４丁目","lat":34.777412,"lng":135.580739},{"code":"27224029005","name":"鳥飼本町５丁目","lat":34.775881,"lng":135.578106},{"code":"272240300","name":"安威川南町","lat":34.77813,"lng":135.572438},{"code":"27224031001","name":"鳥飼野々１丁目","lat":34.77269,"lng":135.579395},{"code":"27224031002","name":"鳥飼野々２丁目","lat":34.77393,"lng":135.575732},{"code":"27224031003","name":"鳥飼野々３丁目","lat":34.775964,"lng":135.574279},{"code":"27224032001","name":"鳥飼八防１丁目","lat":34.771908,"lng":135.573503},{"code":"27224032002","name":"鳥飼八防２丁目","lat":34.7703,"lng":135.573884},{"code":"27224033001","name":"新在家１丁目","lat":34.772977,"lng":135.571138},{"code":"27224033002","name":"新在家２丁目","lat":34.770129,"lng":135.567736},{"code":"27224034001","name":"鳥飼西１丁目","lat":34.769155,"lng":135.582547},{"code":"27224034002","name":"鳥飼西２丁目","lat":34.770929,"lng":135.579452},{"code":"27224034003","name":"鳥飼西３丁目","lat":34.768376,"lng":135.578857},{"code":"27224034004","name":"鳥飼西４丁目","lat":34.765935,"lng":135.57913},{"code":"27224034005","name":"鳥飼西５丁目","lat":34.766327,"lng":135.573889},{"code":"27224035001","name":"鳥飼和道１丁目","lat":34.76246,"lng":135.571827},{"code":"27224035002","name":"鳥飼和道２丁目","lat":34.76129,"lng":135.569983},{"code":"272240360","name":"千里丘新町","lat":34.781651,"lng":135.544228}]}
