{"municipality":"27227","name":"東大阪市","prefecture":"大阪府","source":{"dataset":"frogcat/japan-small-area","census":"平成27年国勢調査 小地域（e-Stat 統計LOD）","license":"MIT（リポジトリ）／政府統計の総合窓口(e-Stat)の利用規約（元データ・出典表記必要）","fetched":"2026-07-06"},"towns":[{"code":"27227005001","name":"新喜多１丁目","lat":34.671951,"lng":135.574399},{"code":"27227005002","name":"新喜多２丁目","lat":34.672259,"lng":135.575201},{"code":"272270080","name":"徳庵本町","lat":34.695069,"lng":135.582644},{"code":"27227009001","name":"稲田上町１丁目","lat":34.692289,"lng":135.583869},{"code":"27227009002","name":"稲田上町２丁目","lat":34.694607,"lng":135.586642},{"code":"27227010001","name":"稲田新町１丁目","lat":34.689171,"lng":135.583413},{"code":"27227010002","name":"稲田新町２丁目","lat":34.690088,"lng":135.587224},{"code":"27227010003","name":"稲田新町３丁目","lat":34.6898,"lng":135.591474},{"code":"27227011001","name":"稲田本町１丁目","lat":34.686392,"lng":135.576064},{"code":"27227011002","name":"稲田本町２丁目","lat":34.685514,"lng":135.579908},{"code":"27227011003","name":"稲田本町３丁目","lat":34.689243,"lng":135.580277},{"code":"272270120","name":"稲田三島町","lat":34.694273,"lng":135.59084},{"code":"272270130","name":"七軒家","lat":34.686482,"lng":135.591237},{"code":"27227014001","name":"楠根１丁目","lat":34.683069,"lng":135.584858},{"code":"27227014002","name":"楠根２丁目","lat":34.685091,"lng":135.584975},{"code":"27227014003","name":"楠根３丁目","lat":34.686978,"lng":135.585542},{"code":"272270160","name":"川俣本町","lat":34.681169,"lng":135.580935},{"code":"27227017001","name":"川俣１丁目","lat":34.68048,"lng":135.575478},{"code":"27227017002","name":"川俣２丁目","lat":34.684345,"lng":135.574994},{"code":"27227017003","name":"川俣３丁目","lat":34.680434,"lng":135.57947},{"code":"27227018001","name":"西堤１丁目","lat":34.678031,"lng":135.576691},{"code":"27227018002","name":"西堤２丁目","lat":34.678123,"lng":135.580032},{"code":"27227021001","name":"西堤楠町１丁目","lat":34.671958,"lng":135.576379},{"code":"27227021002","name":"西堤楠町２丁目","lat":34.673535,"lng":135.576238},{"code":"27227021003","name":"西堤楠町３丁目","lat":34.675809,"lng":135.57605},{"code":"27227022001","name":"西堤本通西１丁目","lat":34.670699,"lng":135.578025},{"code":"27227022002","name":"西堤本通西２丁目","lat":34.673275,"lng":135.578128},{"code":"27227022003","name":"西堤本通西３丁目","lat":34.675915,"lng":135.57805},{"code":"27227023001","name":"西堤本通東１丁目","lat":34.670976,"lng":135.580408},{"code":"27227023002","name":"西堤本通東２丁目","lat":34.673422,"lng":135.580093},{"code":"27227023003","name":"西堤本通東３丁目","lat":34.676073,"lng":135.579856},{"code":"27227024001","name":"西堤学園町１丁目","lat":34.671236,"lng":135.582012},{"code":"27227024002","name":"西堤学園町２丁目","lat":34.673606,"lng":135.581925},{"code":"27227024003","name":"西堤学園町３丁目","lat":34.676207,"lng":135.581685},{"code":"27227028001","name":"長田西１丁目","lat":34.677735,"lng":135.583606},{"code":"27227028002","name":"長田西２丁目","lat":34.677748,"lng":135.586269},{"code":"27227028003","name":"長田西３丁目","lat":34.679657,"lng":135.583585},{"code":"27227028004","name":"長田西４丁目","lat":34.679495,"lng":135.586492},{"code":"27227028005","name":"長田西５丁目","lat":34.681244,"lng":135.58354},{"code":"27227028006","name":"長田西６丁目","lat":34.681214,"lng":135.586622},{"code":"27227029001","name":"長田中１丁目","lat":34.677987,"lng":135.589935},{"code":"27227029002","name":"長田中２丁目","lat":34.679414,"lng":135.589982},{"code":"27227029003","name":"長田中３丁目","lat":34.681189,"lng":135.590116},{"code":"27227029004","name":"長田中４丁目","lat":34.682998,"lng":135.590211},{"code":"27227029005","name":"長田中５丁目","lat":34.684524,"lng":135.59033},{"code":"27227030001","name":"長田東１丁目","lat":34.677684,"lng":135.594664},{"code":"27227030002","name":"長田東２丁目","lat":34.67937,"lng":135.594155},{"code":"27227030003","name":"長田東３丁目","lat":34.681186,"lng":135.593868},{"code":"27227030004","name":"長田東４丁目","lat":34.682979,"lng":135.59363},{"code":"27227030005","name":"長田東５丁目","lat":34.684465,"lng":135.593433},{"code":"27227035001","name":"荒本北１丁目","lat":34.680373,"lng":135.598838},{"code":"27227035002","name":"荒本北２丁目","lat":34.67997,"lng":135.602683},{"code":"27227035003","name":"荒本北３丁目","lat":34.683475,"lng":135.596759},{"code":"27227036001","name":"荒本１丁目","lat":34.672071,"lng":135.60345},{"code":"27227036002","name":"荒本２丁目","lat":34.6751,"lng":135.603603},{"code":"27227037001","name":"荒本西１丁目","lat":34.672126,"lng":135.599637},{"code":"27227037002","name":"荒本西２丁目","lat":34.674215,"lng":135.599701},{"code":"27227037003","name":"荒本西３丁目","lat":34.67583,"lng":135.599811},{"code":"27227037004","name":"荒本西４丁目","lat":34.677626,"lng":135.599155},{"code":"27227042001","name":"御厨西ノ町１丁目","lat":34.672148,"lng":135.58322},{"code":"27227042002","name":"御厨西ノ町２丁目","lat":34.67566,"lng":135.583263},{"code":"27227044001","name":"御厨東１丁目","lat":34.668661,"lng":135.592194},{"code":"27227044002","name":"御厨東２丁目","lat":34.668057,"lng":135.59476},{"code":"27227045001","name":"御厨中１丁目","lat":34.668938,"lng":135.586877},{"code":"27227045002","name":"御厨中２丁目","lat":34.668847,"lng":135.589649},{"code":"27227046001","name":"御厨南１丁目","lat":34.666317,"lng":135.5879},{"code":"27227046002","name":"御厨南２丁目","lat":34.666165,"lng":135.590003},{"code":"27227046003","name":"御厨南３丁目","lat":34.665749,"lng":135.592234},{"code":"27227047001","name":"御厨栄町１丁目","lat":34.666302,"lng":135.582098},{"code":"27227047002","name":"御厨栄町２丁目","lat":34.668529,"lng":135.581595},{"code":"27227047003","name":"御厨栄町３丁目","lat":34.668606,"lng":135.584225},{"code":"27227047004","name":"御厨栄町４丁目","lat":34.666441,"lng":135.585204},{"code":"27227049001","name":"高井田元町１丁目","lat":34.666621,"lng":135.573215},{"code":"27227049002","name":"高井田元町２丁目","lat":34.666245,"lng":135.57575},{"code":"27227050001","name":"高井田西１丁目","lat":34.66988,"lng":135.563542},{"code":"27227050002","name":"高井田西２丁目","lat":34.671589,"lng":135.563642},{"code":"27227050003","name":"高井田西３丁目","lat":34.673616,"lng":135.563827},{"code":"27227050004","name":"高井田西４丁目","lat":34.675613,"lng":135.564221},{"code":"27227050005","name":"高井田西５丁目","lat":34.677424,"lng":135.564348},{"code":"27227050006","name":"高井田西６丁目","lat":34.67904,"lng":135.565178},{"code":"27227051001","name":"高井田本通１丁目","lat":34.670722,"lng":135.565899},{"code":"27227051002","name":"高井田本通２丁目","lat":34.67069,"lng":135.567483},{"code":"27227051003","name":"高井田本通３丁目","lat":34.673995,"lng":135.566058},{"code":"27227051004","name":"高井田本通４丁目","lat":34.673938,"lng":135.567638},{"code":"27227051005","name":"高井田本通５丁目","lat":34.676892,"lng":135.566197},{"code":"27227051006","name":"高井田本通６丁目","lat":34.676869,"lng":135.567783},{"code":"27227051007","name":"高井田本通７丁目","lat":34.67891,"lng":135.569202},{"code":"27227052001","name":"高井田中１丁目","lat":34.669917,"lng":135.570141},{"code":"27227052002","name":"高井田中２丁目","lat":34.671632,"lng":135.570214},{"code":"27227052003","name":"高井田中３丁目","lat":34.673423,"lng":135.570259},{"code":"27227052004","name":"高井田中４丁目","lat":34.675418,"lng":135.570301},{"code":"27227052005","name":"高井田中５丁目","lat":34.677291,"lng":135.570425},{"code":"272270540","name":"長栄寺","lat":34.666536,"lng":135.570713},{"code":"27227055001","name":"長堂１丁目","lat":34.666565,"lng":135.563445},{"code":"27227055002","name":"長堂２丁目","lat":34.666669,"lng":135.565559},{"code":"27227055003","name":"長堂３丁目","lat":34.666656,"lng":135.567718},{"code":"27227057001","name":"足代北１丁目","lat":34.666822,"lng":135.558444},{"code":"27227057002","name":"足代北２丁目","lat":34.66684,"lng":135.560776},{"code":"272270580","name":"足代新町","lat":34.664823,"lng":135.559488},{"code":"27227059001","name":"足代１丁目","lat":34.663081,"lng":135.560961},{"code":"27227059002","name":"足代２丁目","lat":34.662595,"lng":135.563886},{"code":"27227059003","name":"足代３丁目","lat":34.662382,"lng":135.565467},{"code":"27227060001","name":"足代南１丁目","lat":34.660037,"lng":135.562247},{"code":"27227060002","name":"足代南２丁目","lat":34.660861,"lng":135.56471},{"code":"27227061001","name":"三ノ瀬１丁目","lat":34.659219,"lng":135.564396},{"code":"27227061002","name":"三ノ瀬２丁目","lat":34.65916,"lng":135.566043},{"code":"27227061003","name":"三ノ瀬３丁目","lat":34.659524,"lng":135.567141},{"code":"27227062001","name":"岸田堂西１丁目","lat":34.655476,"lng":135.560484},{"code":"27227062002","name":"岸田堂西２丁目","lat":34.654062,"lng":135.561193},{"code":"272270630","name":"岸田堂北町","lat":34.656237,"lng":135.564163},{"code":"272270640","name":"岸田堂南町","lat":34.65396,"lng":135.564576},{"code":"27227065001","name":"寺前町１丁目","lat":34.656776,"lng":135.565868},{"code":"27227065002","name":"寺前町２丁目","lat":34.654595,"lng":135.566337},{"code":"27227066001","name":"太平寺１丁目","lat":34.656821,"lng":135.567911},{"code":"27227066002","name":"太平寺２丁目","lat":34.654515,"lng":135.568168},{"code":"27227067001","name":"寿町１丁目","lat":34.651491,"lng":135.56936},{"code":"27227067002","name":"寿町２丁目","lat":34.651046,"lng":135.566998},{"code":"27227067003","name":"寿町３丁目","lat":34.651465,"lng":135.563792},{"code":"27227069001","name":"荒川１丁目","lat":34.661904,"lng":135.567749},{"code":"27227069002","name":"荒川２丁目","lat":34.659154,"lng":135.569102},{"code":"27227069003","name":"荒川３丁目","lat":34.662078,"lng":135.57043},{"code":"27227070001","name":"俊徳町１丁目","lat":34.657261,"lng":135.570704},{"code":"27227070002","name":"俊徳町２丁目","lat":34.656275,"lng":135.571146},{"code":"27227070003","name":"俊徳町３丁目","lat":34.655232,"lng":135.571893},{"code":"27227070004","name":"俊徳町４丁目","lat":34.654237,"lng":135.571725},{"code":"27227070005","name":"俊徳町５丁目","lat":34.65323,"lng":135.571848},{"code":"27227071001","name":"永和１丁目","lat":34.66089,"lng":135.573111},{"code":"27227071002","name":"永和２丁目","lat":34.660864,"lng":135.575008},{"code":"27227071003","name":"永和３丁目","lat":34.659693,"lng":135.576889},{"code":"27227072001","name":"横沼町１丁目","lat":34.653299,"lng":135.576258},{"code":"27227072002","name":"横沼町２丁目","lat":34.65524,"lng":135.575924},{"code":"27227072003","name":"横沼町３丁目","lat":34.656667,"lng":135.57537},{"code":"27227074001","name":"菱屋西１丁目","lat":34.653199,"lng":135.579252},{"code":"27227074002","name":"菱屋西２丁目","lat":34.65384,"lng":135.577991},{"code":"27227074003","name":"菱屋西３丁目","lat":34.660742,"lng":135.579371},{"code":"27227074004","name":"菱屋西４丁目","lat":34.660723,"lng":135.577982},{"code":"27227074005","name":"菱屋西５丁目","lat":34.66566,"lng":135.57878},{"code":"27227074006","name":"菱屋西６丁目","lat":34.668022,"lng":135.578257},{"code":"27227075001","name":"小阪１丁目","lat":34.664817,"lng":135.581289},{"code":"27227075002","name":"小阪２丁目","lat":34.664551,"lng":135.586314},{"code":"27227075003","name":"小阪３丁目","lat":34.66412,"lng":135.591329},{"code":"27227076001","name":"小阪本町１丁目","lat":34.662318,"lng":135.580896},{"code":"27227076002","name":"小阪本町２丁目","lat":34.658826,"lng":135.581054},{"code":"27227077001","name":"下小阪１丁目","lat":34.661514,"lng":135.583103},{"code":"27227077002","name":"下小阪２丁目","lat":34.662862,"lng":135.586299},{"code":"27227077003","name":"下小阪３丁目","lat":34.661096,"lng":135.586359},{"code":"27227077004","name":"下小阪４丁目","lat":34.661208,"lng":135.591428},{"code":"27227077005","name":"下小阪５丁目","lat":34.662797,"lng":135.591531},{"code":"27227078001","name":"中小阪１丁目","lat":34.657838,"lng":135.583627},{"code":"27227078002","name":"中小阪２丁目","lat":34.659434,"lng":135.587115},{"code":"27227078003","name":"中小阪３丁目","lat":34.657733,"lng":135.587422},{"code":"27227078004","name":"中小阪４丁目","lat":34.657758,"lng":135.591696},{"code":"27227078005","name":"中小阪５丁目","lat":34.659556,"lng":135.591541},{"code":"27227079001","name":"宝持１丁目","lat":34.656379,"lng":135.587059},{"code":"27227079002","name":"宝持２丁目","lat":34.655012,"lng":135.588053},{"code":"27227079003","name":"宝持３丁目","lat":34.654455,"lng":135.592018},{"code":"27227079004","name":"宝持４丁目","lat":34.656157,"lng":135.591954},{"code":"27227080001","name":"上小阪１丁目","lat":34.654873,"lng":135.581352},{"code":"27227080002","name":"上小阪２丁目","lat":34.65477,"lng":135.582692},{"code":"27227080003","name":"上小阪３丁目","lat":34.654512,"lng":135.584755},{"code":"27227080004","name":"上小阪４丁目","lat":34.653616,"lng":135.587414},{"code":"272270810","name":"西上小阪","lat":34.652297,"lng":135.580765},{"code":"272270820","name":"東上小阪","lat":34.653224,"lng":135.591355},{"code":"272270830","name":"新上小阪","lat":34.650732,"lng":135.591888},{"code":"272270840","name":"南上小阪","lat":34.647182,"lng":135.592157},{"code":"27227085001","name":"小若江１丁目","lat":34.649899,"lng":135.581233},{"code":"27227085002","name":"小若江２丁目","lat":34.649463,"lng":135.584347},{"code":"27227085003","name":"小若江３丁目","lat":34.650199,"lng":135.587452},{"code":"27227085004","name":"小若江４丁目","lat":34.652092,"lng":135.583496},{"code":"27227086001","name":"近江堂１丁目","lat":34.646371,"lng":135.581223},{"code":"27227086002","name":"近江堂２丁目","lat":34.646661,"lng":135.583685},{"code":"27227086003","name":"近江堂３丁目","lat":34.64658,"lng":135.587766},{"code":"27227087001","name":"友井１丁目","lat":34.644533,"lng":135.58317},{"code":"27227087002","name":"友井２丁目","lat":34.643936,"lng":135.587109},{"code":"27227087003","name":"友井３丁目","lat":34.641018,"lng":135.585249},{"code":"27227087004","name":"友井４丁目","lat":34.641406,"lng":135.58877},{"code":"27227087005","name":"友井５丁目","lat":34.64321,"lng":135.592375},{"code":"272270880","name":"金物町","lat":34.644016,"lng":135.593286},{"code":"272270890","name":"源氏ケ丘","lat":34.644871,"lng":135.579711},{"code":"27227090001","name":"吉松１丁目","lat":34.647812,"lng":135.577542},{"code":"27227090002","name":"吉松２丁目","lat":34.6469,"lng":135.576289},{"code":"27227091001","name":"長瀬町１丁目","lat":34.6513,"lng":135.574812},{"code":"27227091002","name":"長瀬町２丁目","lat":34.649285,"lng":135.574402},{"code":"27227091003","name":"長瀬町３丁目","lat":34.650572,"lng":135.571607},{"code":"272270920","name":"柏田本町","lat":34.646111,"lng":135.571046},{"code":"272270930","name":"柏田東町","lat":34.64717,"lng":135.573574},{"code":"27227094001","name":"柏田西１丁目","lat":34.649162,"lng":135.567619},{"code":"27227094002","name":"柏田西２丁目","lat":34.647139,"lng":135.56738},{"code":"27227094003","name":"柏田西３丁目","lat":34.644416,"lng":135.567065},{"code":"27227095001","name":"渋川町１丁目","lat":34.649124,"lng":135.562922},{"code":"27227095002","name":"渋川町２丁目","lat":34.64692,"lng":135.562977},{"code":"27227095003","name":"渋川町３丁目","lat":34.644239,"lng":135.563132},{"code":"27227095004","name":"渋川町４丁目","lat":34.641878,"lng":135.563241},{"code":"27227096001","name":"衣摺１丁目","lat":34.643553,"lng":135.576447},{"code":"27227096002","name":"衣摺２丁目","lat":34.643906,"lng":135.571845},{"code":"27227096003","name":"衣摺３丁目","lat":34.641692,"lng":135.574296},{"code":"27227096004","name":"衣摺４丁目","lat":34.639428,"lng":135.574244},{"code":"27227096005","name":"衣摺５丁目","lat":34.640452,"lng":135.569361},{"code":"27227096006","name":"衣摺６丁目","lat":34.640866,"lng":135.566642},{"code":"27227097001","name":"金岡１丁目","lat":34.641914,"lng":135.581083},{"code":"27227097002","name":"金岡２丁目","lat":34.63917,"lng":135.584048},{"code":"27227097003","name":"金岡３丁目","lat":34.636995,"lng":135.585693},{"code":"27227097004","name":"金岡４丁目","lat":34.634273,"lng":135.587844},{"code":"27227098001","name":"大蓮東１丁目","lat":34.641271,"lng":135.579239},{"code":"27227098002","name":"大蓮東２丁目","lat":34.638131,"lng":135.582341},{"code":"27227098003","name":"大蓮東３丁目","lat":34.636068,"lng":135.582759},{"code":"27227098004","name":"大蓮東４丁目","lat":34.63346,"lng":135.585744},{"code":"27227098005","name":"大蓮東５丁目","lat":34.633703,"lng":135.582748},{"code":"27227099001","name":"大蓮北１丁目","lat":34.638941,"lng":135.578798},{"code":"27227099002","name":"大蓮北２丁目","lat":34.637148,"lng":135.579583},{"code":"27227099003","name":"大蓮北３丁目","lat":34.63712,"lng":135.57553},{"code":"27227099004","name":"大蓮北４丁目","lat":34.637176,"lng":135.570942},{"code":"27227100001","name":"大蓮南１丁目","lat":34.635207,"lng":135.579743},{"code":"27227100002","name":"大蓮南２丁目","lat":34.633328,"lng":135.579833},{"code":"27227100003","name":"大蓮南３丁目","lat":34.633301,"lng":135.576313},{"code":"27227100004","name":"大蓮南４丁目","lat":34.635138,"lng":135.575666},{"code":"27227100005","name":"大蓮南５丁目","lat":34.635072,"lng":135.571253},{"code":"272271010","name":"鴻池徳庵町","lat":34.69761,"lng":135.586286},{"code":"27227102001","name":"西鴻池町１丁目","lat":34.699885,"lng":135.595091},{"code":"27227102002","name":"西鴻池町２丁目","lat":34.698455,"lng":135.594833},{"code":"27227102003","name":"西鴻池町３丁目","lat":34.697961,"lng":135.590427},{"code":"27227102004","name":"西鴻池町４丁目","lat":34.700273,"lng":135.590342},{"code":"272271030","name":"鴻池本町","lat":34.699879,"lng":135.60081},{"code":"272271040","name":"鴻池元町","lat":34.697944,"lng":135.600497},{"code":"272271050","name":"北鴻池町","lat":34.701935,"lng":135.594155},{"code":"27227106001","name":"鴻池町１丁目","lat":34.699065,"lng":135.605388},{"code":"27227106002","name":"鴻池町２丁目","lat":34.697508,"lng":135.605182},{"code":"27227107001","name":"中鴻池町１丁目","lat":34.696627,"lng":135.594383},{"code":"27227107002","name":"中鴻池町２丁目","lat":34.696225,"lng":135.59885},{"code":"27227107003","name":"中鴻池町３丁目","lat":34.696128,"lng":135.603774},{"code":"27227108001","name":"南鴻池町１丁目","lat":34.69448,"lng":135.598894},{"code":"27227108002","name":"南鴻池町２丁目","lat":34.694351,"lng":135.603529},{"code":"27227109001","name":"東鴻池町１丁目","lat":34.695422,"lng":135.615335},{"code":"27227109002","name":"東鴻池町２丁目","lat":34.6925,"lng":135.614992},{"code":"27227109003","name":"東鴻池町３丁目","lat":34.690443,"lng":135.614629},{"code":"27227109004","name":"東鴻池町４丁目","lat":34.693901,"lng":135.608833},{"code":"27227109005","name":"東鴻池町５丁目","lat":34.695894,"lng":135.609998},{"code":"27227112001","name":"新庄１丁目","lat":34.689535,"lng":135.6054},{"code":"27227112002","name":"新庄２丁目","lat":34.691452,"lng":135.602413},{"code":"27227112003","name":"新庄３丁目","lat":34.692431,"lng":135.606292},{"code":"27227112004","name":"新庄４丁目","lat":34.690255,"lng":135.609047},{"code":"272271151","name":"新庄東","lat":34.687648,"lng":135.607917},{"code":"27227117001","name":"本庄西１丁目","lat":34.684035,"lng":135.599301},{"code":"27227117002","name":"本庄西２丁目","lat":34.686266,"lng":135.599484},{"code":"27227117003","name":"本庄西３丁目","lat":34.687594,"lng":135.595713},{"code":"27227118001","name":"本庄中１丁目","lat":34.683717,"lng":135.604027},{"code":"27227118002","name":"本庄中２丁目","lat":34.686106,"lng":135.603665},{"code":"272271190","name":"本庄東","lat":34.686038,"lng":135.608833},{"code":"272271210","name":"横枕西","lat":34.680669,"lng":135.604871},{"code":"27227123101","name":"中野１丁目","lat":34.680133,"lng":135.609806},{"code":"27227123102","name":"中野２丁目","lat":34.682234,"lng":135.612143},{"code":"27227132001","name":"松原南１丁目","lat":34.669679,"lng":135.62732},{"code":"27227132002","name":"松原南２丁目","lat":34.670189,"lng":135.631023},{"code":"27227140001","name":"吉田１丁目","lat":34.663814,"lng":135.619243},{"code":"27227140002","name":"吉田２丁目","lat":34.66692,"lng":135.619673},{"code":"27227140003","name":"吉田３丁目","lat":34.667899,"lng":135.621956},{"code":"27227140004","name":"吉田４丁目","lat":34.670194,"lng":135.622323},{"code":"27227140005","name":"吉田５丁目","lat":34.664836,"lng":135.623195},{"code":"27227140006","name":"吉田６丁目","lat":34.664743,"lng":135.625838},{"code":"27227140007","name":"吉田７丁目","lat":34.665062,"lng":135.628132},{"code":"27227140008","name":"吉田８丁目","lat":34.665616,"lng":135.630327},{"code":"27227140009","name":"吉田９丁目","lat":34.66443,"lng":135.631653},{"code":"27227143001","name":"稲葉１丁目","lat":34.669659,"lng":135.612486},{"code":"27227143002","name":"稲葉２丁目","lat":34.66953,"lng":135.61679},{"code":"27227143003","name":"稲葉３丁目","lat":34.665841,"lng":135.616938},{"code":"27227143004","name":"稲葉４丁目","lat":34.667217,"lng":135.613091},{"code":"27227144001","name":"菱屋東１丁目","lat":34.665811,"lng":135.612711},{"code":"27227144002","name":"菱屋東２丁目","lat":34.669688,"lng":135.607803},{"code":"27227144003","name":"菱屋東３丁目","lat":34.673727,"lng":135.60586},{"code":"27227145001","name":"西岩田１丁目","lat":34.6651,"lng":135.603263},{"code":"27227145002","name":"西岩田２丁目","lat":34.664868,"lng":135.600081},{"code":"27227145003","name":"西岩田３丁目","lat":34.666551,"lng":135.596713},{"code":"27227145004","name":"西岩田４丁目","lat":34.668629,"lng":135.600439},{"code":"27227146001","name":"岩田町１丁目","lat":34.664014,"lng":135.612337},{"code":"27227146002","name":"岩田町２丁目","lat":34.660999,"lng":135.611078},{"code":"27227146003","name":"岩田町３丁目","lat":34.661288,"lng":135.607876},{"code":"27227146004","name":"岩田町４丁目","lat":34.664158,"lng":135.607072},{"code":"27227146005","name":"岩田町５丁目","lat":34.666912,"lng":135.607125},{"code":"27227146006","name":"岩田町６丁目","lat":34.668639,"lng":135.604269},{"code":"27227147001","name":"瓜生堂１丁目","lat":34.66234,"lng":135.602169},{"code":"27227147002","name":"瓜生堂２丁目","lat":34.660572,"lng":135.604134},{"code":"27227147003","name":"瓜生堂３丁目","lat":34.663105,"lng":135.596363},{"code":"27227148001","name":"若江西新町１丁目","lat":34.661186,"lng":135.596314},{"code":"27227148002","name":"若江西新町２丁目","lat":34.658659,"lng":135.596696},{"code":"27227148003","name":"若江西新町３丁目","lat":34.656423,"lng":135.596767},{"code":"27227148004","name":"若江西新町４丁目","lat":34.653956,"lng":135.596194},{"code":"27227148005","name":"若江西新町５丁目","lat":34.651679,"lng":135.595868},{"code":"27227149001","name":"若江北町１丁目","lat":34.660446,"lng":135.600323},{"code":"27227149002","name":"若江北町２丁目","lat":34.658593,"lng":135.601064},{"code":"27227149003","name":"若江北町３丁目","lat":34.656189,"lng":135.601248},{"code":"27227150001","name":"若江南町１丁目","lat":34.653025,"lng":135.606013},{"code":"27227150002","name":"若江南町２丁目","lat":34.653579,"lng":135.603272},{"code":"27227150003","name":"若江南町３丁目","lat":34.653685,"lng":135.599808},{"code":"27227150004","name":"若江南町４丁目","lat":34.651484,"lng":135.603348},{"code":"27227150005","name":"若江南町５丁目","lat":34.651527,"lng":135.599498},{"code":"27227151001","name":"若江本町１丁目","lat":34.658531,"lng":135.607668},{"code":"27227151002","name":"若江本町２丁目","lat":34.658578,"lng":135.604727},{"code":"27227151003","name":"若江本町３丁目","lat":34.656204,"lng":135.607242},{"code":"27227151004","name":"若江本町４丁目","lat":34.656273,"lng":135.604706},{"code":"27227152001","name":"若江東町１丁目","lat":34.65846,"lng":135.610953},{"code":"27227152002","name":"若江東町２丁目","lat":34.656613,"lng":135.612455},{"code":"27227152003","name":"若江東町３丁目","lat":34.655995,"lng":135.609486},{"code":"27227152004","name":"若江東町４丁目","lat":34.653966,"lng":135.611645},{"code":"27227152005","name":"若江東町５丁目","lat":34.651494,"lng":135.611729},{"code":"27227152006","name":"若江東町６丁目","lat":34.65217,"lng":135.608277},{"code":"27227153001","name":"花園西町１丁目","lat":34.661195,"lng":135.614367},{"code":"27227153002","name":"花園西町２丁目","lat":34.658523,"lng":135.615059},{"code":"27227154001","name":"花園本町１丁目","lat":34.661538,"lng":135.617756},{"code":"27227154002","name":"花園本町２丁目","lat":34.658745,"lng":135.618111},{"code":"27227155001","name":"花園東町１丁目","lat":34.660082,"lng":135.620898},{"code":"27227155002","name":"花園東町２丁目","lat":34.660866,"lng":135.623985},{"code":"27227155003","name":"花園東町３丁目","lat":34.658299,"lng":135.623885},{"code":"27227156001","name":"玉串町西１丁目","lat":34.656487,"lng":135.615489},{"code":"27227156002","name":"玉串町西２丁目","lat":34.653875,"lng":135.615232},{"code":"27227156003","name":"玉串町西３丁目","lat":34.651394,"lng":135.61488},{"code":"27227157001","name":"玉串元町１丁目","lat":34.655222,"lng":135.618251},{"code":"27227157002","name":"玉串元町２丁目","lat":34.651227,"lng":135.617897},{"code":"27227158001","name":"玉串町東１丁目","lat":34.656422,"lng":135.622627},{"code":"27227158002","name":"玉串町東２丁目","lat":34.652978,"lng":135.62081},{"code":"27227158003","name":"玉串町東３丁目","lat":34.652996,"lng":135.62378},{"code":"27227159001","name":"善根寺町１丁目","lat":34.697587,"lng":135.66258},{"code":"27227159002","name":"善根寺町２丁目","lat":34.698491,"lng":135.646258},{"code":"27227159003","name":"善根寺町３丁目","lat":34.698406,"lng":135.641704},{"code":"27227159004","name":"善根寺町４丁目","lat":34.700742,"lng":135.641645},{"code":"27227159005","name":"善根寺町５丁目","lat":34.700778,"lng":135.646327},{"code":"27227159006","name":"善根寺町６丁目","lat":34.700583,"lng":135.655766},{"code":"272271600","name":"池之端町","lat":34.696628,"lng":135.649493},{"code":"27227161001","name":"元町１丁目","lat":34.695594,"lng":135.634922},{"code":"27227161002","name":"元町２丁目","lat":34.697834,"lng":135.635741},{"code":"27227162001","name":"布市町１丁目","lat":34.692921,"lng":135.640728},{"code":"27227162002","name":"布市町２丁目","lat":34.692873,"lng":135.638505},{"code":"27227162003","name":"布市町３丁目","lat":34.693062,"lng":135.635827},{"code":"27227162004","name":"布市町４丁目","lat":34.696733,"lng":135.639444},{"code":"27227163001","name":"日下町１丁目","lat":34.689601,"lng":135.657355},{"code":"27227163002","name":"日下町２丁目","lat":34.691798,"lng":135.649563},{"code":"27227163003","name":"日下町３丁目","lat":34.691867,"lng":135.645784},{"code":"27227163004","name":"日下町４丁目","lat":34.69231,"lng":135.643142},{"code":"27227163005","name":"日下町５丁目","lat":34.695869,"lng":135.642764},{"code":"27227163006","name":"日下町６丁目","lat":34.694885,"lng":135.645976},{"code":"27227163007","name":"日下町７丁目","lat":34.694413,"lng":135.650563},{"code":"27227163008","name":"日下町８丁目","lat":34.693231,"lng":135.662319},{"code":"272271640","name":"北石切町","lat":34.688669,"lng":135.649285},{"code":"27227165001","name":"中石切町１丁目","lat":34.683763,"lng":135.644934},{"code":"27227165002","name":"中石切町２丁目","lat":34.685774,"lng":135.645994},{"code":"27227165003","name":"中石切町３丁目","lat":34.686253,"lng":135.639891},{"code":"27227165004","name":"中石切町４丁目","lat":34.688691,"lng":135.645538},{"code":"27227165005","name":"中石切町５丁目","lat":34.688972,"lng":135.640356},{"code":"27227165006","name":"中石切町６丁目","lat":34.689182,"lng":135.635187},{"code":"27227165007","name":"中石切町７丁目","lat":34.68642,"lng":135.635007},{"code":"27227166001","name":"西石切町１丁目","lat":34.680923,"lng":135.644014},{"code":"27227166002","name":"西石切町２丁目","lat":34.683607,"lng":135.64089},{"code":"27227166003","name":"西石切町３丁目","lat":34.68109,"lng":135.640513},{"code":"27227166004","name":"西石切町４丁目","lat":34.683834,"lng":135.637715},{"code":"27227166005","name":"西石切町５丁目","lat":34.681132,"lng":135.637542},{"code":"27227166006","name":"西石切町６丁目","lat":34.683964,"lng":135.634997},{"code":"27227166007","name":"西石切町７丁目","lat":34.68123,"lng":135.634838},{"code":"27227167001","name":"東石切町１丁目","lat":34.681566,"lng":135.647321},{"code":"27227167002","name":"東石切町２丁目","lat":34.681073,"lng":135.650307},{"code":"27227167003","name":"東石切町３丁目","lat":34.681208,"lng":135.652477},{"code":"27227167004","name":"東石切町４丁目","lat":34.685313,"lng":135.653013},{"code":"27227167005","name":"東石切町５丁目","lat":34.684356,"lng":135.649474},{"code":"27227167006","name":"東石切町６丁目","lat":34.687936,"lng":135.6525},{"code":"272271680","name":"上石切町","lat":34.681539,"lng":135.654696},{"code":"272271681","name":"上石切町","lat":34.683967,"lng":135.657696},{"code":"272271682","name":"上石切町","lat":34.68487,"lng":135.667998},{"code":"272271690","name":"弥生町","lat":34.678428,"lng":135.637663},{"code":"272271700","name":"宝町","lat":34.675505,"lng":135.636774},{"code":"272271710","name":"新町","lat":34.672225,"lng":135.636772},{"code":"272271720","name":"鷹殿町","lat":34.669266,"lng":135.63634},{"code":"272271730","name":"東山町","lat":34.678167,"lng":135.6453},{"code":"272271740","name":"南荘町","lat":34.67498,"lng":135.643507},{"code":"272271750","name":"箱殿町","lat":34.671861,"lng":135.642892},{"code":"272271760","name":"鳥居町","lat":34.669344,"lng":135.642689},{"code":"272271770","name":"額田町","lat":34.677615,"lng":135.650273},{"code":"272271780","name":"立花町","lat":34.674881,"lng":135.648396},{"code":"272271790","name":"山手町","lat":34.677062,"lng":135.664141},{"code":"272271800","name":"豊浦町","lat":34.672178,"lng":135.647487},{"code":"272271810","name":"東豊浦町","lat":34.671371,"lng":135.665021},{"code":"272271820","name":"出雲井本町","lat":34.669503,"lng":135.646688},{"code":"272271830","name":"出雲井町","lat":34.668654,"lng":135.655603},{"code":"272271840","name":"桜町","lat":34.664832,"lng":135.633695},{"code":"272271850","name":"旭町","lat":34.666361,"lng":135.637295},{"code":"272271860","name":"昭和町","lat":34.66337,"lng":135.637316},{"code":"272271870","name":"喜里川町","lat":34.66692,"lng":135.643131},{"code":"272271880","name":"本町","lat":34.663616,"lng":135.642101},{"code":"272271890","name":"河内町","lat":34.665262,"lng":135.645175},{"code":"272271900","name":"五条町","lat":34.666095,"lng":135.65221},{"code":"272271910","name":"客坊町","lat":34.663153,"lng":135.653006},{"code":"272271920","name":"若草町","lat":34.658797,"lng":135.633684},{"code":"272271930","name":"神田町","lat":34.66095,"lng":135.637413},{"code":"272271940","name":"御幸町","lat":34.658999,"lng":135.637323},{"code":"272271950","name":"末広町","lat":34.656807,"lng":135.637137},{"code":"272271960","name":"瓢箪山町","lat":34.661176,"lng":135.643169},{"code":"272271970","name":"四条町","lat":34.659073,"lng":135.643383},{"code":"272271980","name":"南四条町","lat":34.65692,"lng":135.642149},{"code":"272271990","name":"上四条町","lat":34.660259,"lng":135.660351},{"code":"27227200001","name":"新池島町１丁目","lat":34.658281,"lng":135.631578},{"code":"27227200002","name":"新池島町２丁目","lat":34.658306,"lng":135.629283},{"code":"27227200003","name":"新池島町３丁目","lat":34.658344,"lng":135.626933},{"code":"27227200004","name":"新池島町４丁目","lat":34.661642,"lng":135.629275},{"code":"27227201001","name":"池島町１丁目","lat":34.650255,"lng":135.633815},{"code":"27227201002","name":"池島町２丁目","lat":34.652684,"lng":135.634056},{"code":"27227201003","name":"池島町３丁目","lat":34.653336,"lng":135.630957},{"code":"27227201004","name":"池島町４丁目","lat":34.649267,"lng":135.630809},{"code":"27227201005","name":"池島町５丁目","lat":34.644754,"lng":135.631113},{"code":"27227201006","name":"池島町６丁目","lat":34.645874,"lng":135.627263},{"code":"27227201007","name":"池島町７丁目","lat":34.649347,"lng":135.627285},{"code":"27227201008","name":"池島町８丁目","lat":34.653386,"lng":135.627376},{"code":"27227202001","name":"下六万寺町１丁目","lat":34.651144,"lng":135.636859},{"code":"27227202002","name":"下六万寺町２丁目","lat":34.653155,"lng":135.637421},{"code":"27227202003","name":"下六万寺町３丁目","lat":34.654767,"lng":135.636176},{"code":"272272030","name":"上六万寺町","lat":34.654858,"lng":135.656406},{"code":"27227204001","name":"六万寺町１丁目","lat":34.652209,"lng":135.653306},{"code":"27227204002","name":"六万寺町２丁目","lat":34.651069,"lng":135.641397},{"code":"27227204003","name":"六万寺町３丁目","lat":34.653776,"lng":135.64127},{"code":"27227205001","name":"横小路町１丁目","lat":34.647452,"lng":135.655957},{"code":"27227205002","name":"横小路町２丁目","lat":34.647003,"lng":135.644175},{"code":"27227205003","name":"横小路町３丁目","lat":34.647331,"lng":135.641857},{"code":"27227205004","name":"横小路町４丁目","lat":34.647171,"lng":135.639504},{"code":"27227205005","name":"横小路町５丁目","lat":34.647181,"lng":135.636896},{"code":"27227205006","name":"横小路町６丁目","lat":34.647001,"lng":135.634113},{"code":"27227206001","name":"森河内西１丁目","lat":34.682641,"lng":135.565551},{"code":"27227206002","name":"森河内西２丁目","lat":34.686282,"lng":135.568699},{"code":"27227207001","name":"森河内東１丁目","lat":34.681368,"lng":135.56956},{"code":"27227207002","name":"森河内東２丁目","lat":34.683661,"lng":135.571652},{"code":"272272080","name":"古箕輪","lat":34.68661,"lng":135.617005},{"code":"27227209001","name":"加納１丁目","lat":34.694414,"lng":135.619648},{"code":"27227209002","name":"加納２丁目","lat":34.693892,"lng":135.622273},{"code":"27227209003","name":"加納３丁目","lat":34.694179,"lng":135.626028},{"code":"27227209004","name":"加納４丁目","lat":34.694185,"lng":135.630878},{"code":"27227209005","name":"加納５丁目","lat":34.699298,"lng":135.631117},{"code":"27227209006","name":"加納６丁目","lat":34.699315,"lng":135.627196},{"code":"27227209007","name":"加納７丁目","lat":34.698681,"lng":135.623718},{"code":"27227209008","name":"加納８丁目","lat":34.699053,"lng":135.620092},{"code":"27227210001","name":"吉原１丁目","lat":34.685818,"lng":135.61957},{"code":"27227210002","name":"吉原２丁目","lat":34.686519,"lng":135.622969},{"code":"27227211001","name":"中新開１丁目","lat":34.681991,"lng":135.619435},{"code":"27227211002","name":"中新開２丁目","lat":34.682649,"lng":135.62229},{"code":"27227212001","name":"角田１丁目","lat":34.679783,"lng":135.614545},{"code":"27227212002","name":"角田２丁目","lat":34.682178,"lng":135.614304},{"code":"27227212003","name":"角田３丁目","lat":34.682792,"lng":135.617276},{"code":"27227213001","name":"川田１丁目","lat":34.690594,"lng":135.618552},{"code":"27227213002","name":"川田２丁目","lat":34.690016,"lng":135.621664},{"code":"27227213003","name":"川田３丁目","lat":34.689899,"lng":135.625437},{"code":"27227213004","name":"川田４丁目","lat":34.689614,"lng":135.628601},{"code":"27227214001","name":"今米１丁目","lat":34.682549,"lng":135.625747},{"code":"27227214002","name":"今米２丁目","lat":34.686173,"lng":135.62758},{"code":"272272150","name":"川中","lat":34.681739,"lng":135.627897},{"code":"27227216001","name":"水走１丁目","lat":34.676989,"lng":135.631297},{"code":"27227216002","name":"水走２丁目","lat":34.677791,"lng":135.627771},{"code":"27227216003","name":"水走３丁目","lat":34.682175,"lng":135.63107},{"code":"27227216004","name":"水走４丁目","lat":34.685937,"lng":135.631593},{"code":"27227216005","name":"水走５丁目","lat":34.68964,"lng":135.631754},{"code":"27227217001","name":"松原１丁目","lat":34.673541,"lng":135.627492},{"code":"27227217002","name":"松原２丁目","lat":34.6729,"lng":135.631131},{"code":"27227218001","name":"島之内１丁目","lat":34.677761,"lng":135.618331},{"code":"27227218002","name":"島之内２丁目","lat":34.677753,"lng":135.621367},{"code":"27227219001","name":"吉田本町１丁目","lat":34.673276,"lng":135.622551},{"code":"27227219002","name":"吉田本町２丁目","lat":34.67411,"lng":135.624967},{"code":"27227219003","name":"吉田本町３丁目","lat":34.678104,"lng":135.624556},{"code":"272272200","name":"吉田下島","lat":34.673554,"lng":135.61881},{"code":"27227221001","name":"菱江１丁目","lat":34.672527,"lng":135.613277},{"code":"27227221002","name":"菱江２丁目","lat":34.675118,"lng":135.613521},{"code":"27227221003","name":"菱江３丁目","lat":34.677538,"lng":135.613929},{"code":"27227221004","name":"菱江４丁目","lat":34.674832,"lng":135.608933},{"code":"27227221005","name":"菱江５丁目","lat":34.671984,"lng":135.608602},{"code":"27227221006","name":"菱江６丁目","lat":34.674277,"lng":135.607026},{"code":"272272220","name":"高井田","lat":34.673282,"lng":135.573023},{"code":"272272230","name":"西堤西","lat":34.676722,"lng":135.574398},{"code":"27227224001","name":"御厨１丁目","lat":34.671834,"lng":135.584546},{"code":"27227224002","name":"御厨２丁目","lat":34.674072,"lng":135.584994},{"code":"27227224003","name":"御厨３丁目","lat":34.671889,"lng":135.58623},{"code":"27227224004","name":"御厨４丁目","lat":34.671145,"lng":135.587485},{"code":"27227224005","name":"御厨５丁目","lat":34.671024,"lng":135.589089},{"code":"27227224006","name":"御厨６丁目","lat":34.671113,"lng":135.591192},{"code":"272272250","name":"新鴻池町","lat":34.690334,"lng":135.612634},{"code":"27227226001","name":"新家１丁目","lat":34.672518,"lng":135.591168},{"code":"27227226002","name":"新家２丁目","lat":34.672133,"lng":135.59381},{"code":"27227226003","name":"新家３丁目","lat":34.672153,"lng":135.59633},{"code":"272272270","name":"新家中町","lat":34.67462,"lng":135.59378},{"code":"272272280","name":"新家西町","lat":34.674539,"lng":135.590512},{"code":"272272290","name":"新家東町","lat":34.674739,"lng":135.59627},{"code":"27227230001","name":"長田１丁目","lat":34.676099,"lng":135.586222},{"code":"27227230002","name":"長田２丁目","lat":34.676424,"lng":135.589973},{"code":"27227230003","name":"長田３丁目","lat":34.676358,"lng":135.594271},{"code":"27227231001","name":"藤戸新田１丁目","lat":34.674448,"lng":135.586732},{"code":"27227231002","name":"藤戸新田２丁目","lat":34.673422,"lng":135.58876},{"code":"27227232001","name":"箕輪１丁目","lat":34.684201,"lng":135.612413},{"code":"27227232002","name":"箕輪２丁目","lat":34.687113,"lng":135.61145},{"code":"27227232003","name":"箕輪３丁目","lat":34.687043,"lng":135.614077},{"code":"272272330","name":"横枕","lat":34.680387,"lng":135.607575},{"code":"27227234001","name":"本庄１丁目","lat":34.683448,"lng":135.609439},{"code":"27227234002","name":"本庄２丁目","lat":34.68369,"lng":135.607244},{"code":"272272350","name":"荒本新町","lat":34.677559,"lng":135.604137},{"code":"27227236001","name":"三島１丁目","lat":34.69161,"lng":135.599349},{"code":"27227236002","name":"三島２丁目","lat":34.691766,"lng":135.596428},{"code":"27227236003","name":"三島３丁目","lat":34.693119,"lng":135.593698},{"code":"272272370","name":"新庄西","lat":34.688471,"lng":135.599497},{"code":"272272380","name":"横枕南","lat":34.677515,"lng":135.607304},{"code":"272272390","name":"中野南","lat":34.677411,"lng":135.609209},{"code":"272272400","name":"新庄南","lat":34.687858,"lng":135.60391}]}
