{"municipality":"27231","name":"大阪狭山市","prefecture":"大阪府","source":{"dataset":"frogcat/japan-small-area","census":"平成27年国勢調査 小地域（e-Stat 統計LOD）","license":"MIT（リポジトリ）／政府統計の総合窓口(e-Stat)の利用規約（元データ・出典表記必要）","fetched":"2026-07-06"},"towns":[{"code":"272310011","name":"東野東","lat":34.521048,"lng":135.561515},{"code":"27231001201","name":"東野中１丁目","lat":34.517665,"lng":135.558721},{"code":"27231001202","name":"東野中２丁目","lat":34.519248,"lng":135.557916},{"code":"27231001203","name":"東野中３丁目","lat":34.521412,"lng":135.558864},{"code":"27231001204","name":"東野中４丁目","lat":34.524861,"lng":135.558815},{"code":"27231001205","name":"東野中５丁目","lat":34.524456,"lng":135.560654},{"code":"27231001301","name":"東野西１丁目","lat":34.520103,"lng":135.555116},{"code":"27231001302","name":"東野西２丁目","lat":34.523615,"lng":135.555057},{"code":"27231001303","name":"東野西３丁目","lat":34.524247,"lng":135.556787},{"code":"27231001304","name":"東野西４丁目","lat":34.527496,"lng":135.556934},{"code":"27231002001","name":"東池尻１丁目","lat":34.509218,"lng":135.559233},{"code":"27231002002","name":"東池尻２丁目","lat":34.509949,"lng":135.556734},{"code":"27231002003","name":"東池尻３丁目","lat":34.509032,"lng":135.553535},{"code":"27231002004","name":"東池尻４丁目","lat":34.515344,"lng":135.554962},{"code":"27231002005","name":"東池尻５丁目","lat":34.514765,"lng":135.557565},{"code":"27231002006","name":"東池尻６丁目","lat":34.516222,"lng":135.562579},{"code":"27231003101","name":"池尻北１丁目","lat":34.516396,"lng":135.551168},{"code":"27231003102","name":"池尻北２丁目","lat":34.513787,"lng":135.553016},{"code":"27231003201","name":"池尻中１丁目","lat":34.513327,"lng":135.549017},{"code":"27231003202","name":"池尻中２丁目","lat":34.510682,"lng":135.551891},{"code":"27231003203","name":"池尻中３丁目","lat":34.509108,"lng":135.549538},{"code":"27231003301","name":"池尻自由丘１丁目","lat":34.51631,"lng":135.546148},{"code":"27231003302","name":"池尻自由丘２丁目","lat":34.513738,"lng":135.545699},{"code":"27231003303","name":"池尻自由丘３丁目","lat":34.510948,"lng":135.546619},{"code":"27231004001","name":"狭山１丁目","lat":34.502349,"lng":135.556605},{"code":"27231004002","name":"狭山２丁目","lat":34.502723,"lng":135.553895},{"code":"27231004003","name":"狭山３丁目","lat":34.506662,"lng":135.554272},{"code":"27231004004","name":"狭山４丁目","lat":34.505916,"lng":135.556226},{"code":"27231004005","name":"狭山５丁目","lat":34.504948,"lng":135.558592},{"code":"27231005001","name":"半田１丁目","lat":34.496228,"lng":135.557537},{"code":"27231005002","name":"半田２丁目","lat":34.49186,"lng":135.558232},{"code":"27231005003","name":"半田３丁目","lat":34.493038,"lng":135.553101},{"code":"27231005004","name":"半田４丁目","lat":34.496112,"lng":135.551005},{"code":"27231005005","name":"半田５丁目","lat":34.4962,"lng":135.554331},{"code":"27231005006","name":"半田６丁目","lat":34.499652,"lng":135.555919},{"code":"27231006001","name":"金剛１丁目","lat":34.493188,"lng":135.561304},{"code":"27231006002","name":"金剛２丁目","lat":34.499955,"lng":135.559468},{"code":"27231007001","name":"東茱萸木１丁目","lat":34.489416,"lng":135.554202},{"code":"27231007002","name":"東茱萸木２丁目","lat":34.486537,"lng":135.556171},{"code":"27231007004","name":"東茱萸木４丁目","lat":34.48242,"lng":135.558028},{"code":"27231008001","name":"茱萸木１丁目","lat":34.496735,"lng":135.54882},{"code":"27231008002","name":"茱萸木２丁目","lat":34.491934,"lng":135.550579},{"code":"27231008003","name":"茱萸木３丁目","lat":34.495535,"lng":135.54657},{"code":"27231008004","name":"茱萸木４丁目","lat":34.49066,"lng":135.548048},{"code":"27231008005","name":"茱萸木５丁目","lat":34.487833,"lng":135.550575},{"code":"27231008006","name":"茱萸木６丁目","lat":34.484019,"lng":135.552285},{"code":"27231008007","name":"茱萸木７丁目","lat":34.480084,"lng":135.555002},{"code":"27231008008","name":"茱萸木８丁目","lat":34.476317,"lng":135.55292},{"code":"27231009001","name":"大野東","lat":34.47414,"lng":135.549791},{"code":"27231009002","name":"大野中","lat":34.471543,"lng":135.54439},{"code":"27231009003","name":"大野西","lat":34.471906,"lng":135.539897},{"code":"27231010001","name":"大野台１丁目","lat":34.48164,"lng":135.549037},{"code":"27231010002","name":"大野台２丁目","lat":34.481641,"lng":135.54361},{"code":"27231010003","name":"大野台３丁目","lat":34.478557,"lng":135.543904},{"code":"27231010004","name":"大野台４丁目","lat":34.476143,"lng":135.544996},{"code":"27231010005","name":"大野台５丁目","lat":34.480228,"lng":135.539887},{"code":"27231010006","name":"大野台６丁目","lat":34.48108,"lng":135.538008},{"code":"27231010007","name":"大野台７丁目","lat":34.480173,"lng":135.537012},{"code":"27231011001","name":"西山台１丁目","lat":34.488165,"lng":135.544189},{"code":"27231011002","name":"西山台２丁目","lat":34.485945,"lng":135.547312},{"code":"27231011003","name":"西山台３丁目","lat":34.485844,"lng":135.542537},{"code":"27231011004","name":"西山台４丁目","lat":34.485506,"lng":135.539718},{"code":"27231011005","name":"西山台５丁目","lat":34.48751,"lng":135.538377},{"code":"27231011006","name":"西山台６丁目","lat":34.489286,"lng":135.539127},{"code":"27231012001","name":"今熊１丁目","lat":34.497308,"lng":135.543536},{"code":"27231012002","name":"今熊２丁目","lat":34.491676,"lng":135.545145},{"code":"27231012003","name":"今熊３丁目","lat":34.491099,"lng":135.539864},{"code":"27231012004","name":"今熊４丁目","lat":34.488816,"lng":135.53532},{"code":"27231012005","name":"今熊５丁目","lat":34.492037,"lng":135.536678},{"code":"27231012006","name":"今熊６丁目","lat":34.493723,"lng":135.541391},{"code":"27231012007","name":"今熊７丁目","lat":34.495722,"lng":135.540405},{"code":"27231013001","name":"岩室１丁目","lat":34.499558,"lng":135.541885},{"code":"27231013002","name":"岩室２丁目","lat":34.504061,"lng":135.539257},{"code":"27231013003","name":"岩室３丁目","lat":34.501787,"lng":135.542048},{"code":"27231014001","name":"池之原１丁目","lat":34.508565,"lng":135.545364},{"code":"27231014002","name":"池之原２丁目","lat":34.502875,"lng":135.549512},{"code":"27231014003","name":"池之原３丁目","lat":34.501718,"lng":135.544873},{"code":"27231014004","name":"池之原４丁目","lat":34.506359,"lng":135.542118},{"code":"27231015001","name":"山本北","lat":34.512844,"lng":135.534978},{"code":"27231015002","name":"山本中","lat":34.509917,"lng":135.53602},{"code":"27231015003","name":"山本東","lat":34.509984,"lng":135.540203},{"code":"27231015004","name":"山本南","lat":34.506928,"lng":135.537161}]}
