{"municipality":"27381","name":"南河内郡太子町","prefecture":"大阪府","source":{"dataset":"frogcat/japan-small-area","census":"平成27年国勢調査 小地域（e-Stat 統計LOD）","license":"MIT（リポジトリ）／政府統計の総合窓口(e-Stat)の利用規約（元データ・出典表記必要）","fetched":"2026-07-06"},"towns":[{"code":"273810010","name":"大字太子","lat":34.519251,"lng":135.63251},{"code":"273810020","name":"大字春日","lat":34.528441,"lng":135.650999},{"code":"273810030","name":"大字山田","lat":34.517216,"lng":135.663404},{"code":"273810040","name":"大字葉室","lat":34.50788,"lng":135.642696},{"code":"273810050","name":"大字畑","lat":34.503924,"lng":135.657107},{"code":"27381006001","name":"聖和台１丁目","lat":34.522337,"lng":135.638435},{"code":"27381006002","name":"聖和台２丁目","lat":34.525212,"lng":135.639751},{"code":"27381006003","name":"聖和台３丁目","lat":34.525435,"lng":135.637262},{"code":"27381006004","name":"聖和台４丁目","lat":34.528406,"lng":135.638963},{"code":"273810070","name":"大字一須賀","lat":34.499584,"lng":135.649805}]}
