{"municipality":"28106","name":"神戸市長田区","prefecture":"兵庫県","source":{"dataset":"frogcat/japan-small-area","census":"平成27年国勢調査 小地域（e-Stat 統計LOD）","license":"MIT（リポジトリ）／政府統計の総合窓口(e-Stat)の利用規約（元データ・出典表記必要）","fetched":"2026-07-06"},"towns":[{"code":"281060010","name":"池田上町","lat":34.667052,"lng":135.143661},{"code":"281060030","name":"池田経町","lat":34.668198,"lng":135.143765},{"code":"281060040","name":"池田塩町","lat":34.667186,"lng":135.140856},{"code":"281060050","name":"池田新町","lat":34.667919,"lng":135.141701},{"code":"281060070","name":"池田寺町","lat":34.669302,"lng":135.144596},{"code":"281060080","name":"池田広町","lat":34.668982,"lng":135.146196},{"code":"281060090","name":"池田宮町","lat":34.676053,"lng":135.138704},{"code":"281060100","name":"池田谷町","lat":34.670295,"lng":135.143451},{"code":"28106011001","name":"一番町１丁目","lat":34.668464,"lng":135.158317},{"code":"28106011002","name":"一番町２丁目","lat":34.667557,"lng":135.156797},{"code":"28106011003","name":"一番町３丁目","lat":34.666935,"lng":135.155899},{"code":"28106011004","name":"一番町４丁目","lat":34.666332,"lng":135.154959},{"code":"28106011005","name":"一番町５丁目","lat":34.665812,"lng":135.154028},{"code":"281060120","name":"一里山町","lat":34.686206,"lng":135.128676},{"code":"28106013001","name":"鴬町１丁目","lat":34.690266,"lng":135.138872},{"code":"28106013002","name":"鴬町２丁目","lat":34.691437,"lng":135.137876},{"code":"28106013003","name":"鴬町３丁目","lat":34.691648,"lng":135.139693},{"code":"28106013004","name":"鴬町４丁目","lat":34.692597,"lng":135.138661},{"code":"28106014001","name":"腕塚町１丁目","lat":34.656848,"lng":135.150297},{"code":"28106014002","name":"腕塚町２丁目","lat":34.656292,"lng":135.149361},{"code":"28106014003","name":"腕塚町３丁目","lat":34.65568,"lng":135.148407},{"code":"28106014004","name":"腕塚町４丁目","lat":34.655088,"lng":135.147514},{"code":"28106014005","name":"腕塚町５丁目","lat":34.65448,"lng":135.146568},{"code":"28106014006","name":"腕塚町６丁目","lat":34.653905,"lng":135.145712},{"code":"28106014007","name":"腕塚町７丁目","lat":34.653327,"lng":135.144828},{"code":"28106014008","name":"腕塚町８丁目","lat":34.652704,"lng":135.143839},{"code":"28106014009","name":"腕塚町９丁目","lat":34.652034,"lng":135.142817},{"code":"28106014010","name":"腕塚町１０丁目","lat":34.651408,"lng":135.14185},{"code":"28106015001","name":"梅ヶ香町１丁目","lat":34.663412,"lng":135.158012},{"code":"28106015002","name":"梅ヶ香町２丁目","lat":34.661646,"lng":135.158648},{"code":"28106016001","name":"大谷町１丁目","lat":34.662741,"lng":135.142995},{"code":"28106016002","name":"大谷町２丁目","lat":34.66596,"lng":135.14049},{"code":"28106016003","name":"大谷町３丁目","lat":34.66472,"lng":135.139771},{"code":"28106017001","name":"大塚町１丁目","lat":34.670428,"lng":135.149851},{"code":"28106017002","name":"大塚町２丁目","lat":34.671161,"lng":135.148789},{"code":"28106017003","name":"大塚町３丁目","lat":34.671806,"lng":135.148397},{"code":"28106017004","name":"大塚町４丁目","lat":34.672632,"lng":135.147885},{"code":"28106017005","name":"大塚町５丁目","lat":34.67353,"lng":135.147346},{"code":"28106017006","name":"大塚町６丁目","lat":34.674191,"lng":135.147044},{"code":"28106017007","name":"大塚町７丁目","lat":34.674736,"lng":135.146737},{"code":"28106017008","name":"大塚町８丁目","lat":34.675374,"lng":135.146527},{"code":"28106017009","name":"大塚町９丁目","lat":34.676198,"lng":135.146142},{"code":"28106018001","name":"大橋町１丁目","lat":34.657623,"lng":135.149609},{"code":"28106018002","name":"大橋町２丁目","lat":34.657068,"lng":135.148632},{"code":"28106018003","name":"大橋町３丁目","lat":34.656453,"lng":135.147705},{"code":"28106018004","name":"大橋町４丁目","lat":34.655834,"lng":135.146726},{"code":"28106018005","name":"大橋町５丁目","lat":34.655239,"lng":135.145838},{"code":"28106018006","name":"大橋町６丁目","lat":34.654681,"lng":135.14496},{"code":"28106018007","name":"大橋町７丁目","lat":34.654105,"lng":135.144101},{"code":"28106018008","name":"大橋町８丁目","lat":34.653474,"lng":135.143112},{"code":"28106018009","name":"大橋町９丁目","lat":34.652804,"lng":135.142107},{"code":"28106018010","name":"大橋町１０丁目","lat":34.652172,"lng":135.141091},{"code":"28106019001","name":"大道通１丁目","lat":34.665705,"lng":135.149541},{"code":"28106019002","name":"大道通２丁目","lat":34.665236,"lng":135.14854},{"code":"28106019003","name":"大道通３丁目","lat":34.664598,"lng":135.147549},{"code":"28106019004","name":"大道通４丁目","lat":34.663913,"lng":135.14678},{"code":"28106019005","name":"大道通５丁目","lat":34.663187,"lng":135.145895},{"code":"28106020001","name":"重池町１丁目","lat":34.676212,"lng":135.155069},{"code":"28106020002","name":"重池町２丁目","lat":34.678273,"lng":135.153408},{"code":"28106021001","name":"御屋敷通１丁目","lat":34.662322,"lng":135.145111},{"code":"28106021002","name":"御屋敷通２丁目","lat":34.661701,"lng":135.144272},{"code":"28106021003","name":"御屋敷通３丁目","lat":34.660776,"lng":135.142748},{"code":"28106021004","name":"御屋敷通４丁目","lat":34.65982,"lng":135.141301},{"code":"28106021005","name":"御屋敷通５丁目","lat":34.659228,"lng":135.1404},{"code":"28106021006","name":"御屋敷通６丁目","lat":34.658606,"lng":135.139425},{"code":"28106022002","name":"海運町２丁目","lat":34.652541,"lng":135.137865},{"code":"28106022003","name":"海運町３丁目","lat":34.651765,"lng":135.138669},{"code":"28106022004","name":"海運町４丁目","lat":34.650985,"lng":135.139278},{"code":"28106022005","name":"海運町５丁目","lat":34.650222,"lng":135.140036},{"code":"28106022006","name":"海運町６丁目","lat":34.649423,"lng":135.140768},{"code":"28106022007","name":"海運町７丁目","lat":34.648554,"lng":135.141641},{"code":"28106022008","name":"海運町８丁目","lat":34.64748,"lng":135.142643},{"code":"28106023001","name":"神楽町１丁目","lat":34.661522,"lng":135.150609},{"code":"28106023002","name":"神楽町２丁目","lat":34.660865,"lng":135.149553},{"code":"28106023003","name":"神楽町３丁目","lat":34.660256,"lng":135.148603},{"code":"28106023004","name":"神楽町４丁目","lat":34.659683,"lng":135.147654},{"code":"28106023005","name":"神楽町５丁目","lat":34.659137,"lng":135.146671},{"code":"28106023006","name":"神楽町６丁目","lat":34.65854,"lng":135.145684},{"code":"28106024001","name":"片山町１丁目","lat":34.671849,"lng":135.150552},{"code":"28106024002","name":"片山町２丁目","lat":34.673532,"lng":135.148949},{"code":"28106024003","name":"片山町３丁目","lat":34.675497,"lng":135.1486},{"code":"28106024004","name":"片山町４丁目","lat":34.675165,"lng":135.147537},{"code":"28106024005","name":"片山町５丁目","lat":34.677158,"lng":135.147124},{"code":"28106025001","name":"上池田１丁目","lat":34.668924,"lng":135.14146},{"code":"28106025002","name":"上池田２丁目","lat":34.667978,"lng":135.139782},{"code":"28106025003","name":"上池田３丁目","lat":34.669717,"lng":135.138479},{"code":"28106025004","name":"上池田４丁目","lat":34.670313,"lng":135.141183},{"code":"28106025005","name":"上池田５丁目","lat":34.671621,"lng":135.140897},{"code":"28106025006","name":"上池田６丁目","lat":34.671734,"lng":135.142614},{"code":"28106026001","name":"苅藻島町１丁目","lat":34.649851,"lng":135.16098},{"code":"28106026002","name":"苅藻島町２丁目","lat":34.64863,"lng":135.156833},{"code":"28106026003","name":"苅藻島町３丁目","lat":34.648299,"lng":135.162246},{"code":"28106027001","name":"苅藻通１丁目","lat":34.659127,"lng":135.152662},{"code":"28106027002","name":"苅藻通２丁目","lat":34.657969,"lng":135.15361},{"code":"28106027003","name":"苅藻通３丁目","lat":34.656867,"lng":135.154014},{"code":"28106027004","name":"苅藻通４丁目","lat":34.655846,"lng":135.154414},{"code":"28106027005","name":"苅藻通５丁目","lat":34.654816,"lng":135.154861},{"code":"28106027006","name":"苅藻通６丁目","lat":34.653823,"lng":135.155382},{"code":"28106027007","name":"苅藻通７丁目","lat":34.651758,"lng":135.155979},{"code":"28106028001","name":"川西通１丁目","lat":34.664535,"lng":135.150483},{"code":"28106028002","name":"川西通２丁目","lat":34.664191,"lng":135.149489},{"code":"28106028003","name":"川西通３丁目","lat":34.663575,"lng":135.148546},{"code":"28106028004","name":"川西通４丁目","lat":34.662941,"lng":135.147599},{"code":"28106028005","name":"川西通５丁目","lat":34.662321,"lng":135.14665},{"code":"28106029001","name":"北町１丁目","lat":34.666973,"lng":135.152806},{"code":"28106029002","name":"北町２丁目","lat":34.666421,"lng":135.151932},{"code":"28106029003","name":"北町３丁目","lat":34.665618,"lng":135.151117},{"code":"28106030001","name":"久保町１丁目","lat":34.656184,"lng":135.150941},{"code":"28106030002","name":"久保町２丁目","lat":34.655493,"lng":135.150066},{"code":"28106030003","name":"久保町３丁目","lat":34.654887,"lng":135.14916},{"code":"28106030004","name":"久保町４丁目","lat":34.654289,"lng":135.148236},{"code":"28106030005","name":"久保町５丁目","lat":34.6537,"lng":135.147361},{"code":"28106030006","name":"久保町６丁目","lat":34.653102,"lng":135.14644},{"code":"28106030007","name":"久保町７丁目","lat":34.652522,"lng":135.145553},{"code":"28106030008","name":"久保町８丁目","lat":34.651908,"lng":135.144606},{"code":"28106030009","name":"久保町９丁目","lat":34.651241,"lng":135.14358},{"code":"28106030010","name":"久保町１０丁目","lat":34.650623,"lng":135.142631},{"code":"281060310","name":"源平町","lat":34.688669,"lng":135.143064},{"code":"28106032001","name":"高東町１丁目","lat":34.68165,"lng":135.136131},{"code":"28106032002","name":"高東町２丁目","lat":34.682194,"lng":135.135432},{"code":"28106032003","name":"高東町３丁目","lat":34.683037,"lng":135.134287},{"code":"28106033001","name":"駒栄町１丁目","lat":34.653658,"lng":135.153595},{"code":"28106033002","name":"駒栄町２丁目","lat":34.653188,"lng":135.152394},{"code":"28106033003","name":"駒栄町３丁目","lat":34.65263,"lng":135.15139},{"code":"28106033004","name":"駒栄町４丁目","lat":34.651911,"lng":135.150385},{"code":"28106034001","name":"駒ヶ林町１丁目","lat":34.651091,"lng":135.14962},{"code":"28106034002","name":"駒ヶ林町２丁目","lat":34.650576,"lng":135.148662},{"code":"28106034003","name":"駒ヶ林町３丁目","lat":34.64996,"lng":135.147837},{"code":"28106034004","name":"駒ヶ林町４丁目","lat":34.649437,"lng":135.146842},{"code":"28106034005","name":"駒ヶ林町５丁目","lat":34.64893,"lng":135.145773},{"code":"28106034006","name":"駒ヶ林町６丁目","lat":34.648411,"lng":135.144698},{"code":"281060350","name":"駒ケ林南町","lat":34.645538,"lng":135.143315},{"code":"28106036001","name":"五位ノ池町１丁目","lat":34.663563,"lng":135.138155},{"code":"28106036002","name":"五位ノ池町２丁目","lat":34.665358,"lng":135.137147},{"code":"28106036003","name":"五位ノ池町３丁目","lat":34.663687,"lng":135.13634},{"code":"28106036004","name":"五位ノ池町４丁目","lat":34.665019,"lng":135.138693},{"code":"28106037001","name":"五番町１丁目","lat":34.673058,"lng":135.157007},{"code":"28106037002","name":"五番町２丁目","lat":34.672397,"lng":135.156032},{"code":"28106037003","name":"五番町３丁目","lat":34.67155,"lng":135.154834},{"code":"28106037004","name":"五番町４丁目","lat":34.670775,"lng":135.153744},{"code":"28106037005","name":"五番町５丁目","lat":34.670093,"lng":135.152755},{"code":"28106037006","name":"五番町６丁目","lat":34.669419,"lng":135.151775},{"code":"28106037007","name":"五番町７丁目","lat":34.668862,"lng":135.150978},{"code":"28106037008","name":"五番町８丁目","lat":34.667596,"lng":135.150006},{"code":"28106038001","name":"三番町１丁目","lat":34.670353,"lng":135.15755},{"code":"28106038002","name":"三番町２丁目","lat":34.669748,"lng":135.15662},{"code":"28106038003","name":"三番町３丁目","lat":34.669002,"lng":135.155486},{"code":"28106038004","name":"三番町４丁目","lat":34.668383,"lng":135.154455},{"code":"28106038005","name":"三番町５丁目","lat":34.667923,"lng":135.153465},{"code":"28106039001","name":"鹿松町１丁目","lat":34.685981,"lng":135.133993},{"code":"28106039002","name":"鹿松町２丁目","lat":34.684598,"lng":135.131699},{"code":"28106039003","name":"鹿松町３丁目","lat":34.683439,"lng":135.132307},{"code":"28106040001","name":"庄田町１丁目","lat":34.654532,"lng":135.153004},{"code":"28106040002","name":"庄田町２丁目","lat":34.653782,"lng":135.151761},{"code":"28106040003","name":"庄田町３丁目","lat":34.653169,"lng":135.150811},{"code":"28106040004","name":"庄田町４丁目","lat":34.652566,"lng":135.149891},{"code":"28106041001","name":"庄山町１丁目","lat":34.661932,"lng":135.136666},{"code":"28106041002","name":"庄山町２丁目","lat":34.662525,"lng":135.135672},{"code":"28106041003","name":"庄山町３丁目","lat":34.663177,"lng":135.134673},{"code":"28106041004","name":"庄山町４丁目","lat":34.663866,"lng":135.133652},{"code":"28106042001","name":"菅原通１丁目","lat":34.665653,"lng":135.15868},{"code":"28106042002","name":"菅原通２丁目","lat":34.665091,"lng":135.157643},{"code":"28106042003","name":"菅原通３丁目","lat":34.664566,"lng":135.156739},{"code":"28106042004","name":"菅原通４丁目","lat":34.663942,"lng":135.155853},{"code":"28106042005","name":"菅原通５丁目","lat":34.663319,"lng":135.154748},{"code":"28106042006","name":"菅原通６丁目","lat":34.662753,"lng":135.153712},{"code":"28106042007","name":"菅原通７丁目","lat":34.662091,"lng":135.152224},{"code":"28106043000","name":"高取山町","lat":34.674554,"lng":135.132641},{"code":"28106043001","name":"高取山町１丁目","lat":34.670859,"lng":135.13626},{"code":"28106043002","name":"高取山町２丁目","lat":34.670886,"lng":135.133389},{"code":"28106045001","name":"滝谷町１丁目","lat":34.68467,"lng":135.148878},{"code":"28106045002","name":"滝谷町２丁目","lat":34.686317,"lng":135.147321},{"code":"28106045003","name":"滝谷町３丁目","lat":34.685901,"lng":135.145676},{"code":"28106046001","name":"大日丘町１丁目","lat":34.688455,"lng":135.137473},{"code":"28106046002","name":"大日丘町２丁目","lat":34.690213,"lng":135.136721},{"code":"28106046003","name":"大日丘町３丁目","lat":34.68905,"lng":135.134631},{"code":"28106047001","name":"大丸町１丁目","lat":34.676299,"lng":135.150458},{"code":"28106047002","name":"大丸町２丁目","lat":34.67757,"lng":135.149315},{"code":"28106047003","name":"大丸町３丁目","lat":34.678859,"lng":135.147763},{"code":"281060480","name":"長者町","lat":34.679324,"lng":135.135708},{"code":"28106049001","name":"寺池町１丁目","lat":34.672915,"lng":135.152131},{"code":"28106049002","name":"寺池町２丁目","lat":34.674321,"lng":135.150665},{"code":"28106049003","name":"寺池町３丁目","lat":34.675322,"lng":135.149852},{"code":"28106050001","name":"戸崎通１丁目","lat":34.66132,"lng":135.139843},{"code":"28106050002","name":"戸崎通２丁目","lat":34.66107,"lng":135.138516},{"code":"28106050003","name":"戸崎通３丁目","lat":34.660658,"lng":135.137359},{"code":"28106051001","name":"長尾町１丁目","lat":34.667501,"lng":135.136186},{"code":"28106051002","name":"長尾町２丁目","lat":34.668255,"lng":135.133537},{"code":"28106052001","name":"長田町１丁目","lat":34.669554,"lng":135.148817},{"code":"28106052002","name":"長田町２丁目","lat":34.670483,"lng":135.147937},{"code":"28106052003","name":"長田町３丁目","lat":34.67124,"lng":135.147145},{"code":"28106052004","name":"長田町４丁目","lat":34.67237,"lng":135.146926},{"code":"28106052005","name":"長田町５丁目","lat":34.67328,"lng":135.146528},{"code":"28106052006","name":"長田町６丁目","lat":34.674047,"lng":135.146331},{"code":"28106052007","name":"長田町７丁目","lat":34.67453,"lng":135.146053},{"code":"28106052008","name":"長田町８丁目","lat":34.675131,"lng":135.145835},{"code":"28106052009","name":"長田町９丁目","lat":34.675941,"lng":135.145596},{"code":"28106053001","name":"長田天神町１丁目","lat":34.681172,"lng":135.146737},{"code":"28106053002","name":"長田天神町２丁目","lat":34.681953,"lng":135.14875},{"code":"28106053003","name":"長田天神町３丁目","lat":34.683536,"lng":135.149525},{"code":"28106053004","name":"長田天神町４丁目","lat":34.682987,"lng":135.147544},{"code":"28106053005","name":"長田天神町５丁目","lat":34.682359,"lng":135.145751},{"code":"28106053006","name":"長田天神町６丁目","lat":34.683772,"lng":135.145505},{"code":"28106053007","name":"長田天神町７丁目","lat":34.685192,"lng":135.144046},{"code":"28106054002","name":"長楽町２丁目","lat":34.651276,"lng":135.136026},{"code":"28106054003","name":"長楽町３丁目","lat":34.650507,"lng":135.136664},{"code":"28106054004","name":"長楽町４丁目","lat":34.64977,"lng":135.137421},{"code":"28106054005","name":"長楽町５丁目","lat":34.649041,"lng":135.13817},{"code":"28106054006","name":"長楽町６丁目","lat":34.648232,"lng":135.138925},{"code":"28106054007","name":"長楽町７丁目","lat":34.647461,"lng":135.139885},{"code":"28106055001","name":"名倉町１丁目","lat":34.676872,"lng":135.145376},{"code":"28106055002","name":"名倉町２丁目","lat":34.677853,"lng":135.145476},{"code":"28106055003","name":"名倉町３丁目","lat":34.678838,"lng":135.146474},{"code":"28106055004","name":"名倉町４丁目","lat":34.679394,"lng":135.145789},{"code":"28106055005","name":"名倉町５丁目","lat":34.680291,"lng":135.145887},{"code":"281060560","name":"七番町","lat":34.674427,"lng":135.155729},{"code":"28106057002","name":"浪松町２丁目","lat":34.650592,"lng":135.135098},{"code":"28106057003","name":"浪松町３丁目","lat":34.649922,"lng":135.135729},{"code":"28106057004","name":"浪松町４丁目","lat":34.649239,"lng":135.136555},{"code":"28106057005","name":"浪松町５丁目","lat":34.648396,"lng":135.137227},{"code":"28106057006","name":"浪松町６丁目","lat":34.647173,"lng":135.13848},{"code":"28106058001","name":"西尻池町１丁目","lat":34.6595,"lng":135.150349},{"code":"28106058002","name":"西尻池町２丁目","lat":34.65841,"lng":135.151074},{"code":"28106058003","name":"西尻池町３丁目","lat":34.65743,"lng":135.151618},{"code":"28106058004","name":"西尻池町４丁目","lat":34.656813,"lng":135.152112},{"code":"28106058005","name":"西尻池町５丁目","lat":34.655896,"lng":135.152669},{"code":"28106059001","name":"西代通１丁目","lat":34.661259,"lng":135.141509},{"code":"28106059002","name":"西代通２丁目","lat":34.660631,"lng":135.14053},{"code":"28106059003","name":"西代通３丁目","lat":34.660027,"lng":135.139568},{"code":"28106059004","name":"西代通４丁目","lat":34.659421,"lng":135.138593},{"code":"28106060001","name":"西丸山町１丁目","lat":34.685399,"lng":135.140743},{"code":"28106060002","name":"西丸山町２丁目","lat":34.686195,"lng":135.139253},{"code":"28106060003","name":"西丸山町３丁目","lat":34.686505,"lng":135.137408},{"code":"28106061001","name":"西山町１丁目","lat":34.670693,"lng":135.145296},{"code":"28106061002","name":"西山町２丁目","lat":34.672117,"lng":135.144134},{"code":"28106061003","name":"西山町３丁目","lat":34.673955,"lng":135.143908},{"code":"28106061004","name":"西山町４丁目","lat":34.67459,"lng":135.14161},{"code":"28106062001","name":"二番町１丁目","lat":34.668905,"lng":135.157501},{"code":"28106062002","name":"二番町２丁目","lat":34.6683,"lng":135.156211},{"code":"28106062003","name":"二番町３丁目","lat":34.667628,"lng":135.155237},{"code":"28106062004","name":"二番町４丁目","lat":34.667132,"lng":135.154088},{"code":"28106063004","name":"野田町４丁目","lat":34.651607,"lng":135.140232},{"code":"28106063005","name":"野田町５丁目","lat":34.650843,"lng":135.141},{"code":"28106063006","name":"野田町６丁目","lat":34.650051,"lng":135.141753},{"code":"28106063007","name":"野田町７丁目","lat":34.649183,"lng":135.14257},{"code":"28106063008","name":"野田町８丁目","lat":34.648376,"lng":135.143356},{"code":"28106063009","name":"野田町９丁目","lat":34.64766,"lng":135.143938},{"code":"28106064001","name":"萩乃町１丁目","lat":34.687214,"lng":135.135992},{"code":"28106064002","name":"萩乃町２丁目","lat":34.688372,"lng":135.133561},{"code":"28106064003","name":"萩乃町３丁目","lat":34.689324,"lng":135.131445},{"code":"281060650","name":"蓮池町","lat":34.663982,"lng":135.144842},{"code":"28106066001","name":"蓮宮通１丁目","lat":34.667701,"lng":135.148482},{"code":"28106066002","name":"蓮宮通２丁目","lat":34.667393,"lng":135.147507},{"code":"28106066003","name":"蓮宮通３丁目","lat":34.666928,"lng":135.146673},{"code":"28106066004","name":"蓮宮通４丁目","lat":34.666486,"lng":135.145815},{"code":"28106066005","name":"蓮宮通５丁目","lat":34.665728,"lng":135.145082},{"code":"28106066006","name":"蓮宮通６丁目","lat":34.66534,"lng":135.143241},{"code":"28106067001","name":"花山町１丁目","lat":34.685175,"lng":135.13689},{"code":"28106067002","name":"花山町２丁目","lat":34.684562,"lng":135.135164},{"code":"28106068001","name":"浜添通１丁目","lat":34.65838,"lng":135.155172},{"code":"28106068002","name":"浜添通２丁目","lat":34.657321,"lng":135.155591},{"code":"28106068003","name":"浜添通３丁目","lat":34.656315,"lng":135.156039},{"code":"28106068004","name":"浜添通４丁目","lat":34.655272,"lng":135.156447},{"code":"28106068005","name":"浜添通５丁目","lat":34.654317,"lng":135.156877},{"code":"28106068006","name":"浜添通６丁目","lat":34.653306,"lng":135.157315},{"code":"28106068007","name":"浜添通７丁目","lat":34.652375,"lng":135.157634},{"code":"28106068008","name":"浜添通８丁目","lat":34.65136,"lng":135.158257},{"code":"281060690","name":"林山町","lat":34.677423,"lng":135.142775},{"code":"28106070001","name":"桧川町１丁目","lat":34.686452,"lng":135.141935},{"code":"28106070002","name":"桧川町２丁目","lat":34.687875,"lng":135.140131},{"code":"28106070003","name":"桧川町３丁目","lat":34.689182,"lng":135.139621},{"code":"281060710","name":"東尻池新町","lat":34.656833,"lng":135.15916},{"code":"28106072001","name":"東尻池町１丁目","lat":34.661795,"lng":135.155178},{"code":"28106072002","name":"東尻池町２丁目","lat":34.660479,"lng":135.155638},{"code":"28106072003","name":"東尻池町３丁目","lat":34.659847,"lng":135.156788},{"code":"28106072004","name":"東尻池町４丁目","lat":34.658954,"lng":135.157246},{"code":"28106072005","name":"東尻池町５丁目","lat":34.657873,"lng":135.157464},{"code":"28106072006","name":"東尻池町６丁目","lat":34.656806,"lng":135.157695},{"code":"28106072007","name":"東尻池町７丁目","lat":34.655734,"lng":135.157805},{"code":"28106072008","name":"東尻池町８丁目","lat":34.654641,"lng":135.15796},{"code":"28106072009","name":"東尻池町９丁目","lat":34.653556,"lng":135.15873},{"code":"28106072010","name":"東尻池町１０丁目","lat":34.652535,"lng":135.158699},{"code":"281060730","name":"東丸山町","lat":34.684338,"lng":135.142574},{"code":"28106074001","name":"雲雀ヶ丘１丁目","lat":34.692401,"lng":135.134057},{"code":"28106074002","name":"雲雀ヶ丘２丁目","lat":34.691624,"lng":135.131209},{"code":"28106074003","name":"雲雀ヶ丘３丁目","lat":34.690002,"lng":135.128321},{"code":"28106075001","name":"日吉町１丁目","lat":34.656089,"lng":135.143464},{"code":"28106075002","name":"日吉町２丁目","lat":34.655557,"lng":135.142614},{"code":"28106075003","name":"日吉町３丁目","lat":34.654994,"lng":135.141657},{"code":"28106075004","name":"日吉町４丁目","lat":34.654359,"lng":135.140635},{"code":"28106075005","name":"日吉町５丁目","lat":34.653705,"lng":135.139685},{"code":"28106075006","name":"日吉町６丁目","lat":34.653111,"lng":135.138766},{"code":"28106076001","name":"二葉町１丁目","lat":34.655353,"lng":135.151687},{"code":"28106076002","name":"二葉町２丁目","lat":34.654603,"lng":135.150897},{"code":"28106076003","name":"二葉町３丁目","lat":34.654022,"lng":135.150001},{"code":"28106076004","name":"二葉町４丁目","lat":34.653423,"lng":135.149078},{"code":"28106076005","name":"二葉町５丁目","lat":34.652825,"lng":135.148178},{"code":"28106076006","name":"二葉町６丁目","lat":34.652237,"lng":135.147285},{"code":"28106076007","name":"二葉町７丁目","lat":34.651654,"lng":135.146387},{"code":"28106076008","name":"二葉町８丁目","lat":34.651043,"lng":135.145455},{"code":"28106076009","name":"二葉町９丁目","lat":34.65037,"lng":135.144423},{"code":"28106076010","name":"二葉町１０丁目","lat":34.649753,"lng":135.143476},{"code":"28106077001","name":"平和台町１丁目","lat":34.665376,"lng":135.135551},{"code":"28106077002","name":"平和台町２丁目","lat":34.665737,"lng":135.133657},{"code":"28106077003","name":"平和台町３丁目","lat":34.664753,"lng":135.134588},{"code":"28106078001","name":"細田町１丁目","lat":34.663231,"lng":135.150647},{"code":"28106078002","name":"細田町２丁目","lat":34.662565,"lng":135.149543},{"code":"28106078003","name":"細田町３丁目","lat":34.661953,"lng":135.148517},{"code":"28106078004","name":"細田町４丁目","lat":34.661339,"lng":135.147582},{"code":"28106078005","name":"細田町５丁目","lat":34.660733,"lng":135.146652},{"code":"28106078006","name":"細田町６丁目","lat":34.660128,"lng":135.145701},{"code":"28106078007","name":"細田町７丁目","lat":34.659524,"lng":135.14479},{"code":"281060790","name":"堀切町","lat":34.68077,"lng":135.141541},{"code":"28106080002","name":"本庄町２丁目","lat":34.651856,"lng":135.137026},{"code":"28106080003","name":"本庄町３丁目","lat":34.651084,"lng":135.137629},{"code":"28106080004","name":"本庄町４丁目","lat":34.650346,"lng":135.138311},{"code":"28106080005","name":"本庄町５丁目","lat":34.649602,"lng":135.139108},{"code":"28106080006","name":"本庄町６丁目","lat":34.648792,"lng":135.139817},{"code":"28106080007","name":"本庄町７丁目","lat":34.647849,"lng":135.140768},{"code":"28106080008","name":"本庄町８丁目","lat":34.646904,"lng":135.141526},{"code":"28106081001","name":"房王寺町１丁目","lat":34.675697,"lng":135.153348},{"code":"28106081002","name":"房王寺町２丁目","lat":34.677102,"lng":135.152396},{"code":"28106081003","name":"房王寺町３丁目","lat":34.678615,"lng":135.151321},{"code":"28106081004","name":"房王寺町４丁目","lat":34.679464,"lng":135.148733},{"code":"28106081005","name":"房王寺町５丁目","lat":34.68018,"lng":135.149588},{"code":"28106081006","name":"房王寺町６丁目","lat":34.682005,"lng":135.150148},{"code":"28106081007","name":"房王寺町７丁目","lat":34.681514,"lng":135.150791},{"code":"28106082001","name":"前原町１丁目","lat":34.674271,"lng":135.153895},{"code":"28106082002","name":"前原町２丁目","lat":34.675291,"lng":135.151788},{"code":"28106083001","name":"松野通１丁目","lat":34.658314,"lng":135.144304},{"code":"28106083002","name":"松野通２丁目","lat":34.657785,"lng":135.143299},{"code":"28106083003","name":"松野通３丁目","lat":34.657254,"lng":135.142357},{"code":"28106083004","name":"松野通４丁目","lat":34.656683,"lng":135.141353},{"code":"281060840","name":"真野町","lat":34.660335,"lng":135.15302},{"code":"28106085001","name":"丸山町１丁目","lat":34.682176,"lng":135.139552},{"code":"28106085002","name":"丸山町２丁目","lat":34.683435,"lng":135.14052},{"code":"28106085003","name":"丸山町３丁目","lat":34.683928,"lng":135.139445},{"code":"28106085004","name":"丸山町４丁目","lat":34.683571,"lng":135.137612},{"code":"28106086001","name":"御蔵通１丁目","lat":34.666807,"lng":135.157629},{"code":"28106086002","name":"御蔵通２丁目","lat":34.666161,"lng":135.156665},{"code":"28106086003","name":"御蔵通３丁目","lat":34.665495,"lng":135.155752},{"code":"28106086004","name":"御蔵通４丁目","lat":34.66496,"lng":135.154703},{"code":"28106086005","name":"御蔵通５丁目","lat":34.664717,"lng":135.153533},{"code":"28106086006","name":"御蔵通６丁目","lat":34.664047,"lng":135.152759},{"code":"28106086007","name":"御蔵通７丁目","lat":34.663534,"lng":135.151819},{"code":"28106087001","name":"水笠通１丁目","lat":34.661211,"lng":135.145416},{"code":"28106087002","name":"水笠通２丁目","lat":34.660318,"lng":135.143974},{"code":"28106087003","name":"水笠通３丁目","lat":34.65967,"lng":135.142971},{"code":"28106087004","name":"水笠通４丁目","lat":34.659068,"lng":135.142037},{"code":"28106087005","name":"水笠通５丁目","lat":34.658494,"lng":135.141116},{"code":"28106087006","name":"水笠通６丁目","lat":34.657902,"lng":135.140166},{"code":"281060880","name":"南駒栄町","lat":34.649508,"lng":135.152531},{"code":"28106089001","name":"御船通１丁目","lat":34.666818,"lng":135.148826},{"code":"28106089002","name":"御船通２丁目","lat":34.666499,"lng":135.148179},{"code":"28106089003","name":"御船通３丁目","lat":34.665988,"lng":135.147561},{"code":"28106089004","name":"御船通４丁目","lat":34.665501,"lng":135.146749},{"code":"28106089005","name":"御船通５丁目","lat":34.665032,"lng":135.14595},{"code":"28106090001","name":"宮丘町１丁目","lat":34.67274,"lng":135.139727},{"code":"28106090002","name":"宮丘町２丁目","lat":34.671904,"lng":135.138457},{"code":"28106091001","name":"宮川町１丁目","lat":34.668955,"lng":135.148113},{"code":"28106091002","name":"宮川町２丁目","lat":34.669234,"lng":135.14707},{"code":"28106091003","name":"宮川町３丁目","lat":34.670492,"lng":135.146648},{"code":"28106091004","name":"宮川町４丁目","lat":34.671933,"lng":135.145899},{"code":"28106091005","name":"宮川町５丁目","lat":34.673115,"lng":135.145523},{"code":"28106091006","name":"宮川町６丁目","lat":34.673686,"lng":135.145325},{"code":"28106091007","name":"宮川町７丁目","lat":34.674275,"lng":135.145147},{"code":"28106091008","name":"宮川町８丁目","lat":34.674904,"lng":135.144768},{"code":"28106091009","name":"宮川町９丁目","lat":34.675674,"lng":135.144446},{"code":"28106092001","name":"明泉寺町１丁目","lat":34.679087,"lng":135.144377},{"code":"28106092002","name":"明泉寺町２丁目","lat":34.680649,"lng":135.144022},{"code":"28106092003","name":"明泉寺町３丁目","lat":34.682484,"lng":135.143137},{"code":"28106093001","name":"山下町１丁目","lat":34.662195,"lng":135.141408},{"code":"28106093002","name":"山下町２丁目","lat":34.662205,"lng":135.14026},{"code":"28106093003","name":"山下町３丁目","lat":34.662233,"lng":135.13937},{"code":"28106093004","name":"山下町４丁目","lat":34.662145,"lng":135.138117},{"code":"28106094001","name":"四番町１丁目","lat":34.672078,"lng":135.157929},{"code":"28106094002","name":"四番町２丁目","lat":34.671484,"lng":135.15698},{"code":"28106094003","name":"四番町３丁目","lat":34.670687,"lng":135.155723},{"code":"28106094004","name":"四番町４丁目","lat":34.669938,"lng":135.1546},{"code":"28106094005","name":"四番町５丁目","lat":34.669327,"lng":135.153547},{"code":"28106094006","name":"四番町６丁目","lat":34.668697,"lng":135.152623},{"code":"28106094007","name":"四番町７丁目","lat":34.668155,"lng":135.151626},{"code":"28106094008","name":"四番町８丁目","lat":34.667786,"lng":135.150989},{"code":"28106095001","name":"六番町１丁目","lat":34.673787,"lng":135.156204},{"code":"28106095002","name":"六番町２丁目","lat":34.6733,"lng":135.155257},{"code":"28106095003","name":"六番町３丁目","lat":34.672344,"lng":135.154249},{"code":"28106095004","name":"六番町４丁目","lat":34.671487,"lng":135.153128},{"code":"28106095005","name":"六番町５丁目","lat":34.670702,"lng":135.152141},{"code":"28106095006","name":"六番町６丁目","lat":34.670074,"lng":135.15123},{"code":"28106095007","name":"六番町７丁目","lat":34.669485,"lng":135.15044},{"code":"28106095008","name":"六番町８丁目","lat":34.668786,"lng":135.149598},{"code":"28106096001","name":"若松町１丁目","lat":34.658488,"lng":135.148739},{"code":"28106096002","name":"若松町２丁目","lat":34.657933,"lng":135.147801},{"code":"28106096003","name":"若松町３丁目","lat":34.65734,"lng":135.146817},{"code":"28106096004","name":"若松町４丁目","lat":34.656742,"lng":135.145806},{"code":"28106096005","name":"若松町５丁目","lat":34.656243,"lng":135.144846},{"code":"28106096006","name":"若松町６丁目","lat":34.655409,"lng":135.144255},{"code":"28106096007","name":"若松町７丁目","lat":34.654839,"lng":135.14333},{"code":"28106096008","name":"若松町８丁目","lat":34.654223,"lng":135.142412},{"code":"28106096009","name":"若松町９丁目","lat":34.653562,"lng":135.141394},{"code":"28106096010","name":"若松町１０丁目","lat":34.652923,"lng":135.140376},{"code":"28106096011","name":"若松町１１丁目","lat":34.652357,"lng":135.139522}]}
