{"municipality":"28105","name":"神戸市兵庫区","prefecture":"兵庫県","source":{"dataset":"frogcat/japan-small-area","census":"平成27年国勢調査 小地域（e-Stat 統計LOD）","license":"MIT（リポジトリ）／政府統計の総合窓口(e-Stat)の利用規約（元データ・出典表記必要）","fetched":"2026-07-06"},"towns":[{"code":"28105001001","name":"芦原通１丁目","lat":34.662996,"lng":135.169882},{"code":"28105001002","name":"芦原通２丁目","lat":34.66286,"lng":135.167857},{"code":"28105001003","name":"芦原通３丁目","lat":34.662934,"lng":135.166772},{"code":"28105001004","name":"芦原通４丁目","lat":34.663031,"lng":135.165601},{"code":"28105001005","name":"芦原通５丁目","lat":34.663114,"lng":135.164293},{"code":"28105001006","name":"芦原通６丁目","lat":34.663208,"lng":135.162479},{"code":"28105002001","name":"荒田町１丁目","lat":34.680948,"lng":135.167973},{"code":"28105002002","name":"荒田町２丁目","lat":34.682421,"lng":135.167646},{"code":"28105002003","name":"荒田町３丁目","lat":34.685569,"lng":135.167457},{"code":"28105002004","name":"荒田町４丁目","lat":34.68334,"lng":135.165524},{"code":"28105003001","name":"石井町１丁目","lat":34.689307,"lng":135.163652},{"code":"28105003002","name":"石井町２丁目","lat":34.689113,"lng":135.162719},{"code":"28105003003","name":"石井町３丁目","lat":34.688835,"lng":135.161765},{"code":"28105003004","name":"石井町４丁目","lat":34.688373,"lng":135.16076},{"code":"28105003005","name":"石井町５丁目","lat":34.690076,"lng":135.163325},{"code":"28105003006","name":"石井町６丁目","lat":34.689836,"lng":135.162514},{"code":"28105003007","name":"石井町７丁目","lat":34.689377,"lng":135.161379},{"code":"28105003008","name":"石井町８丁目","lat":34.688673,"lng":135.160256},{"code":"281050040","name":"磯之町","lat":34.66758,"lng":135.174155},{"code":"28105005001","name":"今出在家町１丁目","lat":34.661569,"lng":135.17725},{"code":"28105005002","name":"今出在家町２丁目","lat":34.661227,"lng":135.17599},{"code":"28105005003","name":"今出在家町３丁目","lat":34.66105,"lng":135.174441},{"code":"28105005004","name":"今出在家町４丁目","lat":34.661808,"lng":135.171874},{"code":"28105006001","name":"入江通１丁目","lat":34.666809,"lng":135.169613},{"code":"28105006002","name":"入江通２丁目","lat":34.66693,"lng":135.168323},{"code":"28105006003","name":"入江通３丁目","lat":34.666934,"lng":135.167162},{"code":"281050070","name":"梅元町","lat":34.693006,"lng":135.171879},{"code":"28105008002","name":"永沢町２丁目","lat":34.673367,"lng":135.172408},{"code":"28105008003","name":"永沢町３丁目","lat":34.673619,"lng":135.171155},{"code":"28105008004","name":"永沢町４丁目","lat":34.674017,"lng":135.169937},{"code":"28105009001","name":"駅前通１丁目","lat":34.668404,"lng":135.163653},{"code":"28105009002","name":"駅前通２丁目","lat":34.667606,"lng":135.162141},{"code":"28105009003","name":"駅前通３丁目","lat":34.668134,"lng":135.161175},{"code":"28105009004","name":"駅前通４丁目","lat":34.666848,"lng":135.1599},{"code":"28105009005","name":"駅前通５丁目","lat":34.66783,"lng":135.158616},{"code":"28105010001","name":"駅南通１丁目","lat":34.666601,"lng":135.164972},{"code":"28105010002","name":"駅南通２丁目","lat":34.665698,"lng":135.163683},{"code":"28105010003","name":"駅南通３丁目","lat":34.664497,"lng":135.161982},{"code":"28105010004","name":"駅南通４丁目","lat":34.663379,"lng":135.160364},{"code":"28105010005","name":"駅南通５丁目","lat":34.666595,"lng":135.162942},{"code":"28105011001","name":"会下山町１丁目","lat":34.679884,"lng":135.16037},{"code":"28105011002","name":"会下山町２丁目","lat":34.678599,"lng":135.159273},{"code":"28105011003","name":"会下山町３丁目","lat":34.676708,"lng":135.157554},{"code":"28105012001","name":"大井通１丁目","lat":34.679529,"lng":135.163078},{"code":"28105012002","name":"大井通２丁目","lat":34.678943,"lng":135.162222},{"code":"28105012003","name":"大井通３丁目","lat":34.678249,"lng":135.161305},{"code":"28105013001","name":"小河通１丁目","lat":34.665725,"lng":135.170765},{"code":"28105013002","name":"小河通２丁目","lat":34.665808,"lng":135.169458},{"code":"28105013003","name":"小河通３丁目","lat":34.665899,"lng":135.168152},{"code":"28105013004","name":"小河通４丁目","lat":34.665969,"lng":135.167079},{"code":"28105013005","name":"小河通５丁目","lat":34.666147,"lng":135.166066},{"code":"28105014005","name":"笠松通５丁目","lat":34.65728,"lng":135.173224},{"code":"28105014006","name":"笠松通６丁目","lat":34.656363,"lng":135.173746},{"code":"28105014007","name":"笠松通７丁目","lat":34.655529,"lng":135.174139},{"code":"28105014008","name":"笠松通８丁目","lat":34.654608,"lng":135.174498},{"code":"28105014009","name":"笠松通９丁目","lat":34.653669,"lng":135.174902},{"code":"28105014010","name":"笠松通１０丁目","lat":34.652873,"lng":135.175296},{"code":"28105015001","name":"鍛冶屋町１丁目","lat":34.669806,"lng":135.176799},{"code":"28105015002","name":"鍛冶屋町２丁目","lat":34.669823,"lng":135.175536},{"code":"281050160","name":"上祇園町","lat":34.691848,"lng":135.167692},{"code":"28105017001","name":"上沢通１丁目","lat":34.678903,"lng":135.165572},{"code":"28105017002","name":"上沢通２丁目","lat":34.678157,"lng":135.164563},{"code":"28105017003","name":"上沢通３丁目","lat":34.677488,"lng":135.163556},{"code":"28105017004","name":"上沢通４丁目","lat":34.676742,"lng":135.162477},{"code":"28105017005","name":"上沢通５丁目","lat":34.67601,"lng":135.161421},{"code":"28105017006","name":"上沢通６丁目","lat":34.675279,"lng":135.160345},{"code":"28105017007","name":"上沢通７丁目","lat":34.674581,"lng":135.159265},{"code":"28105017008","name":"上沢通８丁目","lat":34.67378,"lng":135.158015},{"code":"281050180","name":"上三条町","lat":34.691293,"lng":135.166598},{"code":"28105019001","name":"上庄通１丁目","lat":34.659215,"lng":135.175214},{"code":"28105019002","name":"上庄通２丁目","lat":34.657899,"lng":135.175521},{"code":"28105019003","name":"上庄通３丁目","lat":34.657356,"lng":135.17598},{"code":"281050200","name":"烏原町","lat":34.695797,"lng":135.153296},{"code":"281050220","name":"神田町","lat":34.689954,"lng":135.170692},{"code":"28105023001","name":"菊水町１丁目","lat":34.686566,"lng":135.164175},{"code":"28105023002","name":"菊水町２丁目","lat":34.686448,"lng":135.163447},{"code":"28105023003","name":"菊水町３丁目","lat":34.686344,"lng":135.162381},{"code":"28105023004","name":"菊水町４丁目","lat":34.686497,"lng":135.161387},{"code":"28105023005","name":"菊水町５丁目","lat":34.68544,"lng":135.160715},{"code":"28105023006","name":"菊水町６丁目","lat":34.68477,"lng":135.159593},{"code":"28105023007","name":"菊水町７丁目","lat":34.684149,"lng":135.158632},{"code":"28105023008","name":"菊水町８丁目","lat":34.68355,"lng":135.157611},{"code":"28105023009","name":"菊水町９丁目","lat":34.682335,"lng":135.15592},{"code":"28105023010","name":"菊水町１０丁目","lat":34.680908,"lng":135.153194},{"code":"281050240","name":"北逆瀬川町","lat":34.668128,"lng":135.171308},{"code":"281050250","name":"北山町","lat":34.688521,"lng":135.156788},{"code":"281050260","name":"切戸町","lat":34.665635,"lng":135.172216},{"code":"28105027001","name":"金平町１丁目","lat":34.654077,"lng":135.16565},{"code":"28105027002","name":"金平町２丁目","lat":34.65348,"lng":135.163457},{"code":"281050280","name":"楠谷町","lat":34.692987,"lng":135.174412},{"code":"28105029001","name":"熊野町１丁目","lat":34.687025,"lng":135.160193},{"code":"28105029002","name":"熊野町２丁目","lat":34.686698,"lng":135.159235},{"code":"28105029003","name":"熊野町３丁目","lat":34.685877,"lng":135.157584},{"code":"28105029004","name":"熊野町４丁目","lat":34.685627,"lng":135.155829},{"code":"28105029005","name":"熊野町５丁目","lat":34.684679,"lng":135.15456},{"code":"28105030002","name":"小松通２丁目","lat":34.657376,"lng":135.172349},{"code":"28105030003","name":"小松通３丁目","lat":34.656103,"lng":135.17291},{"code":"28105030004","name":"小松通４丁目","lat":34.65522,"lng":135.173213},{"code":"28105030005","name":"小松通５丁目","lat":34.654299,"lng":135.173568},{"code":"28105030006","name":"小松通６丁目","lat":34.653183,"lng":135.174055},{"code":"281050310","name":"小山町","lat":34.684975,"lng":135.152732},{"code":"28105032001","name":"御所通１丁目","lat":34.660731,"lng":135.164567},{"code":"28105032002","name":"御所通２丁目","lat":34.661377,"lng":135.161422},{"code":"281050330","name":"五宮町","lat":34.692345,"lng":135.169685},{"code":"281050340","name":"里山町","lat":34.692969,"lng":135.142513},{"code":"281050350","name":"佐比江町","lat":34.673638,"lng":135.176076},{"code":"28105036001","name":"山王町１丁目","lat":34.691962,"lng":135.16369},{"code":"28105036002","name":"山王町２丁目","lat":34.691646,"lng":135.162983},{"code":"281050370","name":"材木町","lat":34.658607,"lng":135.167102},{"code":"28105038001","name":"七宮町１丁目","lat":34.671174,"lng":135.177278},{"code":"28105038002","name":"七宮町２丁目","lat":34.671393,"lng":135.175729},{"code":"28105039001","name":"島上町１丁目","lat":34.668773,"lng":135.176833},{"code":"28105039002","name":"島上町２丁目","lat":34.668732,"lng":135.175415},{"code":"281050400","name":"清水町","lat":34.686264,"lng":135.15392},{"code":"281050410","name":"下祇園町","lat":34.688729,"lng":135.16908},{"code":"28105042001","name":"下沢通１丁目","lat":34.678003,"lng":135.166673},{"code":"28105042002","name":"下沢通２丁目","lat":34.677278,"lng":135.165579},{"code":"28105042003","name":"下沢通３丁目","lat":34.676562,"lng":135.16448},{"code":"28105042004","name":"下沢通４丁目","lat":34.675815,"lng":135.163431},{"code":"28105042005","name":"下沢通５丁目","lat":34.675069,"lng":135.162369},{"code":"28105042006","name":"下沢通６丁目","lat":34.674344,"lng":135.161289},{"code":"28105042007","name":"下沢通７丁目","lat":34.673613,"lng":135.160195},{"code":"28105042008","name":"下沢通８丁目","lat":34.672815,"lng":135.158961},{"code":"281050430","name":"下三条町","lat":34.688735,"lng":135.166976},{"code":"28105044001","name":"新開地１丁目","lat":34.678568,"lng":135.168074},{"code":"28105044002","name":"新開地２丁目","lat":34.677592,"lng":135.170001},{"code":"28105044003","name":"新開地３丁目","lat":34.677437,"lng":135.172037},{"code":"28105044004","name":"新開地４丁目","lat":34.677034,"lng":135.173124},{"code":"28105044005","name":"新開地５丁目","lat":34.676503,"lng":135.174074},{"code":"28105044006","name":"新開地６丁目","lat":34.67586,"lng":135.175403},{"code":"281050450","name":"神明町","lat":34.667913,"lng":135.172406},{"code":"28105046001","name":"須佐野通１丁目","lat":34.665117,"lng":135.170062},{"code":"28105046002","name":"須佐野通２丁目","lat":34.664913,"lng":135.16807},{"code":"28105046003","name":"須佐野通３丁目","lat":34.665,"lng":135.167009},{"code":"28105046004","name":"須佐野通４丁目","lat":34.665166,"lng":135.165473},{"code":"281050470","name":"高松町","lat":34.653024,"lng":135.161206},{"code":"281050480","name":"滝山町","lat":34.684486,"lng":135.151234},{"code":"28105049001","name":"大開通１丁目","lat":34.675736,"lng":135.169579},{"code":"28105049002","name":"大開通２丁目","lat":34.674756,"lng":135.168444},{"code":"28105049003","name":"大開通３丁目","lat":34.674008,"lng":135.167323},{"code":"28105049004","name":"大開通４丁目","lat":34.673444,"lng":135.166481},{"code":"28105049005","name":"大開通５丁目","lat":34.67275,"lng":135.16545},{"code":"28105049006","name":"大開通６丁目","lat":34.671852,"lng":135.164108},{"code":"28105049007","name":"大開通７丁目","lat":34.670976,"lng":135.162801},{"code":"28105049008","name":"大開通８丁目","lat":34.670142,"lng":135.161592},{"code":"28105049009","name":"大開通９丁目","lat":34.669404,"lng":135.160506},{"code":"28105049010","name":"大開通１０丁目","lat":34.668802,"lng":135.15962},{"code":"28105050001","name":"大同町１丁目","lat":34.688085,"lng":135.16396},{"code":"28105050002","name":"大同町２丁目","lat":34.688001,"lng":135.1631},{"code":"28105050003","name":"大同町３丁目","lat":34.687786,"lng":135.16202},{"code":"28105050004","name":"大同町４丁目","lat":34.687631,"lng":135.161138},{"code":"28105050005","name":"大同町５丁目","lat":34.68744,"lng":135.160639},{"code":"28105051001","name":"千鳥町１丁目","lat":34.692529,"lng":135.161862},{"code":"28105051002","name":"千鳥町２丁目","lat":34.691369,"lng":135.161499},{"code":"28105051003","name":"千鳥町３丁目","lat":34.691321,"lng":135.159944},{"code":"28105051004","name":"千鳥町４丁目","lat":34.68972,"lng":135.159769},{"code":"28105052001","name":"塚本通１丁目","lat":34.673838,"lng":135.16883},{"code":"28105052002","name":"塚本通２丁目","lat":34.673089,"lng":135.168198},{"code":"28105052003","name":"塚本通３丁目","lat":34.672492,"lng":135.167373},{"code":"28105052004","name":"塚本通４丁目","lat":34.671816,"lng":135.166381},{"code":"28105052005","name":"塚本通５丁目","lat":34.670894,"lng":135.16505},{"code":"28105052006","name":"塚本通６丁目","lat":34.670048,"lng":135.163754},{"code":"28105052007","name":"塚本通７丁目","lat":34.669329,"lng":135.162698},{"code":"28105052008","name":"塚本通８丁目","lat":34.668869,"lng":135.161463},{"code":"281050530","name":"築地町","lat":34.665155,"lng":135.18258},{"code":"28105054001","name":"都由乃町１丁目","lat":34.690795,"lng":135.162364},{"code":"28105054002","name":"都由乃町２丁目","lat":34.690137,"lng":135.161434},{"code":"28105054003","name":"都由乃町３丁目","lat":34.689539,"lng":135.160663},{"code":"28105055001","name":"天王町１丁目","lat":34.69361,"lng":135.161916},{"code":"28105055002","name":"天王町２丁目","lat":34.692253,"lng":135.16015},{"code":"28105055003","name":"天王町３丁目","lat":34.69336,"lng":135.159189},{"code":"28105055004","name":"天王町４丁目","lat":34.694018,"lng":135.16005},{"code":"28105056001","name":"出在家町１丁目","lat":34.663439,"lng":135.176584},{"code":"28105056002","name":"出在家町２丁目","lat":34.663082,"lng":135.174511},{"code":"28105057001","name":"遠矢町１丁目","lat":34.652046,"lng":135.178242},{"code":"28105057002","name":"遠矢町２丁目","lat":34.65204,"lng":135.175399},{"code":"281050580","name":"遠矢浜町","lat":34.649865,"lng":135.170793},{"code":"28105059001","name":"中之島１丁目","lat":34.665977,"lng":135.176943},{"code":"28105059002","name":"中之島２丁目","lat":34.665086,"lng":135.17459},{"code":"28105060001","name":"中道通１丁目","lat":34.677214,"lng":135.167821},{"code":"28105060002","name":"中道通２丁目","lat":34.676364,"lng":135.166484},{"code":"28105060003","name":"中道通３丁目","lat":34.675634,"lng":135.16541},{"code":"28105060004","name":"中道通４丁目","lat":34.674906,"lng":135.164354},{"code":"28105060005","name":"中道通５丁目","lat":34.674328,"lng":135.163492},{"code":"28105060006","name":"中道通６丁目","lat":34.673603,"lng":135.162402},{"code":"28105060007","name":"中道通７丁目","lat":34.672722,"lng":135.161092},{"code":"28105060008","name":"中道通８丁目","lat":34.671995,"lng":135.160024},{"code":"28105060009","name":"中道通９丁目","lat":34.67107,"lng":135.158634},{"code":"28105061001","name":"西上橘通１丁目","lat":34.68118,"lng":135.171287},{"code":"28105061002","name":"西上橘通２丁目","lat":34.680662,"lng":135.170393},{"code":"28105062001","name":"西橘通１丁目","lat":34.680267,"lng":135.172216},{"code":"28105062002","name":"西橘通２丁目","lat":34.679748,"lng":135.171344},{"code":"28105063001","name":"西多聞通１丁目","lat":34.679416,"lng":135.173053},{"code":"28105063002","name":"西多聞通２丁目","lat":34.67892,"lng":135.172192},{"code":"28105064000","name":"西出町","lat":34.673093,"lng":135.176731},{"code":"28105064001","name":"西出町１丁目","lat":34.671847,"lng":135.178838},{"code":"28105064002","name":"西出町２丁目","lat":34.673831,"lng":135.178087},{"code":"281050650","name":"西仲町","lat":34.669704,"lng":135.172916},{"code":"281050660","name":"西宮内町","lat":34.669627,"lng":135.171881},{"code":"281050670","name":"西柳原町","lat":34.669531,"lng":135.168757},{"code":"28105068001","name":"羽坂通１丁目","lat":34.671787,"lng":135.167974},{"code":"28105068002","name":"羽坂通２丁目","lat":34.670881,"lng":135.167159},{"code":"28105068003","name":"羽坂通３丁目","lat":34.670045,"lng":135.166037},{"code":"28105068004","name":"羽坂通４丁目","lat":34.669216,"lng":135.164875},{"code":"281050690","name":"浜崎通","lat":34.667964,"lng":135.167085},{"code":"28105070001","name":"浜中町１丁目","lat":34.65584,"lng":135.165057},{"code":"28105070002","name":"浜中町２丁目","lat":34.655202,"lng":135.162555},{"code":"28105071001","name":"浜山通１丁目","lat":34.65808,"lng":135.171369},{"code":"28105071002","name":"浜山通２丁目","lat":34.656893,"lng":135.171805},{"code":"28105071003","name":"浜山通３丁目","lat":34.65575,"lng":135.172232},{"code":"28105071004","name":"浜山通４丁目","lat":34.654982,"lng":135.172589},{"code":"28105071005","name":"浜山通５丁目","lat":34.653981,"lng":135.172656},{"code":"28105071006","name":"浜山通６丁目","lat":34.652995,"lng":135.172876},{"code":"281050720","name":"馬場町","lat":34.687862,"lng":135.171431},{"code":"28105074001","name":"東出町１丁目","lat":34.671371,"lng":135.183041},{"code":"28105074002","name":"東出町２丁目","lat":34.672515,"lng":135.181172},{"code":"28105074003","name":"東出町３丁目","lat":34.67285,"lng":135.179897},{"code":"281050750","name":"東柳原町","lat":34.668311,"lng":135.169785},{"code":"28105076001","name":"東山町１丁目","lat":34.683169,"lng":135.164377},{"code":"28105076002","name":"東山町２丁目","lat":34.682193,"lng":135.163654},{"code":"28105076003","name":"東山町３丁目","lat":34.680667,"lng":135.162648},{"code":"28105076004","name":"東山町４丁目","lat":34.68193,"lng":135.161611},{"code":"28105077001","name":"氷室町１丁目","lat":34.688425,"lng":135.158901},{"code":"28105077002","name":"氷室町２丁目","lat":34.687131,"lng":135.157022},{"code":"28105079001","name":"兵庫町１丁目","lat":34.672512,"lng":135.174127},{"code":"28105079002","name":"兵庫町２丁目","lat":34.671856,"lng":135.172879},{"code":"281050800","name":"鵯越筋","lat":34.687629,"lng":135.152359},{"code":"281050810","name":"鵯越町","lat":34.682464,"lng":135.154155},{"code":"281050820","name":"平野町","lat":34.702589,"lng":135.167226},{"code":"281050830","name":"福原町","lat":34.679237,"lng":135.169927},{"code":"281050840","name":"船大工町","lat":34.667404,"lng":135.175445},{"code":"28105085001","name":"本町１丁目","lat":34.669975,"lng":135.174626},{"code":"28105085002","name":"本町２丁目","lat":34.669783,"lng":135.173722},{"code":"28105086001","name":"松原通１丁目","lat":34.664222,"lng":135.169836},{"code":"28105086002","name":"松原通２丁目","lat":34.663949,"lng":135.167966},{"code":"28105086003","name":"松原通３丁目","lat":34.664048,"lng":135.166922},{"code":"28105086004","name":"松原通４丁目","lat":34.664321,"lng":135.165109},{"code":"28105086005","name":"松原通５丁目","lat":34.664243,"lng":135.163479},{"code":"28105087001","name":"松本通１丁目","lat":34.679808,"lng":135.164608},{"code":"28105087002","name":"松本通２丁目","lat":34.679028,"lng":135.163749},{"code":"28105087003","name":"松本通３丁目","lat":34.678334,"lng":135.16274},{"code":"28105087004","name":"松本通４丁目","lat":34.677612,"lng":135.161642},{"code":"28105087005","name":"松本通５丁目","lat":34.676846,"lng":135.160659},{"code":"28105087006","name":"松本通６丁目","lat":34.676055,"lng":135.159593},{"code":"28105087007","name":"松本通７丁目","lat":34.675292,"lng":135.158644},{"code":"28105087008","name":"松本通８丁目","lat":34.674449,"lng":135.157173},{"code":"28105088001","name":"三川口町１丁目","lat":34.671236,"lng":135.171637},{"code":"28105088002","name":"三川口町２丁目","lat":34.672326,"lng":135.169818},{"code":"28105088003","name":"三川口町３丁目","lat":34.671231,"lng":135.168697},{"code":"28105089001","name":"御崎町１丁目","lat":34.657113,"lng":135.169509},{"code":"28105089002","name":"御崎町２丁目","lat":34.656164,"lng":135.167013},{"code":"28105090001","name":"御崎本町１丁目","lat":34.661446,"lng":135.170594},{"code":"28105090002","name":"御崎本町２丁目","lat":34.659646,"lng":135.171494},{"code":"28105090003","name":"御崎本町３丁目","lat":34.659446,"lng":135.17035},{"code":"28105090004","name":"御崎本町４丁目","lat":34.660446,"lng":135.169009},{"code":"28105092001","name":"水木通１丁目","lat":34.676432,"lng":135.168891},{"code":"28105092002","name":"水木通２丁目","lat":34.675512,"lng":135.167394},{"code":"28105092003","name":"水木通３丁目","lat":34.674783,"lng":135.16632},{"code":"28105092004","name":"水木通４丁目","lat":34.674018,"lng":135.165186},{"code":"28105092005","name":"水木通５丁目","lat":34.67333,"lng":135.164101},{"code":"28105092006","name":"水木通６丁目","lat":34.672601,"lng":135.16302},{"code":"28105092007","name":"水木通７丁目","lat":34.671867,"lng":135.161919},{"code":"28105092008","name":"水木通８丁目","lat":34.671142,"lng":135.160877},{"code":"28105092009","name":"水木通９丁目","lat":34.67039,"lng":135.159765},{"code":"28105092010","name":"水木通１０丁目","lat":34.669665,"lng":135.158707},{"code":"28105093001","name":"三石通１丁目","lat":34.659758,"lng":135.176025},{"code":"28105093002","name":"三石通２丁目","lat":34.658943,"lng":135.176329},{"code":"28105093003","name":"三石通３丁目","lat":34.658037,"lng":135.176903},{"code":"28105094001","name":"湊川町１丁目","lat":34.68514,"lng":135.163982},{"code":"28105094002","name":"湊川町２丁目","lat":34.684722,"lng":135.163023},{"code":"28105094003","name":"湊川町３丁目","lat":34.684421,"lng":135.162073},{"code":"28105094004","name":"湊川町４丁目","lat":34.683884,"lng":135.161673},{"code":"28105094005","name":"湊川町５丁目","lat":34.683631,"lng":135.160904},{"code":"28105094006","name":"湊川町６丁目","lat":34.683133,"lng":135.160048},{"code":"28105094007","name":"湊川町７丁目","lat":34.682658,"lng":135.159258},{"code":"28105094008","name":"湊川町８丁目","lat":34.682243,"lng":135.158581},{"code":"28105094009","name":"湊川町９丁目","lat":34.681582,"lng":135.157647},{"code":"28105094010","name":"湊川町１０丁目","lat":34.679176,"lng":135.156054},{"code":"28105095001","name":"湊町１丁目","lat":34.674466,"lng":135.175126},{"code":"28105095002","name":"湊町２丁目","lat":34.675017,"lng":135.173236},{"code":"28105095003","name":"湊町３丁目","lat":34.675508,"lng":135.172041},{"code":"28105095004","name":"湊町４丁目","lat":34.675755,"lng":135.170674},{"code":"281050960","name":"湊山町","lat":34.691197,"lng":135.164935},{"code":"281050970","name":"南逆瀬川町","lat":34.666711,"lng":135.17091},{"code":"281050980","name":"南仲町","lat":34.667741,"lng":135.173227},{"code":"28105099001","name":"明和通１丁目","lat":34.661419,"lng":135.167591},{"code":"28105099002","name":"明和通２丁目","lat":34.661641,"lng":135.165948},{"code":"28105099003","name":"明和通３丁目","lat":34.662105,"lng":135.163765},{"code":"281051000","name":"門口町","lat":34.670511,"lng":135.170283},{"code":"281051010","name":"矢部町","lat":34.690655,"lng":135.172692},{"code":"281051020","name":"雪御所町","lat":34.688566,"lng":135.165007},{"code":"28105103001","name":"夢野町１丁目","lat":34.68636,"lng":135.160487},{"code":"28105103002","name":"夢野町２丁目","lat":34.685625,"lng":135.159398},{"code":"28105103003","name":"夢野町３丁目","lat":34.684623,"lng":135.157713},{"code":"28105103004","name":"夢野町４丁目","lat":34.683904,"lng":135.156413},{"code":"28105105001","name":"吉田町１丁目","lat":34.653548,"lng":135.170776},{"code":"28105105002","name":"吉田町２丁目","lat":34.653531,"lng":135.167929},{"code":"28105105003","name":"吉田町３丁目","lat":34.652869,"lng":135.16535},{"code":"28105106001","name":"和田崎町１丁目","lat":34.653534,"lng":135.179924},{"code":"28105106002","name":"和田崎町２丁目","lat":34.659615,"lng":135.177189},{"code":"28105106003","name":"和田崎町３丁目","lat":34.65969,"lng":135.176614},{"code":"28105107002","name":"和田宮通２丁目","lat":34.659681,"lng":135.173178},{"code":"28105107003","name":"和田宮通３丁目","lat":34.657923,"lng":135.173878},{"code":"28105107004","name":"和田宮通４丁目","lat":34.656852,"lng":135.174511},{"code":"28105107005","name":"和田宮通５丁目","lat":34.655954,"lng":135.175188},{"code":"28105107006","name":"和田宮通６丁目","lat":34.65488,"lng":135.175563},{"code":"28105107007","name":"和田宮通７丁目","lat":34.653995,"lng":135.175948},{"code":"28105107008","name":"和田宮通８丁目","lat":34.653025,"lng":135.176408},{"code":"28105108001","name":"和田山通１丁目","lat":34.659238,"lng":135.164578},{"code":"28105108002","name":"和田山通２丁目","lat":34.658309,"lng":135.16141}]}
