{"municipality":"28110","name":"神戸市中央区","prefecture":"兵庫県","source":{"dataset":"frogcat/japan-small-area","census":"平成27年国勢調査 小地域（e-Stat 統計LOD）","license":"MIT（リポジトリ）／政府統計の総合窓口(e-Stat)の利用規約（元データ・出典表記必要）","fetched":"2026-07-06"},"towns":[{"code":"28110001001","name":"相生町１丁目","lat":34.68191,"lng":135.17954},{"code":"28110001002","name":"相生町２丁目","lat":34.681011,"lng":135.177977},{"code":"28110001003","name":"相生町３丁目","lat":34.679559,"lng":135.177791},{"code":"28110001004","name":"相生町４丁目","lat":34.677784,"lng":135.17726},{"code":"28110001005","name":"相生町５丁目","lat":34.67622,"lng":135.177046},{"code":"281100020","name":"明石町","lat":34.688425,"lng":135.190908},{"code":"28110003001","name":"旭通１丁目","lat":34.698201,"lng":135.2007},{"code":"28110003002","name":"旭通２丁目","lat":34.697756,"lng":135.199842},{"code":"28110003003","name":"旭通３丁目","lat":34.697183,"lng":135.198869},{"code":"28110003004","name":"旭通４丁目","lat":34.696574,"lng":135.197882},{"code":"28110003005","name":"旭通５丁目","lat":34.695857,"lng":135.19677},{"code":"28110004001","name":"吾妻通１丁目","lat":34.699614,"lng":135.208069},{"code":"28110004002","name":"吾妻通２丁目","lat":34.699139,"lng":135.206881},{"code":"28110004003","name":"吾妻通３丁目","lat":34.698728,"lng":135.205881},{"code":"28110004004","name":"吾妻通４丁目","lat":34.698303,"lng":135.204914},{"code":"28110004005","name":"吾妻通５丁目","lat":34.697855,"lng":135.203895},{"code":"28110004006","name":"吾妻通６丁目","lat":34.697365,"lng":135.202641},{"code":"28110005001","name":"生田町１丁目","lat":34.704031,"lng":135.196615},{"code":"28110005002","name":"生田町２丁目","lat":34.702359,"lng":135.196729},{"code":"28110005003","name":"生田町３丁目","lat":34.701728,"lng":135.197703},{"code":"28110005004","name":"生田町４丁目","lat":34.701063,"lng":135.195894},{"code":"28110006001","name":"磯上通１丁目","lat":34.694042,"lng":135.203278},{"code":"28110006002","name":"磯上通２丁目","lat":34.693705,"lng":135.202358},{"code":"28110006003","name":"磯上通３丁目","lat":34.693208,"lng":135.201268},{"code":"28110006004","name":"磯上通４丁目","lat":34.692744,"lng":135.200213},{"code":"28110006005","name":"磯上通５丁目","lat":34.692648,"lng":135.198999},{"code":"28110006006","name":"磯上通６丁目","lat":34.692311,"lng":135.198193},{"code":"28110006007","name":"磯上通７丁目","lat":34.691936,"lng":135.197297},{"code":"28110006008","name":"磯上通８丁目","lat":34.691252,"lng":135.196246},{"code":"28110007001","name":"磯辺通１丁目","lat":34.690915,"lng":135.200302},{"code":"28110007002","name":"磯辺通２丁目","lat":34.689988,"lng":135.199596},{"code":"28110007003","name":"磯辺通３丁目","lat":34.689516,"lng":135.198796},{"code":"28110007004","name":"磯辺通４丁目","lat":34.688841,"lng":135.197653},{"code":"281100080","name":"伊藤町","lat":34.687854,"lng":135.194937},{"code":"281100090","name":"江戸町","lat":34.689192,"lng":135.194425},{"code":"28110010001","name":"小野柄通１丁目","lat":34.695984,"lng":135.202095},{"code":"28110010002","name":"小野柄通２丁目","lat":34.69558,"lng":135.201189},{"code":"28110010003","name":"小野柄通３丁目","lat":34.69511,"lng":135.20012},{"code":"28110010004","name":"小野柄通４丁目","lat":34.694616,"lng":135.199032},{"code":"28110010005","name":"小野柄通５丁目","lat":34.69419,"lng":135.198016},{"code":"28110010006","name":"小野柄通６丁目","lat":34.693881,"lng":135.197287},{"code":"28110010007","name":"小野柄通７丁目","lat":34.693528,"lng":135.196371},{"code":"28110010008","name":"小野柄通８丁目","lat":34.693053,"lng":135.195242},{"code":"281100110","name":"小野浜町","lat":34.689141,"lng":135.208223},{"code":"28110012000","name":"海岸通","lat":34.686493,"lng":135.192777},{"code":"28110012001","name":"海岸通１丁目","lat":34.686396,"lng":135.189163},{"code":"28110012002","name":"海岸通２丁目","lat":34.686161,"lng":135.187911},{"code":"28110012003","name":"海岸通３丁目","lat":34.685792,"lng":135.186371},{"code":"28110012004","name":"海岸通４丁目","lat":34.68523,"lng":135.184549},{"code":"28110012005","name":"海岸通５丁目","lat":34.684236,"lng":135.183479},{"code":"28110012006","name":"海岸通６丁目","lat":34.683061,"lng":135.182728},{"code":"28110013001","name":"籠池通１丁目","lat":34.71209,"lng":135.210532},{"code":"28110013002","name":"籠池通２丁目","lat":34.711808,"lng":135.20971},{"code":"28110013003","name":"籠池通３丁目","lat":34.711383,"lng":135.208724},{"code":"28110013004","name":"籠池通４丁目","lat":34.710922,"lng":135.207265},{"code":"28110013005","name":"籠池通５丁目","lat":34.710392,"lng":135.206073},{"code":"28110013006","name":"籠池通６丁目","lat":34.709979,"lng":135.205384},{"code":"28110013007","name":"籠池通７丁目","lat":34.709529,"lng":135.204304},{"code":"28110014001","name":"加納町１丁目","lat":34.705035,"lng":135.195079},{"code":"28110014002","name":"加納町２丁目","lat":34.701173,"lng":135.19406},{"code":"28110014003","name":"加納町３丁目","lat":34.69765,"lng":135.193166},{"code":"28110014004","name":"加納町４丁目","lat":34.695359,"lng":135.193339},{"code":"28110014005","name":"加納町５丁目","lat":34.69245,"lng":135.194709},{"code":"28110014006","name":"加納町６丁目","lat":34.688225,"lng":135.196281},{"code":"28110015001","name":"上筒井通１丁目","lat":34.709308,"lng":135.211992},{"code":"28110015002","name":"上筒井通２丁目","lat":34.708836,"lng":135.211013},{"code":"28110015003","name":"上筒井通３丁目","lat":34.708642,"lng":135.209978},{"code":"28110015004","name":"上筒井通４丁目","lat":34.708479,"lng":135.208985},{"code":"28110015005","name":"上筒井通５丁目","lat":34.708166,"lng":135.207676},{"code":"28110015006","name":"上筒井通６丁目","lat":34.707912,"lng":135.206291},{"code":"28110015007","name":"上筒井通７丁目","lat":34.707489,"lng":135.204909},{"code":"28110016001","name":"神若通１丁目","lat":34.704246,"lng":135.205168},{"code":"28110016002","name":"神若通２丁目","lat":34.703852,"lng":135.204118},{"code":"28110016003","name":"神若通３丁目","lat":34.703562,"lng":135.203242},{"code":"28110016004","name":"神若通４丁目","lat":34.703244,"lng":135.202283},{"code":"28110016005","name":"神若通５丁目","lat":34.702888,"lng":135.201216},{"code":"28110016006","name":"神若通６丁目","lat":34.702516,"lng":135.200075},{"code":"28110016007","name":"神若通７丁目","lat":34.702042,"lng":135.19928},{"code":"28110017001","name":"北長狭通１丁目","lat":34.693357,"lng":135.192449},{"code":"28110017002","name":"北長狭通２丁目","lat":34.692078,"lng":135.190524},{"code":"28110017003","name":"北長狭通３丁目","lat":34.6913,"lng":135.188874},{"code":"28110017004","name":"北長狭通４丁目","lat":34.690425,"lng":135.186626},{"code":"28110017005","name":"北長狭通５丁目","lat":34.688974,"lng":135.184272},{"code":"28110017006","name":"北長狭通６丁目","lat":34.686738,"lng":135.181739},{"code":"28110017007","name":"北長狭通７丁目","lat":34.684865,"lng":135.179411},{"code":"28110017008","name":"北長狭通８丁目","lat":34.683689,"lng":135.17815},{"code":"28110018001","name":"北野町１丁目","lat":34.702705,"lng":135.193009},{"code":"28110018002","name":"北野町２丁目","lat":34.701505,"lng":135.191119},{"code":"28110018003","name":"北野町３丁目","lat":34.70065,"lng":135.189322},{"code":"28110018004","name":"北野町４丁目","lat":34.699187,"lng":135.187199},{"code":"28110019001","name":"北本町通１丁目","lat":34.698685,"lng":135.208613},{"code":"28110019002","name":"北本町通２丁目","lat":34.698211,"lng":135.207431},{"code":"28110019003","name":"北本町通３丁目","lat":34.6978,"lng":135.206414},{"code":"28110019004","name":"北本町通４丁目","lat":34.697374,"lng":135.205471},{"code":"28110019005","name":"北本町通５丁目","lat":34.696914,"lng":135.204436},{"code":"28110019006","name":"北本町通６丁目","lat":34.696429,"lng":135.203192},{"code":"281100200","name":"京町","lat":34.688427,"lng":135.193478},{"code":"28110021001","name":"楠町１丁目","lat":34.684661,"lng":135.176528},{"code":"28110021002","name":"楠町２丁目","lat":34.68355,"lng":135.175511},{"code":"28110021003","name":"楠町３丁目","lat":34.684493,"lng":135.174737},{"code":"28110021004","name":"楠町４丁目","lat":34.683626,"lng":135.17319},{"code":"28110021005","name":"楠町５丁目","lat":34.682399,"lng":135.173219},{"code":"28110021006","name":"楠町６丁目","lat":34.682686,"lng":135.171585},{"code":"28110021007","name":"楠町７丁目","lat":34.685905,"lng":135.172214},{"code":"28110021008","name":"楠町８丁目","lat":34.687086,"lng":135.174182},{"code":"28110022001","name":"国香通１丁目","lat":34.703625,"lng":135.205599},{"code":"28110022002","name":"国香通２丁目","lat":34.70306,"lng":135.204472},{"code":"28110022003","name":"国香通３丁目","lat":34.702678,"lng":135.203665},{"code":"28110022004","name":"国香通４丁目","lat":34.702346,"lng":135.202714},{"code":"28110022005","name":"国香通５丁目","lat":34.701998,"lng":135.201641},{"code":"28110022006","name":"国香通６丁目","lat":34.701634,"lng":135.200532},{"code":"28110022007","name":"国香通７丁目","lat":34.701112,"lng":135.199788},{"code":"28110023001","name":"雲井通１丁目","lat":34.696921,"lng":135.201536},{"code":"28110023002","name":"雲井通２丁目","lat":34.696502,"lng":135.20061},{"code":"28110023003","name":"雲井通３丁目","lat":34.696039,"lng":135.199554},{"code":"28110023004","name":"雲井通４丁目","lat":34.695514,"lng":135.19849},{"code":"28110023005","name":"雲井通５丁目","lat":34.695148,"lng":135.197502},{"code":"28110023006","name":"雲井通６丁目","lat":34.694796,"lng":135.19667},{"code":"28110023007","name":"雲井通７丁目","lat":34.694513,"lng":135.195986},{"code":"28110023008","name":"雲井通８丁目","lat":34.693945,"lng":135.195117},{"code":"28110024001","name":"熊内町１丁目","lat":34.707468,"lng":135.203075},{"code":"28110024002","name":"熊内町２丁目","lat":34.706981,"lng":135.201314},{"code":"28110024003","name":"熊内町３丁目","lat":34.706464,"lng":135.199937},{"code":"28110024004","name":"熊内町４丁目","lat":34.705669,"lng":135.198275},{"code":"28110024005","name":"熊内町５丁目","lat":34.709421,"lng":135.201078},{"code":"28110024006","name":"熊内町６丁目","lat":34.708658,"lng":135.199537},{"code":"28110024007","name":"熊内町７丁目","lat":34.706933,"lng":135.197826},{"code":"28110024008","name":"熊内町８丁目","lat":34.71048,"lng":135.198657},{"code":"28110024009","name":"熊内町９丁目","lat":34.709263,"lng":135.198003},{"code":"28110025001","name":"熊内橋通１丁目","lat":34.706065,"lng":135.204144},{"code":"28110025002","name":"熊内橋通２丁目","lat":34.705755,"lng":135.203115},{"code":"28110025003","name":"熊内橋通３丁目","lat":34.705507,"lng":135.202337},{"code":"28110025004","name":"熊内橋通４丁目","lat":34.705151,"lng":135.201318},{"code":"28110025005","name":"熊内橋通５丁目","lat":34.704809,"lng":135.200272},{"code":"28110025006","name":"熊内橋通６丁目","lat":34.704497,"lng":135.199133},{"code":"28110025007","name":"熊内橋通７丁目","lat":34.70415,"lng":135.198132},{"code":"281100260","name":"神戸港地方","lat":34.708571,"lng":135.180327},{"code":"28110027001","name":"琴ノ緒町１丁目","lat":34.698539,"lng":135.198643},{"code":"28110027002","name":"琴ノ緒町２丁目","lat":34.697726,"lng":135.197266},{"code":"28110027003","name":"琴ノ緒町３丁目","lat":34.697128,"lng":135.196279},{"code":"28110027004","name":"琴ノ緒町４丁目","lat":34.696619,"lng":135.195583},{"code":"28110027005","name":"琴ノ緒町５丁目","lat":34.695811,"lng":135.194886},{"code":"28110028001","name":"古湊通１丁目","lat":34.678223,"lng":135.175921},{"code":"28110028002","name":"古湊通２丁目","lat":34.677439,"lng":135.175098},{"code":"28110029001","name":"御幸通１丁目","lat":34.695102,"lng":135.202582},{"code":"28110029002","name":"御幸通２丁目","lat":34.69473,"lng":135.201727},{"code":"28110029003","name":"御幸通３丁目","lat":34.694272,"lng":135.200617},{"code":"28110029004","name":"御幸通４丁目","lat":34.693808,"lng":135.199496},{"code":"28110029005","name":"御幸通５丁目","lat":34.693462,"lng":135.198566},{"code":"28110029006","name":"御幸通６丁目","lat":34.693071,"lng":135.197714},{"code":"28110029007","name":"御幸通７丁目","lat":34.692712,"lng":135.196861},{"code":"28110029008","name":"御幸通８丁目","lat":34.692229,"lng":135.195696},{"code":"28110030001","name":"栄町通１丁目","lat":34.687544,"lng":135.189014},{"code":"28110030002","name":"栄町通２丁目","lat":34.687268,"lng":135.187521},{"code":"28110030003","name":"栄町通３丁目","lat":34.686622,"lng":135.185824},{"code":"28110030004","name":"栄町通４丁目","lat":34.685924,"lng":135.184039},{"code":"28110030005","name":"栄町通５丁目","lat":34.684597,"lng":135.18278},{"code":"28110030006","name":"栄町通６丁目","lat":34.683041,"lng":135.181757},{"code":"28110030007","name":"栄町通７丁目","lat":34.681791,"lng":135.181098},{"code":"28110031001","name":"坂口通１丁目","lat":34.708301,"lng":135.212503},{"code":"28110031002","name":"坂口通２丁目","lat":34.708058,"lng":135.211296},{"code":"28110031003","name":"坂口通３丁目","lat":34.707798,"lng":135.210254},{"code":"28110031004","name":"坂口通４丁目","lat":34.707544,"lng":135.209289},{"code":"28110031005","name":"坂口通５丁目","lat":34.707274,"lng":135.208065},{"code":"28110031006","name":"坂口通６丁目","lat":34.706945,"lng":135.206668},{"code":"28110031007","name":"坂口通７丁目","lat":34.706656,"lng":135.205382},{"code":"28110032001","name":"三宮町１丁目","lat":34.691628,"lng":135.193406},{"code":"28110032002","name":"三宮町２丁目","lat":34.690603,"lng":135.191331},{"code":"28110032003","name":"三宮町３丁目","lat":34.689909,"lng":135.189937},{"code":"28110033001","name":"東雲通１丁目","lat":34.702367,"lng":135.206347},{"code":"28110033002","name":"東雲通２丁目","lat":34.701827,"lng":135.205266},{"code":"28110033003","name":"東雲通３丁目","lat":34.701367,"lng":135.204363},{"code":"28110033004","name":"東雲通４丁目","lat":34.700886,"lng":135.203476},{"code":"28110033005","name":"東雲通５丁目","lat":34.700301,"lng":135.202502},{"code":"28110033006","name":"東雲通６丁目","lat":34.699729,"lng":135.201462},{"code":"28110034001","name":"下山手通１丁目","lat":34.69465,"lng":135.190747},{"code":"28110034002","name":"下山手通２丁目","lat":34.693401,"lng":135.189883},{"code":"28110034003","name":"下山手通３丁目","lat":34.692686,"lng":135.188045},{"code":"28110034004","name":"下山手通４丁目","lat":34.691919,"lng":135.185193},{"code":"28110034005","name":"下山手通５丁目","lat":34.690309,"lng":135.183304},{"code":"28110034006","name":"下山手通６丁目","lat":34.689905,"lng":135.180569},{"code":"28110034007","name":"下山手通７丁目","lat":34.688062,"lng":135.177478},{"code":"28110034008","name":"下山手通８丁目","lat":34.686253,"lng":135.178641},{"code":"28110034009","name":"下山手通９丁目","lat":34.686087,"lng":135.176515},{"code":"281100350","name":"新港町","lat":34.683095,"lng":135.197316},{"code":"28110036001","name":"神仙寺通１丁目","lat":34.715052,"lng":135.207891},{"code":"28110036002","name":"神仙寺通２丁目","lat":34.714224,"lng":135.208436},{"code":"28110036003","name":"神仙寺通３丁目","lat":34.713227,"lng":135.20697},{"code":"28110036004","name":"神仙寺通４丁目","lat":34.712961,"lng":135.205899},{"code":"281100370","name":"諏訪山町","lat":34.695543,"lng":135.17905},{"code":"28110038001","name":"橘通１丁目","lat":34.683112,"lng":135.177264},{"code":"28110038002","name":"橘通２丁目","lat":34.682595,"lng":135.176363},{"code":"28110038003","name":"橘通３丁目","lat":34.681253,"lng":135.174253},{"code":"28110038004","name":"橘通４丁目","lat":34.680862,"lng":135.173211},{"code":"28110039001","name":"多聞通１丁目","lat":34.682263,"lng":135.177955},{"code":"28110039002","name":"多聞通２丁目","lat":34.681631,"lng":135.177181},{"code":"28110039003","name":"多聞通３丁目","lat":34.68112,"lng":135.175863},{"code":"28110039004","name":"多聞通４丁目","lat":34.680383,"lng":135.175091},{"code":"28110039005","name":"多聞通５丁目","lat":34.680026,"lng":135.174051},{"code":"28110040001","name":"大日通１丁目","lat":34.706392,"lng":135.213556},{"code":"28110040002","name":"大日通２丁目","lat":34.706071,"lng":135.212193},{"code":"28110040003","name":"大日通３丁目","lat":34.705796,"lng":135.210972},{"code":"28110040004","name":"大日通４丁目","lat":34.705585,"lng":135.209922},{"code":"28110040005","name":"大日通５丁目","lat":34.705285,"lng":135.208842},{"code":"28110040006","name":"大日通６丁目","lat":34.704968,"lng":135.2076},{"code":"28110040007","name":"大日通７丁目","lat":34.70467,"lng":135.20645},{"code":"28110041001","name":"筒井町１丁目","lat":34.702782,"lng":135.210213},{"code":"28110041002","name":"筒井町２丁目","lat":34.702426,"lng":135.209188},{"code":"28110041003","name":"筒井町３丁目","lat":34.702101,"lng":135.208054},{"code":"281100420","name":"中尾町","lat":34.710447,"lng":135.20315},{"code":"28110043001","name":"中島通１丁目","lat":34.713354,"lng":135.209752},{"code":"28110043002","name":"中島通２丁目","lat":34.713152,"lng":135.208999},{"code":"28110043003","name":"中島通３丁目","lat":34.712631,"lng":135.207913},{"code":"28110043004","name":"中島通４丁目","lat":34.71183,"lng":135.2065},{"code":"28110043005","name":"中島通５丁目","lat":34.711498,"lng":135.204898},{"code":"28110044002","name":"中町通２丁目","lat":34.679396,"lng":135.176021},{"code":"28110044003","name":"中町通３丁目","lat":34.679073,"lng":135.175021},{"code":"28110044004","name":"中町通４丁目","lat":34.678444,"lng":135.174043},{"code":"28110045001","name":"中山手通１丁目","lat":34.696184,"lng":135.191654},{"code":"28110045002","name":"中山手通２丁目","lat":34.695699,"lng":135.18913},{"code":"28110045003","name":"中山手通３丁目","lat":34.694494,"lng":135.187104},{"code":"28110045004","name":"中山手通４丁目","lat":34.693706,"lng":135.184525},{"code":"28110045005","name":"中山手通５丁目","lat":34.69222,"lng":135.181915},{"code":"28110045006","name":"中山手通６丁目","lat":34.691236,"lng":135.180035},{"code":"28110045007","name":"中山手通７丁目","lat":34.690262,"lng":135.176413},{"code":"28110045008","name":"中山手通８丁目","lat":34.687783,"lng":135.174271},{"code":"281100460","name":"浪花町","lat":34.688683,"lng":135.192481},{"code":"281100470","name":"西町","lat":34.68781,"lng":135.190099},{"code":"28110048001","name":"二宮町１丁目","lat":34.700234,"lng":135.198757},{"code":"28110048002","name":"二宮町２丁目","lat":34.699866,"lng":135.197199},{"code":"28110048003","name":"二宮町３丁目","lat":34.699419,"lng":135.196146},{"code":"28110048004","name":"二宮町４丁目","lat":34.698638,"lng":135.19512},{"code":"28110049001","name":"布引町１丁目","lat":34.703397,"lng":135.19561},{"code":"28110049002","name":"布引町２丁目","lat":34.700745,"lng":135.1947},{"code":"28110049003","name":"布引町３丁目","lat":34.697663,"lng":135.194184},{"code":"28110049004","name":"布引町４丁目","lat":34.694948,"lng":135.194303},{"code":"28110050001","name":"野崎通１丁目","lat":34.710294,"lng":135.210369},{"code":"28110050002","name":"野崎通２丁目","lat":34.709762,"lng":135.208534},{"code":"28110050003","name":"野崎通３丁目","lat":34.70947,"lng":135.207384},{"code":"28110050004","name":"野崎通４丁目","lat":34.709216,"lng":135.206476},{"code":"28110050005","name":"野崎通５丁目","lat":34.708956,"lng":135.205706},{"code":"28110050006","name":"野崎通６丁目","lat":34.708723,"lng":135.204943},{"code":"28110050007","name":"野崎通７丁目","lat":34.708453,"lng":135.204123},{"code":"28110051001","name":"旗塚通１丁目","lat":34.7051,"lng":135.204685},{"code":"28110051002","name":"旗塚通２丁目","lat":34.704756,"lng":135.2036},{"code":"28110051003","name":"旗塚通３丁目","lat":34.704476,"lng":135.202728},{"code":"28110051004","name":"旗塚通４丁目","lat":34.704125,"lng":135.201855},{"code":"28110051005","name":"旗塚通５丁目","lat":34.703807,"lng":135.200744},{"code":"28110051006","name":"旗塚通６丁目","lat":34.703457,"lng":135.199682},{"code":"28110051007","name":"旗塚通７丁目","lat":34.703132,"lng":135.198662},{"code":"28110052001","name":"八幡通１丁目","lat":34.6919,"lng":135.200642},{"code":"28110052002","name":"八幡通２丁目","lat":34.691529,"lng":135.199163},{"code":"28110052003","name":"八幡通３丁目","lat":34.690913,"lng":135.197906},{"code":"28110052004","name":"八幡通４丁目","lat":34.690178,"lng":135.196833},{"code":"281100530","name":"波止場町","lat":34.683338,"lng":135.187636},{"code":"281100540","name":"花隈町","lat":34.688203,"lng":135.18118},{"code":"28110055001","name":"浜辺通１丁目","lat":34.692715,"lng":135.203058},{"code":"28110055002","name":"浜辺通２丁目","lat":34.69178,"lng":135.201903},{"code":"28110055003","name":"浜辺通３丁目","lat":34.690281,"lng":135.201273},{"code":"28110055004","name":"浜辺通４丁目","lat":34.688955,"lng":135.200607},{"code":"28110055005","name":"浜辺通５丁目","lat":34.688305,"lng":135.199784},{"code":"28110055006","name":"浜辺通６丁目","lat":34.687389,"lng":135.19868},{"code":"281100560","name":"播磨町","lat":34.687903,"lng":135.191713},{"code":"28110057001","name":"東川崎町１丁目","lat":34.678875,"lng":135.181632},{"code":"28110057002","name":"東川崎町２丁目","lat":34.673266,"lng":135.185806},{"code":"28110057003","name":"東川崎町３丁目","lat":34.674748,"lng":135.182555},{"code":"28110057004","name":"東川崎町４丁目","lat":34.674652,"lng":135.181699},{"code":"28110057005","name":"東川崎町５丁目","lat":34.675152,"lng":135.180904},{"code":"28110057006","name":"東川崎町６丁目","lat":34.675276,"lng":135.179985},{"code":"28110057007","name":"東川崎町７丁目","lat":34.675665,"lng":135.178932},{"code":"281100580","name":"東町","lat":34.688472,"lng":135.195207},{"code":"28110059001","name":"日暮通１丁目","lat":34.700497,"lng":135.20749},{"code":"28110059002","name":"日暮通２丁目","lat":34.700034,"lng":135.206325},{"code":"28110059003","name":"日暮通３丁目","lat":34.699633,"lng":135.205329},{"code":"28110059004","name":"日暮通４丁目","lat":34.699281,"lng":135.204337},{"code":"28110059005","name":"日暮通５丁目","lat":34.698848,"lng":135.203371},{"code":"28110059006","name":"日暮通６丁目","lat":34.698296,"lng":135.202022},{"code":"281100600","name":"葺合町","lat":34.717823,"lng":135.193867},{"code":"281100610","name":"再度筋町","lat":34.693969,"lng":135.176788},{"code":"281100620","name":"弁天町","lat":34.681996,"lng":135.183194},{"code":"281100630","name":"前町","lat":34.687207,"lng":135.190405},{"code":"28110064001","name":"真砂通１丁目","lat":34.695344,"lng":135.205164},{"code":"28110064002","name":"真砂通２丁目","lat":34.694617,"lng":135.204193},{"code":"28110065001","name":"港島１丁目","lat":34.665907,"lng":135.204539},{"code":"28110065002","name":"港島２丁目","lat":34.674325,"lng":135.204772},{"code":"28110065003","name":"港島３丁目","lat":34.677161,"lng":135.208774},{"code":"28110065004","name":"港島４丁目","lat":34.680406,"lng":135.216055},{"code":"28110065005","name":"港島５丁目","lat":34.677881,"lng":135.219831},{"code":"28110065006","name":"港島６丁目","lat":34.671183,"lng":135.21738},{"code":"28110065007","name":"港島７丁目","lat":34.672856,"lng":135.224331},{"code":"28110065008","name":"港島８丁目","lat":34.665748,"lng":135.228092},{"code":"28110065009","name":"港島９丁目","lat":34.655465,"lng":135.233551},{"code":"28110066001","name":"港島中町１丁目","lat":34.674872,"lng":135.210451},{"code":"28110066002","name":"港島中町２丁目","lat":34.671875,"lng":135.214418},{"code":"28110066003","name":"港島中町３丁目","lat":34.670738,"lng":135.21156},{"code":"28110066004","name":"港島中町４丁目","lat":34.669377,"lng":135.208501},{"code":"28110066005","name":"港島中町５丁目","lat":34.663579,"lng":135.208599},{"code":"28110066006","name":"港島中町６丁目","lat":34.665642,"lng":135.212877},{"code":"28110066007","name":"港島中町７丁目","lat":34.667391,"lng":135.217139},{"code":"28110066008","name":"港島中町８丁目","lat":34.661799,"lng":135.212756},{"code":"28110067001","name":"南本町通１丁目","lat":34.697914,"lng":135.208846},{"code":"28110067002","name":"南本町通２丁目","lat":34.697385,"lng":135.207939},{"code":"28110067003","name":"南本町通３丁目","lat":34.696873,"lng":135.206916},{"code":"28110067004","name":"南本町通４丁目","lat":34.696419,"lng":135.206032},{"code":"28110067005","name":"南本町通５丁目","lat":34.696119,"lng":135.204914},{"code":"28110067006","name":"南本町通６丁目","lat":34.695509,"lng":135.20365},{"code":"28110068001","name":"宮本通１丁目","lat":34.707328,"lng":135.213012},{"code":"28110068002","name":"宮本通２丁目","lat":34.707026,"lng":135.211734},{"code":"28110068003","name":"宮本通３丁目","lat":34.706781,"lng":135.210633},{"code":"28110068004","name":"宮本通４丁目","lat":34.706537,"lng":135.209631},{"code":"28110068005","name":"宮本通５丁目","lat":34.70622,"lng":135.208424},{"code":"28110068006","name":"宮本通６丁目","lat":34.705927,"lng":135.20716},{"code":"28110068007","name":"宮本通７丁目","lat":34.705657,"lng":135.205913},{"code":"281100690","name":"元町高架通","lat":34.686921,"lng":135.183218},{"code":"28110070001","name":"元町通１丁目","lat":34.689008,"lng":135.18876},{"code":"28110070002","name":"元町通２丁目","lat":34.688583,"lng":135.187168},{"code":"28110070003","name":"元町通３丁目","lat":34.687804,"lng":135.18535},{"code":"28110070004","name":"元町通４丁目","lat":34.686785,"lng":135.183452},{"code":"28110070005","name":"元町通５丁目","lat":34.685308,"lng":135.181922},{"code":"28110070006","name":"元町通６丁目","lat":34.683779,"lng":135.180502},{"code":"28110070007","name":"元町通７丁目","lat":34.68286,"lng":135.179058},{"code":"28110071001","name":"八雲通１丁目","lat":34.70132,"lng":135.207017},{"code":"28110071002","name":"八雲通２丁目","lat":34.700856,"lng":135.205866},{"code":"28110071003","name":"八雲通３丁目","lat":34.700453,"lng":135.20481},{"code":"28110071004","name":"八雲通４丁目","lat":34.700091,"lng":135.203913},{"code":"28110071005","name":"八雲通５丁目","lat":34.699675,"lng":135.202862},{"code":"28110071006","name":"八雲通６丁目","lat":34.699111,"lng":135.201488},{"code":"28110072001","name":"山本通１丁目","lat":34.699178,"lng":135.19193},{"code":"28110072002","name":"山本通２丁目","lat":34.698108,"lng":135.189578},{"code":"28110072003","name":"山本通３丁目","lat":34.697201,"lng":135.186206},{"code":"28110072004","name":"山本通４丁目","lat":34.695613,"lng":135.183092},{"code":"28110072005","name":"山本通５丁目","lat":34.693229,"lng":135.179818},{"code":"28110073001","name":"若菜通１丁目","lat":34.703185,"lng":135.205848},{"code":"28110073002","name":"若菜通２丁目","lat":34.702578,"lng":135.2048},{"code":"28110073003","name":"若菜通３丁目","lat":34.702069,"lng":135.203952},{"code":"28110073004","name":"若菜通４丁目","lat":34.701551,"lng":135.203046},{"code":"28110073005","name":"若菜通５丁目","lat":34.701051,"lng":135.202011},{"code":"28110073006","name":"若菜通６丁目","lat":34.700402,"lng":135.200704},{"code":"28110074001","name":"脇浜海岸通１丁目","lat":34.69745,"lng":135.214685},{"code":"28110074002","name":"脇浜海岸通２丁目","lat":34.699455,"lng":135.214221},{"code":"28110074003","name":"脇浜海岸通３丁目","lat":34.695557,"lng":135.207297},{"code":"28110074004","name":"脇浜海岸通４丁目","lat":34.694512,"lng":135.208069},{"code":"28110075001","name":"脇浜町１丁目","lat":34.70361,"lng":135.212998},{"code":"28110075002","name":"脇浜町２丁目","lat":34.701578,"lng":135.214314},{"code":"28110075003","name":"脇浜町３丁目","lat":34.700031,"lng":135.210534},{"code":"28110076001","name":"割塚通１丁目","lat":34.70566,"lng":135.214023},{"code":"28110076002","name":"割塚通２丁目","lat":34.705328,"lng":135.212493},{"code":"28110076003","name":"割塚通３丁目","lat":34.705051,"lng":135.211185},{"code":"28110076004","name":"割塚通４丁目","lat":34.704838,"lng":135.210242},{"code":"28110076005","name":"割塚通５丁目","lat":34.704582,"lng":135.209156},{"code":"28110076006","name":"割塚通６丁目","lat":34.704309,"lng":135.208017},{"code":"28110076007","name":"割塚通７丁目","lat":34.70393,"lng":135.206892},{"code":"28110077001","name":"港島南町１丁目","lat":34.660944,"lng":135.218461},{"code":"28110077002","name":"港島南町２丁目","lat":34.659384,"lng":135.214713},{"code":"28110077003","name":"港島南町３丁目","lat":34.657746,"lng":135.210498},{"code":"28110077004","name":"港島南町４丁目","lat":34.654613,"lng":135.213618},{"code":"28110077005","name":"港島南町５丁目","lat":34.655705,"lng":135.216924},{"code":"28110077006","name":"港島南町６丁目","lat":34.657263,"lng":135.220665},{"code":"28110077007","name":"港島南町７丁目","lat":34.652521,"lng":135.221664},{"code":"281100780","name":"神戸空港","lat":34.635596,"lng":135.224101}]}
