{"municipality":"28209","name":"豊岡市","prefecture":"兵庫県","source":{"dataset":"frogcat/japan-small-area","census":"平成27年国勢調査 小地域（e-Stat 統計LOD）","license":"MIT（リポジトリ）／政府統計の総合窓口(e-Stat)の利用規約（元データ・出典表記必要）","fetched":"2026-07-06"},"towns":[{"code":"282090010","name":"上佐野","lat":35.504353,"lng":134.810897},{"code":"282090020","name":"上佐野","lat":35.51082,"lng":134.798081},{"code":"282090030","name":"佐野","lat":35.513179,"lng":134.810065},{"code":"282090040","name":"九日市上町","lat":35.51932,"lng":134.816615},{"code":"282090050","name":"九日市中町","lat":35.525175,"lng":134.818682},{"code":"282090060","name":"昭和町","lat":35.528517,"lng":134.821968},{"code":"282090070","name":"弥栄町","lat":35.530467,"lng":134.816255},{"code":"282090080","name":"塩津町","lat":35.531678,"lng":134.827232},{"code":"282090090","name":"弥栄町","lat":35.533492,"lng":134.82383},{"code":"282090100","name":"桜町","lat":35.535296,"lng":134.821667},{"code":"282090110","name":"大磯町","lat":35.536907,"lng":134.8286},{"code":"282090120","name":"城南町","lat":35.536148,"lng":134.825127},{"code":"282090130","name":"城南町","lat":35.538392,"lng":134.824933},{"code":"282090140","name":"城南町","lat":35.536614,"lng":134.823964},{"code":"282090150","name":"城南町","lat":35.536938,"lng":134.823225},{"code":"282090160","name":"城南町","lat":35.539053,"lng":134.823577},{"code":"282090170","name":"京町","lat":35.540923,"lng":134.823766},{"code":"282090180","name":"三坂町","lat":35.536685,"lng":134.818385},{"code":"282090190","name":"京町","lat":35.5402,"lng":134.821318},{"code":"282090200","name":"山王町","lat":35.540411,"lng":134.817369},{"code":"282090210","name":"中央町","lat":35.542802,"lng":134.824276},{"code":"282090220","name":"中央町","lat":35.543507,"lng":134.822883},{"code":"282090230","name":"中央町","lat":35.543174,"lng":134.820511},{"code":"282090240","name":"中央町","lat":35.542435,"lng":134.819618},{"code":"282090250","name":"千代田町","lat":35.542962,"lng":134.817249},{"code":"282090260","name":"立野町","lat":35.543247,"lng":134.828916},{"code":"282090270","name":"元町","lat":35.544456,"lng":134.824513},{"code":"282090280","name":"中央町","lat":35.544044,"lng":134.820615},{"code":"282090290","name":"千代田町","lat":35.544093,"lng":134.817365},{"code":"282090300","name":"泉町","lat":35.545565,"lng":134.821602},{"code":"282090310","name":"元町","lat":35.546749,"lng":134.824095},{"code":"282090320","name":"泉町","lat":35.544947,"lng":134.823082},{"code":"282090330","name":"泉町","lat":35.546105,"lng":134.822854},{"code":"282090340","name":"寿町","lat":35.545338,"lng":134.820183},{"code":"282090350","name":"元町","lat":35.546776,"lng":134.825501},{"code":"282090360","name":"泉町","lat":35.547263,"lng":134.822492},{"code":"282090370","name":"若松町","lat":35.549472,"lng":134.817241},{"code":"282090380","name":"寿町","lat":35.545806,"lng":134.81711},{"code":"282090390","name":"幸町","lat":35.548827,"lng":134.822531},{"code":"282090400","name":"幸町","lat":35.550572,"lng":134.824581},{"code":"282090410","name":"六地蔵","lat":35.554963,"lng":134.817444},{"code":"282090420","name":"宮島","lat":35.564557,"lng":134.810077},{"code":"282090430","name":"船町","lat":35.554761,"lng":134.824513},{"code":"282090440","name":"山本","lat":35.559604,"lng":134.830136},{"code":"282090450","name":"森","lat":35.558916,"lng":134.822516},{"code":"282090460","name":"金剛寺","lat":35.572763,"lng":134.837065},{"code":"282090470","name":"野上","lat":35.56718,"lng":134.820576},{"code":"282090480","name":"下鶴井","lat":35.579317,"lng":134.814297},{"code":"282090490","name":"下鶴井","lat":35.580084,"lng":134.818549},{"code":"282090500","name":"赤石","lat":35.589318,"lng":134.806981},{"code":"282090510","name":"法花寺","lat":35.555679,"lng":134.872651},{"code":"282090520","name":"祥雲寺","lat":35.553798,"lng":134.860746},{"code":"282090530","name":"鎌田","lat":35.566003,"lng":134.865657},{"code":"282090540","name":"鎌田","lat":35.554575,"lng":134.847889},{"code":"282090550","name":"下宮","lat":35.57172,"lng":134.852069},{"code":"282090560","name":"庄境","lat":35.548879,"lng":134.845165},{"code":"282090570","name":"庄境","lat":35.550952,"lng":134.839204},{"code":"282090580","name":"庄境","lat":35.544934,"lng":134.841997},{"code":"282090590","name":"梶原","lat":35.547391,"lng":134.834166},{"code":"282090600","name":"日撫","lat":35.555156,"lng":134.833764},{"code":"282090610","name":"六地蔵","lat":35.550937,"lng":134.827675},{"code":"282090620","name":"正法寺","lat":35.539165,"lng":134.811702},{"code":"282090630","name":"戸牧","lat":35.525903,"lng":134.802443},{"code":"282090640","name":"高屋","lat":35.540845,"lng":134.803652},{"code":"282090650","name":"大手町","lat":35.542028,"lng":134.814546},{"code":"282090660","name":"高屋","lat":35.547232,"lng":134.807509},{"code":"282090670","name":"中陰","lat":35.551668,"lng":134.808446},{"code":"282090680","name":"下陰","lat":35.558396,"lng":134.805586},{"code":"282090690","name":"福田","lat":35.553199,"lng":134.796737},{"code":"282090700","name":"栃江","lat":35.555849,"lng":134.783125},{"code":"282090710","name":"森津","lat":35.568777,"lng":134.800242},{"code":"282090720","name":"滝","lat":35.567834,"lng":134.790742},{"code":"282090730","name":"新堂","lat":35.565393,"lng":134.781951},{"code":"282090740","name":"岩熊","lat":35.57324,"lng":134.782381},{"code":"282090750","name":"江野","lat":35.573962,"lng":134.758762},{"code":"282090760","name":"伊賀谷","lat":35.58495,"lng":134.778547},{"code":"282090770","name":"今森","lat":35.522768,"lng":134.827342},{"code":"282090780","name":"今森","lat":35.527753,"lng":134.832134},{"code":"282090790","name":"駄坂","lat":35.518071,"lng":134.844601},{"code":"282090800","name":"木内","lat":35.524145,"lng":134.841005},{"code":"282090810","name":"大篠岡","lat":35.526219,"lng":134.849299},{"code":"282090820","name":"中谷","lat":35.531489,"lng":134.852284},{"code":"282090830","name":"河谷","lat":35.538145,"lng":134.852354},{"code":"282090840","name":"百合地","lat":35.541485,"lng":134.845238},{"code":"282090850","name":"中郷","lat":35.474779,"lng":134.821303},{"code":"282090860","name":"中郷","lat":35.48717,"lng":134.817048},{"code":"282090870","name":"引野","lat":35.495192,"lng":134.818568},{"code":"282090880","name":"土渕","lat":35.500647,"lng":134.820941},{"code":"282090890","name":"加陽","lat":35.503265,"lng":134.828239},{"code":"282090900","name":"加陽","lat":35.510326,"lng":134.826018},{"code":"282090910","name":"清冷寺","lat":35.510989,"lng":134.834619},{"code":"282090920","name":"伏","lat":35.517169,"lng":134.825111},{"code":"282090930","name":"八社宮","lat":35.518852,"lng":134.833694},{"code":"282090940","name":"小島","lat":35.643495,"lng":134.814307},{"code":"282090950","name":"瀬戸","lat":35.653838,"lng":134.819449},{"code":"282090960","name":"津居山","lat":35.653966,"lng":134.832975},{"code":"282090970","name":"気比","lat":35.630095,"lng":134.840294},{"code":"282090980","name":"田結","lat":35.645585,"lng":134.856198},{"code":"282090990","name":"畑上","lat":35.601832,"lng":134.849643},{"code":"282091000","name":"三原","lat":35.623254,"lng":134.865657},{"code":"282091010","name":"岩井","lat":35.528719,"lng":134.785657},{"code":"282091020","name":"岩井","lat":35.542308,"lng":134.790174},{"code":"282091030","name":"宮井","lat":35.552966,"lng":134.763767},{"code":"282091040","name":"宮井","lat":35.543502,"lng":134.776671},{"code":"282091050","name":"吉井","lat":35.537972,"lng":134.778801},{"code":"282091060","name":"野垣","lat":35.544497,"lng":134.756101},{"code":"282091070","name":"福成寺","lat":35.537086,"lng":134.752666},{"code":"282091080","name":"大谷","lat":35.52809,"lng":134.770138},{"code":"282091090","name":"内町","lat":35.524005,"lng":134.759871},{"code":"282091100","name":"辻","lat":35.515997,"lng":134.748159},{"code":"282091110","name":"船谷","lat":35.513774,"lng":134.750056},{"code":"282091120","name":"目坂","lat":35.529682,"lng":134.732124},{"code":"282091130","name":"奥野","lat":35.543016,"lng":134.89641},{"code":"282091140","name":"市場","lat":35.536879,"lng":134.874515},{"code":"282091150","name":"三宅","lat":35.527614,"lng":134.863664},{"code":"282091160","name":"森尾","lat":35.522184,"lng":134.876981},{"code":"282091170","name":"立石","lat":35.515536,"lng":134.862043},{"code":"282091180","name":"香住","lat":35.517064,"lng":134.853719},{"code":"282091190","name":"下鉢山","lat":35.512232,"lng":134.844598},{"code":"282091200","name":"上鉢山","lat":35.508316,"lng":134.84602},{"code":"282091210","name":"長谷","lat":35.508364,"lng":134.86615},{"code":"282091220","name":"倉見","lat":35.502839,"lng":134.851495},{"code":"282091230","name":"神美台","lat":35.514355,"lng":134.86897},{"code":"282091240","name":"城崎町湯島","lat":35.630372,"lng":134.793015},{"code":"282091250","name":"城崎町桃島","lat":35.637043,"lng":134.803357},{"code":"282091260","name":"城崎町今津","lat":35.618961,"lng":134.798674},{"code":"282091270","name":"城崎町戸島","lat":35.612438,"lng":134.813022},{"code":"282091280","name":"城崎町結","lat":35.597083,"lng":134.813366},{"code":"282091290","name":"城崎町楽々浦","lat":35.620086,"lng":134.826365},{"code":"282091300","name":"城崎町飯谷","lat":35.601553,"lng":134.82807},{"code":"282091310","name":"城崎町来日","lat":35.604185,"lng":134.785404},{"code":"282091320","name":"城崎町上山","lat":35.588032,"lng":134.796215},{"code":"282091330","name":"竹野町椒","lat":35.520523,"lng":134.703522},{"code":"282091340","name":"竹野町椒","lat":35.535093,"lng":134.706533},{"code":"282091350","name":"竹野町椒","lat":35.543261,"lng":134.70504},{"code":"282091360","name":"竹野町段","lat":35.538329,"lng":134.721319},{"code":"282091370","name":"竹野町椒","lat":35.551696,"lng":134.716059},{"code":"282091380","name":"竹野町三原","lat":35.537522,"lng":134.676117},{"code":"282091390","name":"竹野町川南谷","lat":35.561964,"lng":134.668741},{"code":"282091400","name":"竹野町桑野本","lat":35.561835,"lng":134.67841},{"code":"282091410","name":"竹野町大森","lat":35.565002,"lng":134.687464},{"code":"282091420","name":"竹野町須野谷","lat":35.570145,"lng":134.695769},{"code":"282091430","name":"竹野町門谷","lat":35.565283,"lng":134.698158},{"code":"282091440","name":"竹野町河内","lat":35.591201,"lng":134.716512},{"code":"282091450","name":"竹野町御又","lat":35.579988,"lng":134.720794},{"code":"282091460","name":"竹野町小城","lat":35.571365,"lng":134.726592},{"code":"282091470","name":"竹野町二連原","lat":35.559792,"lng":134.727434},{"code":"282091480","name":"竹野町森本","lat":35.580906,"lng":134.734192},{"code":"282091490","name":"竹野町坊岡","lat":35.587706,"lng":134.745846},{"code":"282091500","name":"竹野町林","lat":35.600865,"lng":134.747402},{"code":"282091510","name":"竹野町金原","lat":35.612919,"lng":134.722042},{"code":"282091520","name":"竹野町東大谷","lat":35.609701,"lng":134.738413},{"code":"282091530","name":"竹野町下塚","lat":35.610392,"lng":134.762801},{"code":"282091540","name":"竹野町轟","lat":35.620531,"lng":134.753054},{"code":"282091550","name":"竹野町鬼神谷","lat":35.632434,"lng":134.746979},{"code":"282091560","name":"竹野町小丸","lat":35.627557,"lng":134.758504},{"code":"282091570","name":"竹野町芦谷","lat":35.62876,"lng":134.764477},{"code":"282091580","name":"竹野町須谷","lat":35.634009,"lng":134.755988},{"code":"282091590","name":"竹野町和田","lat":35.644104,"lng":134.756745},{"code":"282091600","name":"竹野町阿金谷","lat":35.635971,"lng":134.767461},{"code":"282091610","name":"竹野町羽入","lat":35.643702,"lng":134.770266},{"code":"282091620","name":"竹野町松本","lat":35.648639,"lng":134.770123},{"code":"282091630","name":"竹野町草飼","lat":35.650598,"lng":134.752426},{"code":"282091640","name":"竹野町竹野","lat":35.655583,"lng":134.761894},{"code":"282091650","name":"竹野町竹野","lat":35.659276,"lng":134.763705},{"code":"282091660","name":"竹野町竹野","lat":35.658452,"lng":134.766768},{"code":"282091670","name":"竹野町竹野","lat":35.660497,"lng":134.763932},{"code":"282091680","name":"竹野町竹野","lat":35.667342,"lng":134.761988},{"code":"282091690","name":"竹野町竹野","lat":35.65881,"lng":134.755862},{"code":"282091700","name":"竹野町竹野","lat":35.651775,"lng":134.758286},{"code":"282091710","name":"竹野町宇日","lat":35.65543,"lng":134.789666},{"code":"282091720","name":"竹野町田久日","lat":35.662991,"lng":134.798208},{"code":"282091730","name":"竹野町切浜","lat":35.659281,"lng":134.746627},{"code":"282091740","name":"竹野町浜須井","lat":35.655924,"lng":134.736436},{"code":"282091750","name":"竹野町奥須井","lat":35.638518,"lng":134.731276},{"code":"282091760","name":"日高町松岡","lat":35.479828,"lng":134.785992},{"code":"282091770","name":"日高町土居","lat":35.483302,"lng":134.788981},{"code":"282091780","name":"日高町上郷","lat":35.472817,"lng":134.804093},{"code":"282091790","name":"日高町府市場","lat":35.485421,"lng":134.792765},{"code":"282091800","name":"日高町府中新","lat":35.487722,"lng":134.790409},{"code":"282091810","name":"日高町堀","lat":35.487839,"lng":134.800038},{"code":"282091820","name":"日高町野々庄","lat":35.490891,"lng":134.801192},{"code":"282091830","name":"日高町池上","lat":35.493559,"lng":134.797184},{"code":"282091840","name":"日高町西芝","lat":35.498148,"lng":134.808466},{"code":"282091850","name":"日高町上石","lat":35.5003,"lng":134.799624},{"code":"282091860","name":"日高町虹の街","lat":35.499013,"lng":134.800294},{"code":"282091870","name":"日高町国府テラス","lat":35.495515,"lng":134.7999},{"code":"282091880","name":"日高町竹貫","lat":35.499248,"lng":134.789631},{"code":"282091890","name":"日高町藤井","lat":35.500916,"lng":134.783021},{"code":"282091900","name":"日高町奈佐路","lat":35.509741,"lng":134.773271},{"code":"282091910","name":"日高町谷","lat":35.49747,"lng":134.768941},{"code":"282091920","name":"日高町中","lat":35.492403,"lng":134.765644},{"code":"282091930","name":"日高町猪爪","lat":35.490916,"lng":134.757849},{"code":"282091940","name":"日高町八代","lat":35.492477,"lng":134.742926},{"code":"282091950","name":"日高町河江","lat":35.493881,"lng":134.731121},{"code":"282091960","name":"日高町小河江","lat":35.511395,"lng":134.730232},{"code":"282091970","name":"日高町大岡","lat":35.502993,"lng":134.715196},{"code":"282091980","name":"日高町江原","lat":35.467445,"lng":134.775232},{"code":"282091990","name":"日高町宵田","lat":35.464275,"lng":134.774308},{"code":"282092000","name":"日高町岩中","lat":35.460974,"lng":134.77017},{"code":"282092010","name":"日高町浅倉","lat":35.450818,"lng":134.76339},{"code":"282092020","name":"日高町赤崎","lat":35.45182,"lng":134.782149},{"code":"282092030","name":"日高町東構","lat":35.466978,"lng":134.767681},{"code":"282092040","name":"日高町久斗","lat":35.461489,"lng":134.758994},{"code":"282092050","name":"日高町道場","lat":35.458717,"lng":134.748292},{"code":"282092060","name":"日高町久田谷","lat":35.471992,"lng":134.738018},{"code":"282092070","name":"日高町夏栗","lat":35.471869,"lng":134.748227},{"code":"282092080","name":"日高町祢布","lat":35.476572,"lng":134.759674},{"code":"282092090","name":"日高町国分寺","lat":35.472989,"lng":134.773895},{"code":"282092100","name":"日高町水上","lat":35.47956,"lng":134.773779},{"code":"282092110","name":"日高町山本","lat":35.485808,"lng":134.77685},{"code":"282092120","name":"日高町鶴岡","lat":35.463597,"lng":134.797308},{"code":"282092130","name":"日高町日高","lat":35.472349,"lng":134.781904},{"code":"282092140","name":"日高町日置","lat":35.459292,"lng":134.789509},{"code":"282092150","name":"日高町日吉","lat":35.470506,"lng":134.778114},{"code":"282092160","name":"日高町篠垣","lat":35.453561,"lng":134.728201},{"code":"282092170","name":"日高町伊府","lat":35.458682,"lng":134.73326},{"code":"282092180","name":"日高町佐田","lat":35.450579,"lng":134.74115},{"code":"282092190","name":"日高町知見","lat":35.433756,"lng":134.73657},{"code":"282092200","name":"日高町森山","lat":35.440198,"lng":134.724852},{"code":"282092210","name":"日高町観音寺","lat":35.436372,"lng":134.696465},{"code":"282092220","name":"日高町栗山","lat":35.453467,"lng":134.721882},{"code":"282092230","name":"日高町殿","lat":35.449571,"lng":134.701158},{"code":"282092240","name":"日高町羽尻","lat":35.4548,"lng":134.659453},{"code":"282092250","name":"日高町田ノ口","lat":35.471439,"lng":134.690212},{"code":"282092260","name":"日高町広井","lat":35.457528,"lng":134.707545},{"code":"282092270","name":"日高町猪子垣","lat":35.461643,"lng":134.716296},{"code":"282092280","name":"日高町荒川","lat":35.458612,"lng":134.721386},{"code":"282092290","name":"日高町芝","lat":35.464746,"lng":134.720293},{"code":"282092300","name":"日高町野","lat":35.46652,"lng":134.730032},{"code":"282092310","name":"日高町庄境","lat":35.471619,"lng":134.724454},{"code":"282092320","name":"日高町十戸","lat":35.474072,"lng":134.716274},{"code":"282092330","name":"日高町頃垣","lat":35.483202,"lng":134.718475},{"code":"282092340","name":"日高町石井","lat":35.475904,"lng":134.706154},{"code":"282092350","name":"日高町山宮","lat":35.492942,"lng":134.702931},{"code":"282092360","name":"日高町栃本","lat":35.485581,"lng":134.690887},{"code":"282092370","name":"日高町太田","lat":35.506158,"lng":134.688454},{"code":"282092380","name":"日高町名色","lat":35.488572,"lng":134.674713},{"code":"282092390","name":"日高町万場","lat":35.48814,"lng":134.654192},{"code":"282092400","name":"日高町栗栖野","lat":35.502044,"lng":134.66876},{"code":"282092410","name":"日高町山田","lat":35.499436,"lng":134.647859},{"code":"282092420","name":"日高町万劫","lat":35.507953,"lng":134.632715},{"code":"282092430","name":"日高町稲葉","lat":35.520868,"lng":134.637975},{"code":"282092440","name":"日高町水口","lat":35.519298,"lng":134.65457},{"code":"282092450","name":"日高町東河内","lat":35.51672,"lng":134.669289},{"code":"282092460","name":"出石町谷山","lat":35.467585,"lng":134.891721},{"code":"282092470","name":"出石町下谷","lat":35.461073,"lng":134.880494},{"code":"282092480","name":"出石町材木","lat":35.460641,"lng":134.877199},{"code":"282092490","name":"出石町魚屋","lat":35.462738,"lng":134.876774},{"code":"282092500","name":"出石町東條","lat":35.463653,"lng":134.879208},{"code":"282092510","name":"出石町寺町","lat":35.467218,"lng":134.876222},{"code":"282092520","name":"出石町内町","lat":35.460764,"lng":134.874131},{"code":"282092530","name":"出石町八木","lat":35.462462,"lng":134.874311},{"code":"282092540","name":"出石町本町","lat":35.463099,"lng":134.873963},{"code":"282092550","name":"出石町宵田","lat":35.465644,"lng":134.873869},{"code":"282092560","name":"出石町田結庄","lat":35.462907,"lng":134.872217},{"code":"282092570","name":"出石町小人","lat":35.454467,"lng":134.87172},{"code":"282092580","name":"出石町柳","lat":35.462563,"lng":134.871441},{"code":"282092590","name":"出石町川原","lat":35.469133,"lng":134.870102},{"code":"282092600","name":"出石町松枝","lat":35.46445,"lng":134.868909},{"code":"282092610","name":"出石町弘原","lat":35.462494,"lng":134.867866},{"code":"282092620","name":"出石町細見","lat":35.459801,"lng":134.845828},{"code":"282092630","name":"出石町荒木","lat":35.467275,"lng":134.836713},{"code":"282092640","name":"出石町平田","lat":35.463296,"lng":134.832934},{"code":"282092650","name":"出石町福見","lat":35.453678,"lng":134.824546},{"code":"282092660","name":"出石町暮坂","lat":35.442133,"lng":134.827656},{"code":"282092670","name":"出石町鍛冶屋","lat":35.45275,"lng":134.868057},{"code":"282092680","name":"出石町福住","lat":35.463182,"lng":134.860037},{"code":"282092690","name":"出石町中村","lat":35.448435,"lng":134.85234},{"code":"282092700","name":"出石町坪口","lat":35.439172,"lng":134.864769},{"code":"282092710","name":"出石町榎見","lat":35.434016,"lng":134.848198},{"code":"282092720","name":"出石町和屋","lat":35.421394,"lng":134.853974},{"code":"282092730","name":"出石町奥山","lat":35.415636,"lng":134.88338},{"code":"282092740","name":"出石町百合","lat":35.44437,"lng":134.87338},{"code":"282092750","name":"出石町上野","lat":35.436619,"lng":134.882693},{"code":"282092760","name":"出石町中野","lat":35.443529,"lng":134.89233},{"code":"282092770","name":"出石町日野辺","lat":35.450398,"lng":134.886189},{"code":"282092780","name":"出石町桐野","lat":35.438068,"lng":134.904071},{"code":"282092790","name":"出石町寺坂","lat":35.457298,"lng":134.899679},{"code":"282092800","name":"出石町水上","lat":35.474391,"lng":134.867972},{"code":"282092810","name":"出石町長砂","lat":35.476053,"lng":134.860641},{"code":"282092820","name":"出石町鳥居","lat":35.481266,"lng":134.85531},{"code":"282092830","name":"出石町森井","lat":35.478388,"lng":134.848347},{"code":"282092840","name":"出石町丸中","lat":35.481573,"lng":134.844712},{"code":"282092850","name":"出石町大谷","lat":35.481611,"lng":134.839719},{"code":"282092860","name":"出石町三木","lat":35.484473,"lng":134.833682},{"code":"282092870","name":"出石町片間","lat":35.491192,"lng":134.830533},{"code":"282092880","name":"出石町伊豆","lat":35.496952,"lng":134.841728},{"code":"282092890","name":"出石町福居","lat":35.489836,"lng":134.845034},{"code":"282092900","name":"出石町嶋","lat":35.488703,"lng":134.852782},{"code":"282092910","name":"出石町田多地","lat":35.495283,"lng":134.856136},{"code":"282092920","name":"出石町安良","lat":35.499059,"lng":134.849228},{"code":"282092930","name":"出石町宮内","lat":35.481097,"lng":134.872988},{"code":"282092940","name":"出石町袴狭","lat":35.489506,"lng":134.884832},{"code":"282092950","name":"出石町口小野","lat":35.50204,"lng":134.891099},{"code":"282092960","name":"出石町奥小野","lat":35.517792,"lng":134.902666},{"code":"282092970","name":"但東町中山","lat":35.498609,"lng":135.00319},{"code":"282092980","name":"但東町虫生","lat":35.51334,"lng":135.003856},{"code":"282092990","name":"但東町坂野","lat":35.519094,"lng":134.988621},{"code":"282093000","name":"但東町口藤","lat":35.519762,"lng":135.010575},{"code":"282093010","name":"但東町中藤","lat":35.527566,"lng":135.025406},{"code":"282093020","name":"但東町奥藤","lat":35.507962,"lng":135.032107},{"code":"282093030","name":"但東町奥赤","lat":35.461049,"lng":135.034085},{"code":"282093040","name":"但東町赤花","lat":35.479563,"lng":135.022897},{"code":"282093050","name":"但東町坂津","lat":35.46576,"lng":135.003407},{"code":"282093060","name":"但東町畑山","lat":35.486158,"lng":134.994946},{"code":"282093070","name":"但東町日向","lat":35.49632,"lng":134.982293},{"code":"282093080","name":"但東町東里","lat":35.484451,"lng":134.971967},{"code":"282093090","name":"但東町木村","lat":35.49907,"lng":134.964674},{"code":"282093100","name":"但東町太田","lat":35.500335,"lng":134.97716},{"code":"282093110","name":"但東町西野々","lat":35.508188,"lng":134.968749},{"code":"282093120","name":"但東町高竜寺","lat":35.512584,"lng":134.976615},{"code":"282093130","name":"但東町水石","lat":35.444293,"lng":134.915799},{"code":"282093140","name":"但東町畑","lat":35.438965,"lng":134.924203},{"code":"282093150","name":"但東町矢根","lat":35.462755,"lng":134.92676},{"code":"282093160","name":"但東町奥矢根","lat":35.488795,"lng":134.922609},{"code":"282093170","name":"但東町出合市場","lat":35.460338,"lng":134.940086},{"code":"282093180","name":"但東町河本","lat":35.443796,"lng":134.946939},{"code":"282093190","name":"但東町西谷","lat":35.421862,"lng":134.940608},{"code":"282093200","name":"但東町天谷","lat":35.4211,"lng":134.962957},{"code":"282093210","name":"但東町佐々木","lat":35.427154,"lng":134.981269},{"code":"282093220","name":"但東町相田","lat":35.447149,"lng":134.964403},{"code":"282093230","name":"但東町小谷","lat":35.468994,"lng":134.962596},{"code":"282093240","name":"但東町南尾","lat":35.466453,"lng":134.944663},{"code":"282093250","name":"但東町出合","lat":35.472019,"lng":134.947862},{"code":"282093260","name":"但東町三原","lat":35.478922,"lng":134.953968},{"code":"282093270","name":"但東町唐川","lat":35.499198,"lng":134.945992},{"code":"282093280","name":"但東町正法寺","lat":35.464179,"lng":134.97828},{"code":"282093290","name":"但東町平田","lat":35.452397,"lng":134.988678},{"code":"282093300","name":"但東町栗尾","lat":35.443341,"lng":135.009423},{"code":"282093310","name":"但東町佐田","lat":35.427501,"lng":135.002169},{"code":"282093320","name":"但東町久畑","lat":35.415328,"lng":135.013879},{"code":"282093330","name":"但東町後","lat":35.40928,"lng":135.013027},{"code":"282093340","name":"但東町東中","lat":35.405735,"lng":135.004289},{"code":"282093350","name":"但東町小坂","lat":35.398872,"lng":134.990349},{"code":"282093360","name":"但東町大河内","lat":35.416666,"lng":135.038454},{"code":"282093370","name":"但東町薬王寺","lat":35.435922,"lng":135.034812}]}
