{"municipality":"28214","name":"宝塚市","prefecture":"兵庫県","source":{"dataset":"frogcat/japan-small-area","census":"平成27年国勢調査 小地域（e-Stat 統計LOD）","license":"MIT（リポジトリ）／政府統計の総合窓口(e-Stat)の利用規約（元データ・出典表記必要）","fetched":"2026-07-06"},"towns":[{"code":"28214101001","name":"小浜１丁目","lat":34.800428,"lng":135.364246},{"code":"28214101002","name":"小浜２丁目","lat":34.802421,"lng":135.364991},{"code":"28214101003","name":"小浜３丁目","lat":34.804537,"lng":135.361161},{"code":"28214101004","name":"小浜４丁目","lat":34.805501,"lng":135.365758},{"code":"28214101005","name":"小浜５丁目","lat":34.807416,"lng":135.363707},{"code":"28214102001","name":"美座１丁目","lat":34.802837,"lng":135.359965},{"code":"28214102002","name":"美座２丁目","lat":34.804804,"lng":135.35634},{"code":"282141030","name":"武庫川町","lat":34.806514,"lng":135.350202},{"code":"282141040","name":"宮の町","lat":34.808988,"lng":135.35002},{"code":"28214105001","name":"旭町１丁目","lat":34.808877,"lng":135.354091},{"code":"28214105002","name":"旭町２丁目","lat":34.808423,"lng":135.356832},{"code":"28214105003","name":"旭町３丁目","lat":34.806224,"lng":135.356564},{"code":"282141060","name":"鶴の荘","lat":34.807911,"lng":135.359316},{"code":"282141070","name":"向月町","lat":34.806796,"lng":135.361509},{"code":"28214108001","name":"米谷１丁目","lat":34.810355,"lng":135.362767},{"code":"28214108002","name":"米谷２丁目","lat":34.811331,"lng":135.358699},{"code":"282141090","name":"寿町","lat":34.810997,"lng":135.366541},{"code":"282141100","name":"星の荘","lat":34.814215,"lng":135.366649},{"code":"282141110","name":"三笠町","lat":34.813204,"lng":135.36918},{"code":"282141120","name":"泉町","lat":34.810371,"lng":135.369551},{"code":"282141121","name":"泉町","lat":34.809696,"lng":135.371685},{"code":"282141130","name":"弥生町","lat":34.796492,"lng":135.368574},{"code":"282141131","name":"弥生町","lat":34.797681,"lng":135.367933},{"code":"282141132","name":"弥生町","lat":34.795645,"lng":135.368527},{"code":"28214114001","name":"安倉西１丁目","lat":34.802374,"lng":135.366831},{"code":"28214114002","name":"安倉西２丁目","lat":34.797466,"lng":135.370041},{"code":"28214114003","name":"安倉西３丁目","lat":34.795508,"lng":135.372284},{"code":"28214114004","name":"安倉西４丁目","lat":34.793358,"lng":135.374877},{"code":"282141141","name":"安倉西","lat":34.791215,"lng":135.376978},{"code":"282141142","name":"安倉西","lat":34.791914,"lng":135.377235},{"code":"28214115001","name":"安倉北１丁目","lat":34.806774,"lng":135.367745},{"code":"28214115002","name":"安倉北２丁目","lat":34.804753,"lng":135.371761},{"code":"28214115003","name":"安倉北３丁目","lat":34.807028,"lng":135.370652},{"code":"28214115004","name":"安倉北４丁目","lat":34.809021,"lng":135.372769},{"code":"28214115005","name":"安倉北５丁目","lat":34.807257,"lng":135.375115},{"code":"28214116001","name":"安倉中１丁目","lat":34.801898,"lng":135.370016},{"code":"28214116002","name":"安倉中２丁目","lat":34.799246,"lng":135.371279},{"code":"28214116003","name":"安倉中３丁目","lat":34.802452,"lng":135.373571},{"code":"28214116004","name":"安倉中４丁目","lat":34.800215,"lng":135.374204},{"code":"28214116005","name":"安倉中５丁目","lat":34.80378,"lng":135.376615},{"code":"28214116006","name":"安倉中６丁目","lat":34.800853,"lng":135.378392},{"code":"28214117001","name":"安倉南１丁目","lat":34.798188,"lng":135.374961},{"code":"28214117002","name":"安倉南２丁目","lat":34.795727,"lng":135.375658},{"code":"28214117003","name":"安倉南３丁目","lat":34.796223,"lng":135.378302},{"code":"28214117004","name":"安倉南４丁目","lat":34.797443,"lng":135.380623},{"code":"282141171","name":"安倉南","lat":34.794484,"lng":135.379648},{"code":"282141172","name":"安倉南","lat":34.794877,"lng":135.379474},{"code":"282141180","name":"金井町","lat":34.793591,"lng":135.378253},{"code":"28214201001","name":"逆瀬川１丁目","lat":34.79866,"lng":135.35205},{"code":"28214201002","name":"逆瀬川２丁目","lat":34.795427,"lng":135.3479},{"code":"28214202001","name":"千種１丁目","lat":34.792117,"lng":135.350194},{"code":"28214202002","name":"千種２丁目","lat":34.788953,"lng":135.350914},{"code":"28214202003","name":"千種３丁目","lat":34.789812,"lng":135.34806},{"code":"28214202004","name":"千種４丁目","lat":34.791875,"lng":135.345515},{"code":"282142030","name":"社町","lat":34.794821,"lng":135.349656},{"code":"28214204001","name":"伊孑志１丁目","lat":34.798932,"lng":135.353521},{"code":"28214204002","name":"伊孑志２丁目","lat":34.800136,"lng":135.355678},{"code":"28214204003","name":"伊孑志３丁目","lat":34.797645,"lng":135.356733},{"code":"28214204004","name":"伊孑志４丁目","lat":34.795503,"lng":135.363664},{"code":"282142041","name":"伊孑志","lat":34.797457,"lng":135.360494},{"code":"282142050","name":"末広町","lat":34.801594,"lng":135.357391},{"code":"282142060","name":"東洋町","lat":34.797935,"lng":135.363268},{"code":"282142070","name":"亀井町","lat":34.793835,"lng":135.362833},{"code":"282142080","name":"福井町","lat":34.794045,"lng":135.359743},{"code":"28214209001","name":"小林１丁目","lat":34.794143,"lng":135.352796},{"code":"28214209002","name":"小林２丁目","lat":34.789764,"lng":135.353304},{"code":"28214209003","name":"小林３丁目","lat":34.795442,"lng":135.356631},{"code":"28214209004","name":"小林４丁目","lat":34.793292,"lng":135.35615},{"code":"28214209005","name":"小林５丁目","lat":34.789814,"lng":135.355672},{"code":"282142100","name":"光明町","lat":34.790043,"lng":135.359153},{"code":"282142110","name":"末成町","lat":34.789679,"lng":135.363618},{"code":"282142120","name":"高松町","lat":34.790526,"lng":135.36661},{"code":"282142130","name":"御所の前町","lat":34.792732,"lng":135.367987},{"code":"282142140","name":"美幸町","lat":34.786228,"lng":135.370244},{"code":"282142150","name":"塔の町","lat":34.786383,"lng":135.350722},{"code":"282142160","name":"谷口町","lat":34.78559,"lng":135.353857},{"code":"282142170","name":"中野町","lat":34.786328,"lng":135.355917},{"code":"282142180","name":"大成町","lat":34.783897,"lng":135.356456},{"code":"28214219001","name":"高司１丁目","lat":34.786423,"lng":135.359367},{"code":"28214219002","name":"高司２丁目","lat":34.786382,"lng":135.363082},{"code":"28214219003","name":"高司３丁目","lat":34.783907,"lng":135.363112},{"code":"28214219004","name":"高司４丁目","lat":34.785592,"lng":135.36632},{"code":"28214219005","name":"高司５丁目","lat":34.784461,"lng":135.368734},{"code":"282142200","name":"新明和町","lat":34.779732,"lng":135.368031},{"code":"282142210","name":"駒の町","lat":34.77986,"lng":135.36236},{"code":"282142220","name":"大吹町","lat":34.78383,"lng":135.359667},{"code":"28214223001","name":"鹿塩１丁目","lat":34.781582,"lng":135.355755},{"code":"28214223002","name":"鹿塩２丁目","lat":34.77847,"lng":135.356511},{"code":"282142231","name":"鹿塩","lat":34.782259,"lng":135.355836},{"code":"282142232","name":"鹿塩","lat":34.782554,"lng":135.355379},{"code":"282142240","name":"仁川台","lat":34.78303,"lng":135.351484},{"code":"282142250","name":"仁川宮西町","lat":34.779067,"lng":135.353308},{"code":"282142261","name":"仁川団地","lat":34.780751,"lng":135.350568},{"code":"282142262","name":"仁川団地","lat":34.779951,"lng":135.349925},{"code":"282142270","name":"仁川旭ガ丘","lat":34.777447,"lng":135.348924},{"code":"28214228001","name":"仁川高丸１丁目","lat":34.778559,"lng":135.346513},{"code":"28214228002","name":"仁川高丸２丁目","lat":34.775964,"lng":135.346008},{"code":"28214228003","name":"仁川高丸３丁目","lat":34.777209,"lng":135.343314},{"code":"282142290","name":"仁川月見ガ丘","lat":34.777108,"lng":135.352024},{"code":"28214230001","name":"仁川高台１丁目","lat":34.774482,"lng":135.352122},{"code":"28214230002","name":"仁川高台２丁目","lat":34.775167,"lng":135.348724},{"code":"28214231001","name":"仁川北１丁目","lat":34.775713,"lng":135.368333},{"code":"28214231002","name":"仁川北２丁目","lat":34.775971,"lng":135.359361},{"code":"28214231003","name":"仁川北３丁目","lat":34.774701,"lng":135.355154},{"code":"282142320","name":"仁川うぐいす台","lat":34.781882,"lng":135.347909},{"code":"282143010","name":"湯本町","lat":34.806747,"lng":135.342985},{"code":"282143020","name":"梅野町","lat":34.804781,"lng":135.343824},{"code":"28214303001","name":"南口１丁目","lat":34.801925,"lng":135.345049},{"code":"28214303002","name":"南口２丁目","lat":34.803815,"lng":135.348136},{"code":"28214304001","name":"中州１丁目","lat":34.80054,"lng":135.349836},{"code":"28214304002","name":"中州２丁目","lat":34.803201,"lng":135.3525},{"code":"28214305001","name":"野上１丁目","lat":34.798422,"lng":135.346882},{"code":"28214305002","name":"野上２丁目","lat":34.796182,"lng":135.346837},{"code":"28214305003","name":"野上３丁目","lat":34.792986,"lng":135.342968},{"code":"28214305004","name":"野上４丁目","lat":34.794785,"lng":135.341556},{"code":"28214305005","name":"野上５丁目","lat":34.793205,"lng":135.338347},{"code":"28214305006","name":"野上６丁目","lat":34.790494,"lng":135.339587},{"code":"282143051","name":"野上","lat":34.798343,"lng":135.345576},{"code":"282143052","name":"野上","lat":34.798368,"lng":135.347467},{"code":"28214306001","name":"宝梅１丁目","lat":34.798043,"lng":135.343717},{"code":"28214306002","name":"宝梅２丁目","lat":34.797054,"lng":135.339916},{"code":"28214306003","name":"宝梅３丁目","lat":34.796528,"lng":135.336678},{"code":"282143070","name":"宝松苑","lat":34.800011,"lng":135.337075},{"code":"282143071","name":"宝松苑","lat":34.798852,"lng":135.338168},{"code":"282143080","name":"寿楽荘","lat":34.800038,"lng":135.342435},{"code":"28214309001","name":"武庫山１丁目","lat":34.802557,"lng":135.341082},{"code":"28214309002","name":"武庫山２丁目","lat":34.805397,"lng":135.339545},{"code":"282143100","name":"紅葉ガ丘","lat":34.805892,"lng":135.334485},{"code":"28214311001","name":"月見山１丁目","lat":34.808226,"lng":135.337798},{"code":"28214311002","name":"月見山２丁目","lat":34.809513,"lng":135.335441},{"code":"282143120","name":"長寿ガ丘","lat":34.811382,"lng":135.332577},{"code":"28214313001","name":"光ガ丘１丁目","lat":34.799092,"lng":135.332123},{"code":"28214313002","name":"光ガ丘２丁目","lat":34.801274,"lng":135.333409},{"code":"28214314001","name":"青葉台１丁目","lat":34.796325,"lng":135.334021},{"code":"28214314002","name":"青葉台２丁目","lat":34.796228,"lng":135.331635},{"code":"28214315001","name":"逆瀬台１丁目","lat":34.789017,"lng":135.331235},{"code":"28214315002","name":"逆瀬台２丁目","lat":34.790901,"lng":135.329686},{"code":"28214315003","name":"逆瀬台３丁目","lat":34.790983,"lng":135.332655},{"code":"28214315004","name":"逆瀬台４丁目","lat":34.790749,"lng":135.335115},{"code":"28214315005","name":"逆瀬台５丁目","lat":34.79368,"lng":135.335593},{"code":"28214315006","name":"逆瀬台６丁目","lat":34.793247,"lng":135.331844},{"code":"28214316001","name":"ゆずり葉台１丁目","lat":34.790904,"lng":135.323916},{"code":"28214316002","name":"ゆずり葉台２丁目","lat":34.792665,"lng":135.318717},{"code":"28214316003","name":"ゆずり葉台３丁目","lat":34.794304,"lng":135.314788},{"code":"282144010","name":"桜ガ丘","lat":34.817862,"lng":135.337474},{"code":"28214402001","name":"御殿山１丁目","lat":34.817307,"lng":135.349323},{"code":"28214402002","name":"御殿山２丁目","lat":34.815289,"lng":135.345368},{"code":"28214402003","name":"御殿山３丁目","lat":34.81695,"lng":135.341732},{"code":"28214402004","name":"御殿山４丁目","lat":34.81969,"lng":135.34668},{"code":"28214403001","name":"川面１丁目","lat":34.811188,"lng":135.349811},{"code":"28214403002","name":"川面２丁目","lat":34.813822,"lng":135.349969},{"code":"28214403003","name":"川面３丁目","lat":34.811247,"lng":135.345834},{"code":"28214403004","name":"川面４丁目","lat":34.813118,"lng":135.346745},{"code":"28214403005","name":"川面５丁目","lat":34.813113,"lng":135.339817},{"code":"28214403006","name":"川面６丁目","lat":34.814566,"lng":135.340967},{"code":"28214404001","name":"栄町１丁目","lat":34.808585,"lng":135.345231},{"code":"28214404002","name":"栄町２丁目","lat":34.810505,"lng":135.340828},{"code":"28214404003","name":"栄町３丁目","lat":34.812729,"lng":135.336434},{"code":"28214405101","name":"清荒神１丁目","lat":34.811143,"lng":135.352861},{"code":"28214405102","name":"清荒神２丁目","lat":34.812784,"lng":135.355487},{"code":"28214405103","name":"清荒神３丁目","lat":34.814699,"lng":135.351984},{"code":"28214405104","name":"清荒神４丁目","lat":34.815694,"lng":135.354284},{"code":"28214405105","name":"清荒神５丁目","lat":34.818011,"lng":135.35306},{"code":"282144052","name":"清荒神","lat":34.817271,"lng":135.352703},{"code":"28214406001","name":"売布１丁目","lat":34.812906,"lng":135.362777},{"code":"28214406002","name":"売布２丁目","lat":34.814631,"lng":135.361455},{"code":"28214406003","name":"売布３丁目","lat":34.814509,"lng":135.358723},{"code":"28214406004","name":"売布４丁目","lat":34.818566,"lng":135.36183},{"code":"282144070","name":"売布ガ丘","lat":34.816691,"lng":135.356883},{"code":"282144080","name":"泉ガ丘","lat":34.821542,"lng":135.359662},{"code":"282144090","name":"売布東の町","lat":34.816715,"lng":135.365803},{"code":"28214410001","name":"中山寺１丁目","lat":34.818265,"lng":135.369515},{"code":"28214410002","name":"中山寺２丁目","lat":34.821209,"lng":135.367275},{"code":"28214410003","name":"中山寺３丁目","lat":34.818917,"lng":135.365329},{"code":"282144110","name":"中山荘園","lat":34.820909,"lng":135.363695},{"code":"282144120","name":"売布きよしガ丘","lat":34.821752,"lng":135.356988},{"code":"282144130","name":"売布山手町","lat":34.817885,"lng":135.358704},{"code":"28214414001","name":"すみれガ丘１丁目","lat":34.820653,"lng":135.342292},{"code":"28214414002","name":"すみれガ丘２丁目","lat":34.822952,"lng":135.342445},{"code":"28214414003","name":"すみれガ丘３丁目","lat":34.824787,"lng":135.343191},{"code":"28214414004","name":"すみれガ丘４丁目","lat":34.821366,"lng":135.337556},{"code":"282144151","name":"布売自由ガ丘","lat":34.81917,"lng":135.355107},{"code":"282144152","name":"布売自由ガ丘","lat":34.820456,"lng":135.355519},{"code":"28214502001","name":"中筋山手１丁目","lat":34.821742,"lng":135.370539},{"code":"28214502002","name":"中筋山手２丁目","lat":34.824422,"lng":135.369327},{"code":"28214502003","name":"中筋山手３丁目","lat":34.82271,"lng":135.373105},{"code":"28214502004","name":"中筋山手４丁目","lat":34.821691,"lng":135.375857},{"code":"28214502005","name":"中筋山手５丁目","lat":34.825697,"lng":135.375541},{"code":"28214502006","name":"中筋山手６丁目","lat":34.825132,"lng":135.374316},{"code":"28214502007","name":"中筋山手７丁目","lat":34.825794,"lng":135.372297},{"code":"28214502104","name":"中筋山手４丁目","lat":34.823484,"lng":135.375171},{"code":"28214502106","name":"中筋山手６丁目","lat":34.82417,"lng":135.374309},{"code":"28214502107","name":"中筋山手７丁目","lat":34.82672,"lng":135.373712},{"code":"282145022","name":"中筋山手","lat":34.827003,"lng":135.372143},{"code":"28214503001","name":"中山台１丁目","lat":34.827414,"lng":135.365098},{"code":"28214503002","name":"中山台２丁目","lat":34.827299,"lng":135.368929},{"code":"28214504101","name":"山本西１丁目","lat":34.821593,"lng":135.378293},{"code":"28214504102","name":"山本西２丁目","lat":34.819702,"lng":135.379825},{"code":"28214504103","name":"山本西３丁目","lat":34.817015,"lng":135.381078},{"code":"28214504202","name":"山本西２丁目","lat":34.819544,"lng":135.381001},{"code":"28214504203","name":"山本西３丁目","lat":34.816729,"lng":135.381375},{"code":"28214505001","name":"山本中１丁目","lat":34.822016,"lng":135.382606},{"code":"28214505002","name":"山本中２丁目","lat":34.819703,"lng":135.383132},{"code":"28214505003","name":"山本中３丁目","lat":34.817851,"lng":135.383959},{"code":"28214506101","name":"山本台１丁目","lat":34.822786,"lng":135.379883},{"code":"28214506102","name":"山本台２丁目","lat":34.824918,"lng":135.380141},{"code":"28214506103","name":"山本台３丁目","lat":34.824541,"lng":135.377804},{"code":"282145062","name":"山本台","lat":34.824547,"lng":135.377028},{"code":"28214507101","name":"山本東１丁目","lat":34.822773,"lng":135.385013},{"code":"28214507102","name":"山本東２丁目","lat":34.820439,"lng":135.386907},{"code":"28214507103","name":"山本東３丁目","lat":34.819631,"lng":135.388582},{"code":"282145072","name":"山本東","lat":34.820253,"lng":135.391},{"code":"28214508101","name":"平井１丁目","lat":34.824799,"lng":135.387044},{"code":"28214508102","name":"平井２丁目","lat":34.824339,"lng":135.389779},{"code":"28214508103","name":"平井３丁目","lat":34.824394,"lng":135.393072},{"code":"28214508104","name":"平井４丁目","lat":34.825679,"lng":135.394939},{"code":"28214508105","name":"平井５丁目","lat":34.821735,"lng":135.390855},{"code":"28214508106","name":"平井６丁目","lat":34.822772,"lng":135.394261},{"code":"28214508107","name":"平井７丁目","lat":34.821091,"lng":135.394817},{"code":"282145090","name":"平井山荘","lat":34.82721,"lng":135.389944},{"code":"28214510001","name":"雲雀丘１丁目","lat":34.829565,"lng":135.401318},{"code":"28214510002","name":"雲雀丘２丁目","lat":34.828513,"lng":135.398665},{"code":"28214510003","name":"雲雀丘３丁目","lat":34.827126,"lng":135.397313},{"code":"28214510004","name":"雲雀丘４丁目","lat":34.825338,"lng":135.400047},{"code":"28214511001","name":"雲雀丘山手１丁目","lat":34.831249,"lng":135.404115},{"code":"28214511002","name":"雲雀丘山手２丁目","lat":34.832077,"lng":135.399977},{"code":"282145120","name":"花屋敷つつじガ丘","lat":34.835702,"lng":135.402234},{"code":"28214513001","name":"花屋敷荘園１丁目","lat":34.833946,"lng":135.407275},{"code":"28214513002","name":"花屋敷荘園２丁目","lat":34.836959,"lng":135.405743},{"code":"28214513003","name":"花屋敷荘園３丁目","lat":34.835476,"lng":135.409532},{"code":"28214513004","name":"花屋敷荘園４丁目","lat":34.838366,"lng":135.407103},{"code":"282145140","name":"花屋敷松ガ丘","lat":34.840232,"lng":135.40959},{"code":"28214515001","name":"長尾台１丁目","lat":34.834901,"lng":135.397512},{"code":"28214515002","name":"長尾台２丁目","lat":34.837391,"lng":135.39646},{"code":"282145160","name":"ふじガ丘","lat":34.837324,"lng":135.389614},{"code":"28214517101","name":"中山桜台１丁目","lat":34.830049,"lng":135.367288},{"code":"28214517102","name":"中山桜台２丁目","lat":34.832616,"lng":135.365052},{"code":"28214517103","name":"中山桜台３丁目","lat":34.830308,"lng":135.362852},{"code":"28214517104","name":"中山桜台４丁目","lat":34.834921,"lng":135.361767},{"code":"28214517105","name":"中山桜台５丁目","lat":34.836511,"lng":135.364739},{"code":"28214517106","name":"中山桜台６丁目","lat":34.838456,"lng":135.362024},{"code":"28214517107","name":"中山桜台７丁目","lat":34.838655,"lng":135.35876},{"code":"282145172","name":"中山桜台","lat":34.83059,"lng":135.368097},{"code":"28214518001","name":"中山五月台１丁目","lat":34.830479,"lng":135.370802},{"code":"28214518002","name":"中山五月台２丁目","lat":34.833105,"lng":135.369097},{"code":"28214518003","name":"中山五月台３丁目","lat":34.835616,"lng":135.368568},{"code":"28214518004","name":"中山五月台４丁目","lat":34.837782,"lng":135.368008},{"code":"28214518005","name":"中山五月台５丁目","lat":34.839617,"lng":135.367171},{"code":"28214518006","name":"中山五月台６丁目","lat":34.841196,"lng":135.366354},{"code":"28214518007","name":"中山五月台７丁目","lat":34.841617,"lng":135.360534},{"code":"28214519001","name":"山手台西１丁目","lat":34.827429,"lng":135.377065},{"code":"28214519002","name":"山手台西２丁目","lat":34.830594,"lng":135.375833},{"code":"28214519003","name":"山手台西３丁目","lat":34.833762,"lng":135.375347},{"code":"282145191","name":"山手台西","lat":34.835757,"lng":135.373662},{"code":"282145192","name":"山手台西","lat":34.837326,"lng":135.373138},{"code":"28214520001","name":"山手台東１丁目","lat":34.826788,"lng":135.382038},{"code":"28214520003","name":"山手台東３丁目","lat":34.835192,"lng":135.37923},{"code":"28214520004","name":"山手台東４丁目","lat":34.837721,"lng":135.378507},{"code":"28214520005","name":"山手台東５丁目","lat":34.840593,"lng":135.373707},{"code":"28214520101","name":"山手台東１丁目","lat":34.825005,"lng":135.383643},{"code":"28214520102","name":"山手台東２丁目","lat":34.830569,"lng":135.379161},{"code":"28214520105","name":"山手台東５丁目","lat":34.841363,"lng":135.371163},{"code":"28214520201","name":"山手台東１丁目","lat":34.826753,"lng":135.382778},{"code":"28214520202","name":"山手台東２丁目","lat":34.831599,"lng":135.379764},{"code":"28214520205","name":"山手台東５丁目","lat":34.841088,"lng":135.371396},{"code":"282145210","name":"花屋敷緑ガ丘","lat":34.844363,"lng":135.402306},{"code":"282146010","name":"今里町","lat":34.814698,"lng":135.37047},{"code":"28214602101","name":"中筋１丁目","lat":34.819396,"lng":135.372695},{"code":"28214602102","name":"中筋２丁目","lat":34.81961,"lng":135.376517},{"code":"28214602103","name":"中筋３丁目","lat":34.817498,"lng":135.376813},{"code":"28214602104","name":"中筋４丁目","lat":34.817424,"lng":135.373229},{"code":"28214602105","name":"中筋５丁目","lat":34.815627,"lng":135.374192},{"code":"28214602106","name":"中筋６丁目","lat":34.814975,"lng":135.377831},{"code":"28214602107","name":"中筋７丁目","lat":34.812838,"lng":135.378515},{"code":"28214602108","name":"中筋８丁目","lat":34.813133,"lng":135.3743},{"code":"28214602109","name":"中筋９丁目","lat":34.811452,"lng":135.373751},{"code":"28214602202","name":"中筋２丁目","lat":34.818866,"lng":135.378272},{"code":"28214602203","name":"中筋３丁目","lat":34.817478,"lng":135.378755},{"code":"28214602205","name":"中筋５丁目","lat":34.815499,"lng":135.371961},{"code":"28214602207","name":"中筋７丁目","lat":34.813157,"lng":135.380484},{"code":"282146030","name":"長尾町","lat":34.814586,"lng":135.381866},{"code":"282146031","name":"長尾町","lat":34.814549,"lng":135.383382},{"code":"282146032","name":"長尾町","lat":34.815235,"lng":135.381606},{"code":"28214604101","name":"山本南１丁目","lat":34.816081,"lng":135.386393},{"code":"28214604102","name":"山本南２丁目","lat":34.817104,"lng":135.391059},{"code":"28214604103","name":"山本南３丁目","lat":34.819358,"lng":135.392686},{"code":"28214604201","name":"山本南１丁目","lat":34.8165,"lng":135.386802},{"code":"28214604202","name":"山本南２丁目","lat":34.817851,"lng":135.390424},{"code":"28214604203","name":"山本南３丁目","lat":34.818827,"lng":135.392748},{"code":"28214605001","name":"山本丸橋１丁目","lat":34.815117,"lng":135.391109},{"code":"28214605002","name":"山本丸橋２丁目","lat":34.814749,"lng":135.394413},{"code":"28214605003","name":"山本丸橋３丁目","lat":34.812161,"lng":135.392554},{"code":"28214605004","name":"山本丸橋４丁目","lat":34.812126,"lng":135.396019},{"code":"28214605101","name":"山本丸橋１丁目","lat":34.814156,"lng":135.390325},{"code":"28214605102","name":"山本丸橋２丁目","lat":34.815993,"lng":135.396058},{"code":"28214605201","name":"山本丸橋１丁目","lat":34.813886,"lng":135.391563},{"code":"28214605202","name":"山本丸橋２丁目","lat":34.816251,"lng":135.395117},{"code":"28214606101","name":"口谷西１丁目","lat":34.817368,"lng":135.394509},{"code":"28214606102","name":"口谷西２丁目","lat":34.816493,"lng":135.397447},{"code":"28214606103","name":"口谷西３丁目","lat":34.813888,"lng":135.397865},{"code":"28214606201","name":"口谷西２丁目","lat":34.81796,"lng":135.393274},{"code":"28214606203","name":"口谷西３丁目","lat":34.813006,"lng":135.398192},{"code":"28214607101","name":"口谷東１丁目","lat":34.818791,"lng":135.397107},{"code":"28214607102","name":"口谷東２丁目","lat":34.817094,"lng":135.399709},{"code":"28214607103","name":"口谷東３丁目","lat":34.813119,"lng":135.400472},{"code":"28214607201","name":"口谷東１丁目","lat":34.819048,"lng":135.398368},{"code":"28214607203","name":"口谷東３丁目","lat":34.813994,"lng":135.400306},{"code":"28214608001","name":"南ひばりガ丘１丁目","lat":34.823058,"lng":135.398247},{"code":"28214608002","name":"南ひばりガ丘２丁目","lat":34.82167,"lng":135.398311},{"code":"28214608003","name":"南ひばりガ丘３丁目","lat":34.820009,"lng":135.398765},{"code":"28214609001","name":"山本野里１丁目","lat":34.808716,"lng":135.394255},{"code":"28214609002","name":"山本野里２丁目","lat":34.808888,"lng":135.396853},{"code":"28214609003","name":"山本野里３丁目","lat":34.80986,"lng":135.400395},{"code":"282146091","name":"山本野里","lat":34.807703,"lng":135.394863},{"code":"282146092","name":"山本野里","lat":34.807786,"lng":135.394252},{"code":"282147100","name":"上佐曽利","lat":34.944321,"lng":135.313714},{"code":"282147200","name":"香合新田","lat":34.956402,"lng":135.311436},{"code":"282147300","name":"下佐曽利","lat":34.926624,"lng":135.3157},{"code":"282147400","name":"長谷","lat":34.912891,"lng":135.326795},{"code":"282147500","name":"芝辻新田","lat":34.910225,"lng":135.331441},{"code":"282147700","name":"大原野","lat":34.909229,"lng":135.302189},{"code":"282147800","name":"波豆","lat":34.901474,"lng":135.283652},{"code":"282147900","name":"境野","lat":34.890884,"lng":135.298935},{"code":"282148000","name":"玉瀬","lat":34.876593,"lng":135.305873},{"code":"282148100","name":"切畑","lat":34.873194,"lng":135.331843},{"code":"282149100","name":"伊孑志","lat":34.805879,"lng":135.327786},{"code":"282149120","name":"小林","lat":34.798876,"lng":135.317093},{"code":"282149150","name":"蔵人","lat":34.787097,"lng":135.328583},{"code":"282149180","name":"鹿塩","lat":34.780779,"lng":135.342872},{"code":"282149340","name":"米谷","lat":34.822166,"lng":135.354145},{"code":"28214945002","name":"川面字一後谷","lat":34.818423,"lng":135.342823},{"code":"28214945004","name":"川面字長尾山","lat":34.830145,"lng":135.335822},{"code":"28214980000","name":"中筋","lat":34.831767,"lng":135.37237},{"code":"28214980009","name":"中筋字平井","lat":34.843497,"lng":135.361533},{"code":"282149810","name":"中山寺","lat":34.831745,"lng":135.353258},{"code":"282149900","name":"切畑","lat":34.848828,"lng":135.346874},{"code":"282149901","name":"切畑","lat":34.843297,"lng":135.388326}]}
