{"municipality":"28210","name":"加古川市","prefecture":"兵庫県","source":{"dataset":"frogcat/japan-small-area","census":"平成27年国勢調査 小地域（e-Stat 統計LOD）","license":"MIT（リポジトリ）／政府統計の総合窓口(e-Stat)の利用規約（元データ・出典表記必要）","fetched":"2026-07-06"},"towns":[{"code":"282100010","name":"加古川町篠原町","lat":34.76895,"lng":134.840167},{"code":"282100020","name":"加古川町寺家町","lat":34.768398,"lng":134.835361},{"code":"282100030","name":"加古川町本町","lat":34.769254,"lng":134.829191},{"code":"282100040","name":"加古川町木村","lat":34.764268,"lng":134.826799},{"code":"282100050","name":"加古川町稲屋","lat":34.758638,"lng":134.814018},{"code":"282100060","name":"加古川町友沢","lat":34.767015,"lng":134.815045},{"code":"282100070","name":"加古川町西河原","lat":34.76884,"lng":134.822182},{"code":"282100080","name":"加古川町粟津","lat":34.7608,"lng":134.833881},{"code":"282100090","name":"加古川町北在家","lat":34.755301,"lng":134.834271},{"code":"282100100","name":"加古川町備後","lat":34.759026,"lng":134.823989},{"code":"282100110","name":"加古川町南備後","lat":34.755658,"lng":134.82165},{"code":"282100120","name":"加古川町大野","lat":34.77597,"lng":134.859817},{"code":"282100130","name":"加古川町中津","lat":34.776023,"lng":134.848909},{"code":"282100140","name":"加古川町河原","lat":34.772602,"lng":134.842244},{"code":"282100150","name":"加古川町溝之口","lat":34.765806,"lng":134.844811},{"code":"282100160","name":"加古川町平野","lat":34.76101,"lng":134.844365},{"code":"282100170","name":"加古川町美乃利","lat":34.765204,"lng":134.851687},{"code":"282100180","name":"神野町神野","lat":34.77788,"lng":134.88339},{"code":"282100190","name":"神野町西条","lat":34.786389,"lng":134.881435},{"code":"28210020001","name":"西条山手１丁目","lat":34.788975,"lng":134.885219},{"code":"28210020002","name":"西条山手２丁目","lat":34.785378,"lng":134.886128},{"code":"28210022000","name":"神野町石守","lat":34.77092,"lng":134.876093},{"code":"28210022001","name":"神野町石守１丁目","lat":34.764291,"lng":134.881143},{"code":"28210022002","name":"神野町石守２丁目","lat":34.770286,"lng":134.874979},{"code":"28210022003","name":"神野町石守３丁目","lat":34.77171,"lng":134.873727},{"code":"282100230","name":"神野町西之山","lat":34.782365,"lng":134.867568},{"code":"28210024000","name":"神野町福留","lat":34.767514,"lng":134.887153},{"code":"28210024001","name":"神野町福留１丁目","lat":34.767522,"lng":134.881291},{"code":"28210025001","name":"新神野１丁目","lat":34.789966,"lng":134.869628},{"code":"28210025002","name":"新神野２丁目","lat":34.792172,"lng":134.873741},{"code":"28210025003","name":"新神野３丁目","lat":34.792623,"lng":134.878113},{"code":"28210025004","name":"新神野４丁目","lat":34.792749,"lng":134.882933},{"code":"28210025005","name":"新神野５丁目","lat":34.789439,"lng":134.874856},{"code":"28210025006","name":"新神野６丁目","lat":34.78816,"lng":134.870563},{"code":"28210025007","name":"新神野７丁目","lat":34.787863,"lng":134.875858},{"code":"28210025008","name":"新神野８丁目","lat":34.786937,"lng":134.871904},{"code":"282100330","name":"神野町日岡苑","lat":34.778526,"lng":134.866626},{"code":"28210034001","name":"山手１丁目","lat":34.779088,"lng":134.886826},{"code":"28210034002","name":"山手２丁目","lat":34.782523,"lng":134.887409},{"code":"28210034003","name":"山手３丁目","lat":34.780353,"lng":134.89279},{"code":"282100370","name":"野口町野口","lat":34.753573,"lng":134.8568},{"code":"282100380","name":"野口町古大内","lat":34.74545,"lng":134.853139},{"code":"282100390","name":"野口町二屋","lat":34.74397,"lng":134.858926},{"code":"282100400","name":"野口町坂井","lat":34.739294,"lng":134.848535},{"code":"282100410","name":"野口町長砂","lat":34.746544,"lng":134.845244},{"code":"282100420","name":"野口町良野","lat":34.753867,"lng":134.844949},{"code":"282100430","name":"野口町坂元","lat":34.757762,"lng":134.850477},{"code":"282100440","name":"野口町水足","lat":34.765124,"lng":134.865015},{"code":"282100450","name":"野口町北野","lat":34.757019,"lng":134.869266},{"code":"282100460","name":"平岡町西谷","lat":34.740619,"lng":134.872147},{"code":"282100470","name":"平岡町高畑","lat":34.737302,"lng":134.879363},{"code":"282100480","name":"平岡町土山","lat":34.728978,"lng":134.889147},{"code":"282100490","name":"平岡町山之上","lat":34.731199,"lng":134.873118},{"code":"282100500","name":"平岡町二俣","lat":34.736995,"lng":134.864715},{"code":"282100510","name":"平岡町中野","lat":34.729891,"lng":134.862388},{"code":"282100520","name":"平岡町八反田","lat":34.72872,"lng":134.854677},{"code":"282100530","name":"平岡町一色","lat":34.738467,"lng":134.85688},{"code":"28210054000","name":"平岡町新在家","lat":34.747368,"lng":134.873563},{"code":"28210054001","name":"平岡町新在家","lat":34.74896,"lng":134.874774},{"code":"28210055001","name":"平岡町新在家１丁目","lat":34.742899,"lng":134.869745},{"code":"28210055002","name":"平岡町新在家２丁目","lat":34.744704,"lng":134.868036},{"code":"28210055003","name":"平岡町新在家３丁目","lat":34.746142,"lng":134.866173},{"code":"28210058001","name":"平岡町一色西１丁目","lat":34.739816,"lng":134.854567},{"code":"28210058002","name":"平岡町一色西２丁目","lat":34.738102,"lng":134.85329},{"code":"28210060000","name":"尾上町養田","lat":34.745347,"lng":134.814805},{"code":"28210060001","name":"尾上町養田１丁目","lat":34.748341,"lng":134.819377},{"code":"28210060002","name":"尾上町養田２丁目","lat":34.748832,"lng":134.817115},{"code":"28210060003","name":"尾上町養田３丁目","lat":34.749827,"lng":134.816699},{"code":"282100610","name":"尾上町池田","lat":34.735097,"lng":134.821473},{"code":"282100620","name":"尾上町長田","lat":34.744318,"lng":134.826156},{"code":"282100630","name":"尾上町安田","lat":34.748813,"lng":134.835405},{"code":"282100640","name":"尾上町今福","lat":34.751215,"lng":134.825071},{"code":"282100650","name":"尾上町口里","lat":34.739792,"lng":134.833096},{"code":"28210066001","name":"尾上町旭１丁目","lat":34.749309,"lng":134.82182},{"code":"28210066002","name":"尾上町旭２丁目","lat":34.750329,"lng":134.820346},{"code":"28210066003","name":"尾上町旭３丁目","lat":34.75123,"lng":134.818688},{"code":"282100690","name":"別府町別府","lat":34.732586,"lng":134.852744},{"code":"282100700","name":"別府町朝日町","lat":34.730944,"lng":134.848488},{"code":"282100710","name":"別府町宮田町","lat":34.728809,"lng":134.844037},{"code":"282100720","name":"別府町中島町","lat":34.729931,"lng":134.845988},{"code":"282100730","name":"別府町石町","lat":34.728698,"lng":134.847278},{"code":"282100740","name":"別府町緑町","lat":34.72748,"lng":134.849269},{"code":"28210075001","name":"別府町本町１丁目","lat":34.726042,"lng":134.846811},{"code":"28210075002","name":"別府町本町２丁目","lat":34.726326,"lng":134.844792},{"code":"282100770","name":"別府町東町","lat":34.723558,"lng":134.845599},{"code":"282100780","name":"別府町元町","lat":34.724861,"lng":134.843127},{"code":"282100790","name":"別府町西町","lat":34.726329,"lng":134.841842},{"code":"282100800","name":"別府町港町","lat":34.720065,"lng":134.845713},{"code":"282100810","name":"別府町新野辺","lat":34.732361,"lng":134.838692},{"code":"28210082001","name":"別府町新野辺北町１丁目","lat":34.733215,"lng":134.84462},{"code":"28210082002","name":"別府町新野辺北町２丁目","lat":34.732619,"lng":134.843059},{"code":"28210082003","name":"別府町新野辺北町３丁目","lat":34.736094,"lng":134.839497},{"code":"28210082004","name":"別府町新野辺北町４丁目","lat":34.739238,"lng":134.838934},{"code":"28210082005","name":"別府町新野辺北町５丁目","lat":34.739666,"lng":134.840478},{"code":"28210082006","name":"別府町新野辺北町６丁目","lat":34.736168,"lng":134.843344},{"code":"28210082007","name":"別府町新野辺北町７丁目","lat":34.739195,"lng":134.844156},{"code":"28210082008","name":"別府町新野辺北町８丁目","lat":34.735578,"lng":134.845715},{"code":"28210085000","name":"別府町西脇","lat":34.723944,"lng":134.851884},{"code":"28210085002","name":"別府町西脇２丁目","lat":34.724786,"lng":134.84889},{"code":"28210085003","name":"別府町西脇３丁目","lat":34.723031,"lng":134.8481},{"code":"282100930","name":"八幡町下村","lat":34.784411,"lng":134.91231},{"code":"282100940","name":"八幡町野村","lat":34.778874,"lng":134.925373},{"code":"282100950","name":"八幡町宗佐","lat":34.794945,"lng":134.923456},{"code":"282100960","name":"八幡町船町","lat":34.793544,"lng":134.907409},{"code":"282100970","name":"八幡町上西条","lat":34.782909,"lng":134.902467},{"code":"282100980","name":"八幡町中西条","lat":34.788747,"lng":134.892789},{"code":"282100990","name":"平荘町山角","lat":34.801879,"lng":134.875918},{"code":"282101000","name":"平荘町養老","lat":34.798746,"lng":134.869204},{"code":"282101010","name":"平荘町里","lat":34.795938,"lng":134.858865},{"code":"282101020","name":"平荘町池尻","lat":34.791088,"lng":134.853075},{"code":"282101030","name":"平荘町西山","lat":34.802902,"lng":134.85725},{"code":"282101040","name":"平荘町小畑","lat":34.811685,"lng":134.859754},{"code":"282101050","name":"平荘町一本松","lat":34.81252,"lng":134.852656},{"code":"282101060","name":"平荘町神木","lat":34.8082,"lng":134.867741},{"code":"282101070","name":"平荘町上原","lat":34.814558,"lng":134.87437},{"code":"282101080","name":"平荘町中山","lat":34.827702,"lng":134.87536},{"code":"282101090","name":"平荘町磐","lat":34.823456,"lng":134.891273},{"code":"282101100","name":"平荘町新中山","lat":34.80691,"lng":134.870637},{"code":"282101110","name":"上荘町小野","lat":34.807488,"lng":134.883686},{"code":"282101120","name":"上荘町薬栗","lat":34.805404,"lng":134.889009},{"code":"282101130","name":"上荘町見土呂","lat":34.809037,"lng":134.899911},{"code":"282101140","name":"上荘町国包","lat":34.798,"lng":134.910019},{"code":"282101150","name":"上荘町井ノ口","lat":34.808165,"lng":134.912591},{"code":"282101160","name":"上荘町白沢","lat":34.819383,"lng":134.913098},{"code":"282101170","name":"上荘町都染","lat":34.799574,"lng":134.896024},{"code":"28210118001","name":"上荘町都台１丁目","lat":34.810614,"lng":134.891046},{"code":"28210118002","name":"上荘町都台２丁目","lat":34.810074,"lng":134.893845},{"code":"28210118003","name":"上荘町都台３丁目","lat":34.812803,"lng":134.89381},{"code":"282101210","name":"東神吉町神吉","lat":34.795181,"lng":134.832163},{"code":"282101220","name":"東神吉町天下原","lat":34.795048,"lng":134.837003},{"code":"282101230","name":"東神吉町升田","lat":34.78699,"lng":134.843983},{"code":"282101240","name":"東神吉町出河原","lat":34.7804,"lng":134.838342},{"code":"282101250","name":"東神吉町砂部","lat":34.784581,"lng":134.827197},{"code":"282101260","name":"東神吉町西井ノ口","lat":34.784548,"lng":134.821638},{"code":"282101270","name":"西神吉町辻","lat":34.797195,"lng":134.806781},{"code":"282101280","name":"西神吉町岸","lat":34.791045,"lng":134.810156},{"code":"282101290","name":"西神吉町大国","lat":34.795583,"lng":134.815412},{"code":"282101300","name":"西神吉町西村","lat":34.799557,"lng":134.820055},{"code":"282101310","name":"西神吉町中西","lat":34.795906,"lng":134.822412},{"code":"282101320","name":"西神吉町宮前","lat":34.805478,"lng":134.830562},{"code":"282101330","name":"西神吉町鼎","lat":34.805286,"lng":134.818928},{"code":"282101340","name":"米田町平津","lat":34.780564,"lng":134.818449},{"code":"282101350","name":"米田町船頭","lat":34.775971,"lng":134.830212},{"code":"282101360","name":"金沢町","lat":34.719856,"lng":134.826265},{"code":"282101370","name":"志方町志方町","lat":34.818196,"lng":134.824253},{"code":"282101380","name":"志方町上冨木","lat":34.812815,"lng":134.828539},{"code":"282101390","name":"志方町投松","lat":34.812741,"lng":134.8409},{"code":"282101400","name":"志方町高畑","lat":34.823986,"lng":134.837493},{"code":"282101410","name":"志方町広尾","lat":34.826286,"lng":134.855674},{"code":"282101420","name":"志方町岡","lat":34.8299,"lng":134.846368},{"code":"282101430","name":"志方町細工所","lat":34.838531,"lng":134.845363},{"code":"282101440","name":"志方町野尻","lat":34.843184,"lng":134.862873},{"code":"282101450","name":"志方町大沢","lat":34.848144,"lng":134.834614},{"code":"282101460","name":"志方町行常","lat":34.842942,"lng":134.825227},{"code":"282101470","name":"志方町畑","lat":34.852784,"lng":134.809869},{"code":"282101480","name":"志方町雑郷","lat":34.843378,"lng":134.80499},{"code":"282101490","name":"志方町東飯坂","lat":34.835556,"lng":134.82097},{"code":"282101500","name":"志方町東中","lat":34.83031,"lng":134.8293},{"code":"282101510","name":"志方町大宗","lat":34.826101,"lng":134.830822},{"code":"282101520","name":"志方町西飯坂","lat":34.827847,"lng":134.821397},{"code":"282101530","name":"志方町西中","lat":34.828753,"lng":134.816385},{"code":"282101540","name":"志方町永室","lat":34.827047,"lng":134.810369},{"code":"282101550","name":"志方町西牧","lat":34.832817,"lng":134.793613},{"code":"282101560","name":"志方町山中","lat":34.825545,"lng":134.793758},{"code":"282101570","name":"志方町原","lat":34.821252,"lng":134.78761},{"code":"282101580","name":"志方町成井","lat":34.813403,"lng":134.80048},{"code":"282101590","name":"志方町西山","lat":34.805445,"lng":134.804533},{"code":"282101600","name":"志方町横大路","lat":34.806948,"lng":134.807463},{"code":"28210161001","name":"平岡町一色東１丁目","lat":34.737793,"lng":134.858004},{"code":"28210161002","name":"平岡町一色東２丁目","lat":34.736566,"lng":134.856691},{"code":"28210161003","name":"平岡町一色東３丁目","lat":34.735445,"lng":134.857547},{"code":"282101620","name":"平岡町","lat":34.742562,"lng":134.873683},{"code":"28210163001","name":"野口町坂元北１丁目","lat":34.760868,"lng":134.851928},{"code":"28210163002","name":"野口町坂元北２丁目","lat":34.75973,"lng":134.852924},{"code":"28210163003","name":"野口町坂元北３丁目","lat":34.758633,"lng":134.854262},{"code":"28210163004","name":"野口町坂元北４丁目","lat":34.759449,"lng":134.855634},{"code":"28210163005","name":"野口町坂元北５丁目","lat":34.760632,"lng":134.854888}]}
