{"municipality":"28218","name":"小野市","prefecture":"兵庫県","source":{"dataset":"frogcat/japan-small-area","census":"平成27年国勢調査 小地域（e-Stat 統計LOD）","license":"MIT（リポジトリ）／政府統計の総合窓口(e-Stat)の利用規約（元データ・出典表記必要）","fetched":"2026-07-06"},"towns":[{"code":"282180010","name":"上本町","lat":34.849716,"lng":134.935086},{"code":"282180020","name":"本町","lat":34.846968,"lng":134.937423},{"code":"282180030","name":"本町一丁目","lat":34.843994,"lng":134.935968},{"code":"282180040","name":"西本町","lat":34.844637,"lng":134.931476},{"code":"282180050","name":"東本町","lat":34.844971,"lng":134.936877},{"code":"282180060","name":"丸山町","lat":34.847755,"lng":134.929442},{"code":"282180070","name":"神明町","lat":34.841071,"lng":134.934079},{"code":"282180080","name":"垂井町","lat":34.837711,"lng":134.933753},{"code":"282180090","name":"中町","lat":34.841787,"lng":134.941642},{"code":"282180100","name":"天神町","lat":34.845066,"lng":134.958949},{"code":"282180110","name":"日吉町","lat":34.843194,"lng":134.979374},{"code":"282180120","name":"長尾町","lat":34.853707,"lng":134.981489},{"code":"282180130","name":"栄町","lat":34.856531,"lng":134.993152},{"code":"282180140","name":"浄谷町","lat":34.862081,"lng":134.959264},{"code":"282180150","name":"黒川町","lat":34.852881,"lng":134.951102},{"code":"282180160","name":"葉多町","lat":34.854236,"lng":134.920621},{"code":"282180170","name":"久茂町","lat":34.848701,"lng":134.917527},{"code":"282180180","name":"下大部町","lat":34.843575,"lng":134.917095},{"code":"282180190","name":"片山町","lat":34.842981,"lng":134.923845},{"code":"282180200","name":"大開町","lat":34.846595,"lng":134.998583},{"code":"282180220","name":"復井町","lat":34.905518,"lng":134.930511},{"code":"282180230","name":"西山町","lat":34.903689,"lng":134.925068},{"code":"282180240","name":"青野ヶ原町","lat":34.89876,"lng":134.930825},{"code":"282180250","name":"河合中町","lat":34.890933,"lng":134.928359},{"code":"282180260","name":"河合西町","lat":34.885999,"lng":134.917528},{"code":"28218027000","name":"新部町","lat":34.879694,"lng":134.919889},{"code":"28218027001","name":"新部町１丁通１３２０","lat":34.879579,"lng":134.905975},{"code":"282180280","name":"南青野","lat":34.880692,"lng":134.904318},{"code":"282180290","name":"旭町","lat":34.872899,"lng":134.921653},{"code":"282180300","name":"昭和町","lat":34.875211,"lng":134.907864},{"code":"282180310","name":"三和町","lat":34.871437,"lng":134.916579},{"code":"282180320","name":"粟生町","lat":34.863253,"lng":134.905485},{"code":"282180330","name":"黍田町","lat":34.818218,"lng":134.929355},{"code":"282180340","name":"下来住町","lat":34.831401,"lng":134.909281},{"code":"282180350","name":"来住町","lat":34.843686,"lng":134.899557},{"code":"282180360","name":"阿形町","lat":34.84969,"lng":134.907385},{"code":"282180370","name":"西脇町","lat":34.856567,"lng":134.898381},{"code":"282180380","name":"福甸町","lat":34.839468,"lng":134.890287},{"code":"282180390","name":"市場町","lat":34.828971,"lng":134.940389},{"code":"282180400","name":"樫山町","lat":34.81549,"lng":134.945139},{"code":"282180410","name":"榊町","lat":34.824195,"lng":134.971368},{"code":"282180420","name":"大島町","lat":34.835387,"lng":134.930045},{"code":"282180430","name":"山田町","lat":34.832597,"lng":134.972763},{"code":"282180440","name":"池尻町","lat":34.825487,"lng":134.944675},{"code":"282180450","name":"二葉町","lat":34.836252,"lng":134.945012},{"code":"282180460","name":"高田町","lat":34.873871,"lng":134.929881},{"code":"282180470","name":"喜多町","lat":34.878405,"lng":134.936789},{"code":"282180480","name":"鹿野町","lat":34.870066,"lng":134.936082},{"code":"282180490","name":"敷地町","lat":34.862134,"lng":134.929665},{"code":"282180500","name":"住永町","lat":34.864581,"lng":134.921758},{"code":"282180510","name":"王子町","lat":34.854647,"lng":134.928042},{"code":"282180520","name":"中島町","lat":34.859939,"lng":134.943645},{"code":"282180530","name":"広渡町","lat":34.868183,"lng":134.943272},{"code":"282180540","name":"上新町","lat":34.853746,"lng":134.934091},{"code":"282180550","name":"中谷町","lat":34.869659,"lng":135.019057},{"code":"282180560","name":"脇本町","lat":34.864681,"lng":135.011088},{"code":"282180570","name":"万勝寺町","lat":34.864245,"lng":134.997885},{"code":"282180580","name":"池田町","lat":34.880312,"lng":135.00961},{"code":"282180590","name":"曽根町","lat":34.887292,"lng":135.00254},{"code":"282180600","name":"小田上町","lat":34.893031,"lng":134.995526},{"code":"282180610","name":"小田下町","lat":34.878541,"lng":134.990576},{"code":"282180620","name":"船木町","lat":34.882839,"lng":134.985733},{"code":"282180630","name":"福住町","lat":34.893079,"lng":134.979418},{"code":"282180640","name":"中番町","lat":34.887326,"lng":134.976099},{"code":"282180650","name":"菅田町","lat":34.880234,"lng":134.975489},{"code":"282180660","name":"住吉町","lat":34.880224,"lng":134.968615},{"code":"282180670","name":"久保木町","lat":34.878624,"lng":134.958273},{"code":"282180680","name":"古川町","lat":34.879886,"lng":134.946247},{"code":"282180690","name":"田園町","lat":34.844305,"lng":134.920199},{"code":"282180700","name":"北丘町","lat":34.866848,"lng":134.970281},{"code":"282180710","name":"育ケ丘町","lat":34.821848,"lng":134.955829},{"code":"282180720","name":"天神町","lat":34.840977,"lng":134.951236},{"code":"282180730","name":"高山町","lat":34.872665,"lng":134.96244},{"code":"282180740","name":"天神町","lat":34.849058,"lng":134.954315},{"code":"282180750","name":"桜台","lat":34.898693,"lng":134.913332},{"code":"282180780","name":"片山町","lat":34.845076,"lng":134.925277},{"code":"282180790","name":"神明町","lat":34.841477,"lng":134.929933},{"code":"282180810","name":"匠台","lat":34.824061,"lng":134.977262}]}
