{"municipality":"28585","name":"美方郡香美町","prefecture":"兵庫県","source":{"dataset":"frogcat/japan-small-area","census":"平成27年国勢調査 小地域（e-Stat 統計LOD）","license":"MIT（リポジトリ）／政府統計の総合窓口(e-Stat)の利用規約（元データ・出典表記必要）","fetched":"2026-07-06"},"towns":[{"code":"285850010","name":"香住区境","lat":35.649163,"lng":134.645293},{"code":"285850020","name":"香住区一日市","lat":35.643656,"lng":134.637916},{"code":"285850030","name":"香住区若松","lat":35.642082,"lng":134.63511},{"code":"285850040","name":"香住区香住","lat":35.629855,"lng":134.641386},{"code":"285850050","name":"香住区七日市","lat":35.638048,"lng":134.624324},{"code":"285850060","name":"香住区七日市","lat":35.638083,"lng":134.619552},{"code":"285850070","name":"香住区七日市","lat":35.633071,"lng":134.626517},{"code":"285850080","name":"香住区森","lat":35.626029,"lng":134.630375},{"code":"285850090","name":"香住区間室","lat":35.625063,"lng":134.611487},{"code":"285850100","name":"香住区油良","lat":35.631348,"lng":134.616233},{"code":"285850110","name":"香住区矢田","lat":35.63257,"lng":134.602721},{"code":"285850120","name":"香住区下浜","lat":35.647405,"lng":134.598166},{"code":"285850130","name":"香住区九斗","lat":35.641937,"lng":134.680009},{"code":"285850140","name":"香住区米地","lat":35.637352,"lng":134.687914},{"code":"285850150","name":"香住区丹生地","lat":35.631332,"lng":134.668627},{"code":"285850160","name":"香住区下岡","lat":35.628648,"lng":134.676652},{"code":"285850170","name":"香住区下岡","lat":35.618933,"lng":134.690496},{"code":"285850180","name":"香住区上岡","lat":35.616092,"lng":134.67977},{"code":"285850190","name":"香住区隼人","lat":35.615707,"lng":134.663016},{"code":"285850200","name":"香住区畑","lat":35.594165,"lng":134.676251},{"code":"285850210","name":"香住区三川","lat":35.585318,"lng":134.661612},{"code":"285850220","name":"香住区三川","lat":35.563894,"lng":134.64408},{"code":"285850230","name":"香住区土生","lat":35.590232,"lng":134.690705},{"code":"285850240","name":"香住区本見塚","lat":35.606029,"lng":134.702756},{"code":"285850250","name":"香住区相谷","lat":35.652745,"lng":134.720516},{"code":"285850260","name":"香住区安木","lat":35.638294,"lng":134.706818},{"code":"285850270","name":"香住区安木","lat":35.644878,"lng":134.703159},{"code":"285850280","name":"香住区安木","lat":35.65186,"lng":134.705805},{"code":"285850290","name":"香住区訓谷","lat":35.648303,"lng":134.692506},{"code":"285850300","name":"香住区無南垣","lat":35.657401,"lng":134.688214},{"code":"285850310","name":"香住区浦上","lat":35.646233,"lng":134.668871},{"code":"285850320","name":"香住区沖浦","lat":35.640887,"lng":134.654022},{"code":"285850330","name":"香住区沖浦","lat":35.660546,"lng":134.657849},{"code":"285850340","name":"香住区守柄","lat":35.617619,"lng":134.602656},{"code":"285850350","name":"香住区加鹿野","lat":35.620096,"lng":134.627786},{"code":"285850360","name":"香住区三谷","lat":35.614006,"lng":134.633001},{"code":"285850370","name":"香住区大谷","lat":35.597396,"lng":134.641638},{"code":"285850380","name":"香住区大野","lat":35.600131,"lng":134.619514},{"code":"285850390","name":"香住区小原","lat":35.603847,"lng":134.59341},{"code":"285850400","name":"香住区中野","lat":35.583573,"lng":134.624655},{"code":"285850410","name":"香住区藤","lat":35.580663,"lng":134.614556},{"code":"285850420","name":"香住区八原","lat":35.580615,"lng":134.605407},{"code":"285850430","name":"香住区余部","lat":35.639962,"lng":134.554332},{"code":"285850440","name":"香住区余部","lat":35.641107,"lng":134.564547},{"code":"285850450","name":"香住区余部","lat":35.645315,"lng":134.563457},{"code":"285850460","name":"香住区余部","lat":35.646451,"lng":134.557917},{"code":"285850470","name":"香住区余部","lat":35.651531,"lng":134.554611},{"code":"285850480","name":"香住区余部","lat":35.660533,"lng":134.547254},{"code":"285850490","name":"香住区鎧","lat":35.65156,"lng":134.576027},{"code":"285850500","name":"村岡区村岡","lat":35.467125,"lng":134.599952},{"code":"285850510","name":"村岡区村岡","lat":35.468403,"lng":134.595685},{"code":"285850520","name":"村岡区村岡","lat":35.469061,"lng":134.593936},{"code":"285850530","name":"村岡区村岡","lat":35.471099,"lng":134.597476},{"code":"285850540","name":"村岡区村岡","lat":35.472572,"lng":134.598065},{"code":"285850550","name":"村岡区村岡","lat":35.483817,"lng":134.615996},{"code":"285850560","name":"村岡区村岡","lat":35.474164,"lng":134.596136},{"code":"285850570","name":"村岡区村岡","lat":35.472847,"lng":134.593733},{"code":"285850580","name":"村岡区村岡","lat":35.475549,"lng":134.588889},{"code":"285850590","name":"村岡区村岡","lat":35.47036,"lng":134.586743},{"code":"285850600","name":"村岡区用野","lat":35.48726,"lng":134.585679},{"code":"285850610","name":"村岡区鹿田","lat":35.475593,"lng":134.577239},{"code":"285850620","name":"村岡区相田","lat":35.462322,"lng":134.589895},{"code":"285850630","name":"村岡区神坂","lat":35.463104,"lng":134.576397},{"code":"285850640","name":"村岡区萩山","lat":35.449588,"lng":134.565243},{"code":"285850650","name":"村岡区板仕野","lat":35.437321,"lng":134.568696},{"code":"285850660","name":"村岡区大糠","lat":35.462453,"lng":134.608444},{"code":"285850670","name":"村岡区高井","lat":35.451125,"lng":134.592542},{"code":"285850680","name":"村岡区寺河内","lat":35.457489,"lng":134.620403},{"code":"285850690","name":"村岡区耀山","lat":35.446899,"lng":134.618798},{"code":"285850700","name":"村岡区市原","lat":35.443291,"lng":134.595009},{"code":"285850710","name":"村岡区福岡","lat":35.413416,"lng":134.601581},{"code":"285850720","name":"村岡区八井谷","lat":35.405681,"lng":134.608833},{"code":"285850730","name":"村岡区大野","lat":35.396053,"lng":134.593164},{"code":"285850740","name":"村岡区口大谷","lat":35.408487,"lng":134.576242},{"code":"285850750","name":"村岡区中大谷","lat":35.399195,"lng":134.567871},{"code":"285850760","name":"村岡区大笹","lat":35.403169,"lng":134.550857},{"code":"285850770","name":"村岡区高坂","lat":35.414969,"lng":134.571796},{"code":"285850780","name":"村岡区池ケ平","lat":35.417693,"lng":134.576582},{"code":"285850790","name":"村岡区和池","lat":35.422902,"lng":134.577029},{"code":"285850800","name":"村岡区森脇","lat":35.423554,"lng":134.588026},{"code":"285850810","name":"村岡区黒田","lat":35.425353,"lng":134.60234},{"code":"285850820","name":"村岡区宿","lat":35.434431,"lng":134.593483},{"code":"285850830","name":"村岡区日影","lat":35.435349,"lng":134.618253},{"code":"285850840","name":"村岡区作山","lat":35.419811,"lng":134.631488},{"code":"285850850","name":"村岡区入江","lat":35.48687,"lng":134.571578},{"code":"285850860","name":"村岡区入江","lat":35.506226,"lng":134.59185},{"code":"285850870","name":"村岡区和田","lat":35.493985,"lng":134.564881},{"code":"285850880","name":"村岡区長板","lat":35.489258,"lng":134.553009},{"code":"285850890","name":"村岡区熊波","lat":35.484827,"lng":134.529413},{"code":"285850900","name":"村岡区柤岡","lat":35.486337,"lng":134.510398},{"code":"285850910","name":"村岡区丸味","lat":35.504341,"lng":134.554164},{"code":"285850920","name":"村岡区川会","lat":35.502026,"lng":134.569355},{"code":"285850930","name":"村岡区高津","lat":35.518627,"lng":134.575914},{"code":"285850940","name":"村岡区長須","lat":35.52557,"lng":134.559024},{"code":"285850950","name":"村岡区味取","lat":35.540444,"lng":134.562072},{"code":"285850960","name":"村岡区原","lat":35.553888,"lng":134.564149},{"code":"285850970","name":"村岡区長瀬","lat":35.562192,"lng":134.579946},{"code":"285850980","name":"村岡区山田","lat":35.537453,"lng":134.611184},{"code":"285850990","name":"村岡区和田","lat":35.495046,"lng":134.562381},{"code":"285851000","name":"村岡区境","lat":35.565773,"lng":134.609836},{"code":"285851010","name":"村岡区光陽","lat":35.456757,"lng":134.597837},{"code":"285851020","name":"小代区神場","lat":35.457819,"lng":134.553889},{"code":"285851030","name":"小代区広井","lat":35.468609,"lng":134.550538},{"code":"285851040","name":"小代区水間","lat":35.461139,"lng":134.543358},{"code":"285851050","name":"小代区野間谷","lat":35.44846,"lng":134.541836},{"code":"285851060","name":"小代区実山","lat":35.445387,"lng":134.537986},{"code":"285851070","name":"小代区平野","lat":35.438784,"lng":134.537161},{"code":"285851080","name":"小代区茅野","lat":35.428496,"lng":134.543695},{"code":"285851090","name":"小代区新屋","lat":35.418037,"lng":134.525361},{"code":"285851100","name":"小代区熱田","lat":35.452149,"lng":134.538167},{"code":"285851110","name":"小代区秋岡","lat":35.400272,"lng":134.502455},{"code":"285851120","name":"小代区東垣","lat":35.426105,"lng":134.523151},{"code":"285851130","name":"小代区佐坊","lat":35.427582,"lng":134.515878},{"code":"285851140","name":"小代区鍛冶屋","lat":35.429049,"lng":134.523119},{"code":"285851150","name":"小代区貫田","lat":35.434698,"lng":134.529042},{"code":"285851160","name":"小代区忠宮","lat":35.446028,"lng":134.533542},{"code":"285851170","name":"小代区久須部","lat":35.448841,"lng":134.523132},{"code":"285851180","name":"小代区大谷","lat":35.452006,"lng":134.514627},{"code":"285851190","name":"小代区城山","lat":35.457974,"lng":134.535354},{"code":"285851200","name":"小代区神水","lat":35.463756,"lng":134.541836},{"code":"285851210","name":"小代区石寺","lat":35.474049,"lng":134.550597},{"code":"285851220","name":"小代区猪之谷","lat":35.461331,"lng":134.554894},{"code":"285851230","name":"小代区小長辿","lat":35.452272,"lng":134.528284}]}
