{"municipality":"29210","name":"香芝市","prefecture":"奈良県","source":{"dataset":"frogcat/japan-small-area","census":"平成27年国勢調査 小地域（e-Stat 統計LOD）","license":"MIT（リポジトリ）／政府統計の総合窓口(e-Stat)の利用規約（元データ・出典表記必要）","fetched":"2026-07-06"},"towns":[{"code":"292100010","name":"大字五位堂","lat":34.534291,"lng":135.719599},{"code":"292100020","name":"鎌田","lat":34.523191,"lng":135.711983},{"code":"292100030","name":"良福寺","lat":34.529199,"lng":135.707499},{"code":"292100040","name":"別所","lat":34.532971,"lng":135.724433},{"code":"292100050","name":"瓦口","lat":34.53666,"lng":135.718894},{"code":"29210007001","name":"下田西１丁目","lat":34.54275,"lng":135.705087},{"code":"29210007002","name":"下田西２丁目","lat":34.544071,"lng":135.701438},{"code":"29210007003","name":"下田西３丁目","lat":34.54064,"lng":135.701384},{"code":"29210007004","name":"下田西４丁目","lat":34.540304,"lng":135.70554},{"code":"29210011001","name":"藤山１丁目","lat":34.542696,"lng":135.697269},{"code":"29210011002","name":"藤山２丁目","lat":34.544932,"lng":135.697744},{"code":"292100130","name":"本町","lat":34.541053,"lng":135.697737},{"code":"292100150","name":"狐井","lat":34.536559,"lng":135.708411},{"code":"292100170","name":"五ケ所","lat":34.549257,"lng":135.716942},{"code":"292100190","name":"大字畑","lat":34.537811,"lng":135.682851},{"code":"292100200","name":"穴虫","lat":34.54438,"lng":135.672428},{"code":"292100210","name":"関屋","lat":34.554052,"lng":135.671691},{"code":"292100220","name":"田尻","lat":34.549014,"lng":135.65772},{"code":"292100230","name":"高","lat":34.554218,"lng":135.70341},{"code":"29210024101","name":"旭ケ丘１丁目","lat":34.554152,"lng":135.69724},{"code":"29210024102","name":"旭ケ丘２丁目","lat":34.552762,"lng":135.692821},{"code":"29210024103","name":"旭ケ丘３丁目","lat":34.556319,"lng":135.692727},{"code":"29210024104","name":"旭ケ丘４丁目","lat":34.553867,"lng":135.689373},{"code":"29210024105","name":"旭ケ丘５丁目","lat":34.553812,"lng":135.685085},{"code":"292100242","name":"逢坂","lat":34.551807,"lng":135.686137},{"code":"292100243","name":"上中","lat":34.560099,"lng":135.696078},{"code":"292100250","name":"平野","lat":34.566277,"lng":135.692992},{"code":"292100260","name":"今泉","lat":34.561067,"lng":135.692765},{"code":"292100270","name":"大字尼寺","lat":34.567918,"lng":135.683832},{"code":"29210033001","name":"下田東１丁目","lat":34.545359,"lng":135.70572},{"code":"29210033002","name":"下田東２丁目","lat":34.541506,"lng":135.708396},{"code":"29210033003","name":"下田東３丁目","lat":34.541615,"lng":135.712416},{"code":"29210033004","name":"下田東４丁目","lat":34.543765,"lng":135.708563},{"code":"29210033005","name":"下田東５丁目","lat":34.546883,"lng":135.709047},{"code":"29210038001","name":"関屋北１丁目","lat":34.560172,"lng":135.676404},{"code":"29210038002","name":"関屋北２丁目","lat":34.557101,"lng":135.671066},{"code":"29210038003","name":"関屋北３丁目","lat":34.559408,"lng":135.671782},{"code":"29210038004","name":"関屋北４丁目","lat":34.563279,"lng":135.672773},{"code":"29210038005","name":"関屋北５丁目","lat":34.559567,"lng":135.668013},{"code":"29210038006","name":"関屋北６丁目","lat":34.55711,"lng":135.664698},{"code":"29210038007","name":"関屋北７丁目","lat":34.557736,"lng":135.661149},{"code":"29210038008","name":"関屋北８丁目","lat":34.56454,"lng":135.667034},{"code":"29210046000","name":"磯壁","lat":34.527059,"lng":135.699233},{"code":"29210046001","name":"磯壁１丁目","lat":34.53629,"lng":135.697721},{"code":"29210046002","name":"磯壁２丁目","lat":34.536855,"lng":135.700299},{"code":"29210046003","name":"磯壁３丁目","lat":34.537389,"lng":135.702394},{"code":"29210046004","name":"磯壁４丁目","lat":34.533932,"lng":135.702095},{"code":"29210046005","name":"磯壁５丁目","lat":34.532699,"lng":135.698679},{"code":"29210046006","name":"磯壁６丁目","lat":34.530219,"lng":135.70271},{"code":"29210046007","name":"磯壁７丁目","lat":34.529785,"lng":135.698671},{"code":"29210053001","name":"畑１丁目","lat":34.538434,"lng":135.69639},{"code":"29210053002","name":"畑２丁目","lat":34.539715,"lng":135.693569},{"code":"29210053003","name":"畑３丁目","lat":34.540319,"lng":135.690647},{"code":"29210053004","name":"畑４丁目","lat":34.540158,"lng":135.686967},{"code":"29210053005","name":"畑５丁目","lat":34.53699,"lng":135.69148},{"code":"29210053006","name":"畑６丁目","lat":34.535884,"lng":135.688246},{"code":"29210053007","name":"畑７丁目","lat":34.537355,"lng":135.685551},{"code":"29210060001","name":"西真美１丁目","lat":34.543727,"lng":135.712444},{"code":"29210060002","name":"西真美２丁目","lat":34.547165,"lng":135.713219},{"code":"29210060003","name":"西真美３丁目","lat":34.544409,"lng":135.71613},{"code":"29210067001","name":"白鳳台１丁目","lat":34.568998,"lng":135.697016},{"code":"29210067002","name":"白鳳台２丁目","lat":34.568963,"lng":135.693159},{"code":"29210071001","name":"真美ヶ丘１丁目","lat":34.541903,"lng":135.717649},{"code":"29210071002","name":"真美ヶ丘２丁目","lat":34.540486,"lng":135.720472},{"code":"29210071003","name":"真美ヶ丘３丁目","lat":34.537958,"lng":135.72455},{"code":"29210071004","name":"真美ヶ丘４丁目","lat":34.535625,"lng":135.727363},{"code":"29210071005","name":"真美ヶ丘５丁目","lat":34.546435,"lng":135.719488},{"code":"29210071006","name":"真美ヶ丘６丁目","lat":34.543742,"lng":135.72253},{"code":"29210071007","name":"真美ヶ丘７丁目","lat":34.542496,"lng":135.72551},{"code":"29210076001","name":"北今市１丁目","lat":34.548338,"lng":135.704334},{"code":"29210076002","name":"北今市２丁目","lat":34.550914,"lng":135.70314},{"code":"29210076003","name":"北今市３丁目","lat":34.547571,"lng":135.701357},{"code":"29210076004","name":"北今市４丁目","lat":34.551084,"lng":135.701024},{"code":"29210076005","name":"北今市５丁目","lat":34.547443,"lng":135.698413},{"code":"29210076006","name":"北今市６丁目","lat":34.549513,"lng":135.698414},{"code":"29210076007","name":"北今市７丁目","lat":34.551393,"lng":135.697835},{"code":"29210077001","name":"逢坂１丁目","lat":34.543268,"lng":135.693763},{"code":"29210077002","name":"逢坂２丁目","lat":34.543658,"lng":135.69076},{"code":"29210077003","name":"逢坂３丁目","lat":34.545503,"lng":135.694018},{"code":"29210077004","name":"逢坂４丁目","lat":34.547734,"lng":135.695154},{"code":"29210077005","name":"逢坂５丁目","lat":34.54778,"lng":135.69265},{"code":"29210077006","name":"逢坂６丁目","lat":34.547304,"lng":135.690487},{"code":"29210077007","name":"逢坂７丁目","lat":34.550465,"lng":135.693883},{"code":"29210077008","name":"逢坂８丁目","lat":34.550035,"lng":135.6902},{"code":"29210078001","name":"尼寺１丁目","lat":34.572098,"lng":135.703218},{"code":"29210078002","name":"尼寺２丁目","lat":34.572092,"lng":135.700171},{"code":"29210078003","name":"尼寺３丁目","lat":34.571508,"lng":135.69595},{"code":"29210101001","name":"五位堂１丁目","lat":34.53223,"lng":135.713291},{"code":"29210101002","name":"五位堂２丁目","lat":34.533975,"lng":135.714483},{"code":"29210101003","name":"五位堂３丁目","lat":34.533622,"lng":135.717707},{"code":"29210101004","name":"五位堂４丁目","lat":34.531676,"lng":135.717999},{"code":"29210101005","name":"五位堂５丁目","lat":34.528565,"lng":135.715839},{"code":"29210101006","name":"五位堂６丁目","lat":34.529114,"lng":135.718681},{"code":"29210110001","name":"高山台１丁目","lat":34.546882,"lng":135.682359},{"code":"29210110002","name":"高山台２丁目","lat":34.549158,"lng":135.680168},{"code":"29210110003","name":"高山台３丁目","lat":34.547799,"lng":135.676848},{"code":"292101110","name":"すみれ野","lat":34.539431,"lng":135.713145}]}
