{"municipality":"29449","name":"吉野郡十津川村","prefecture":"奈良県","source":{"dataset":"frogcat/japan-small-area","census":"平成27年国勢調査 小地域（e-Stat 統計LOD）","license":"MIT（リポジトリ）／政府統計の総合窓口(e-Stat)の利用規約（元データ・出典表記必要）","fetched":"2026-07-06"},"towns":[{"code":"294490010","name":"大字長殿","lat":34.133882,"lng":135.757062},{"code":"294490020","name":"大字沼田原","lat":34.144675,"lng":135.76837},{"code":"294490030","name":"大字旭","lat":34.122095,"lng":135.846268},{"code":"294490040","name":"大字宇宮原","lat":34.116268,"lng":135.769031},{"code":"294490050","name":"大字谷瀬","lat":34.106231,"lng":135.73607},{"code":"294490060","name":"大字上野地","lat":34.094536,"lng":135.769432},{"code":"294490070","name":"大字林","lat":34.083207,"lng":135.732525},{"code":"294490080","name":"大字高津","lat":34.07942,"lng":135.767015},{"code":"294490090","name":"大字内野","lat":34.044144,"lng":135.718929},{"code":"294490100","name":"大字山天","lat":34.064893,"lng":135.701538},{"code":"294490110","name":"大字三浦","lat":34.026862,"lng":135.708675},{"code":"294490120","name":"大字五百瀬","lat":34.018776,"lng":135.694708},{"code":"294490130","name":"大字杉清","lat":34.041869,"lng":135.638456},{"code":"294490140","name":"大字川津","lat":34.05461,"lng":135.742961},{"code":"294490150","name":"大字風屋","lat":34.047942,"lng":135.774728},{"code":"294490160","name":"大字滝川","lat":34.069878,"lng":135.794658},{"code":"294490170","name":"大字内原","lat":34.071691,"lng":135.851197},{"code":"294490180","name":"大字野尻","lat":34.036646,"lng":135.785523},{"code":"294490190","name":"大字山崎","lat":34.026339,"lng":135.761051},{"code":"294490200","name":"大字池穴","lat":34.017629,"lng":135.774491},{"code":"294490210","name":"大字小井","lat":34.026662,"lng":135.820742},{"code":"294490220","name":"大字湯之原","lat":34.005415,"lng":135.800257},{"code":"294490230","name":"大字小森","lat":33.997919,"lng":135.769837},{"code":"294490240","name":"大字小原","lat":33.981017,"lng":135.793669},{"code":"294490250","name":"大字武蔵","lat":33.991356,"lng":135.813275},{"code":"294490260","name":"大字大野","lat":34.012667,"lng":135.862737},{"code":"294490270","name":"大字高滝","lat":33.961779,"lng":135.822452},{"code":"294490280","name":"大字小川","lat":33.970998,"lng":135.846582},{"code":"294490290","name":"大字上葛川","lat":33.980406,"lng":135.879524},{"code":"294490300","name":"大字東中","lat":33.951101,"lng":135.850266},{"code":"294490310","name":"大字神下","lat":33.937241,"lng":135.875966},{"code":"294490320","name":"大字竹筒","lat":33.877975,"lng":135.865984},{"code":"294490330","name":"大字玉置川","lat":33.908519,"lng":135.841193},{"code":"294490340","name":"大字折立","lat":33.947217,"lng":135.813066},{"code":"294490350","name":"大字山手谷","lat":33.918995,"lng":135.803547},{"code":"294490360","name":"大字平谷","lat":33.941386,"lng":135.764366},{"code":"294490370","name":"大字込之上","lat":33.946063,"lng":135.791578},{"code":"294490380","name":"大字樫原","lat":33.959438,"lng":135.787705},{"code":"294490390","name":"大字那知合","lat":33.978128,"lng":135.764551},{"code":"294490400","name":"大字谷垣内","lat":33.964643,"lng":135.765745},{"code":"294490410","name":"大字山手","lat":33.950665,"lng":135.759649},{"code":"294490420","name":"大字猿飼","lat":33.933453,"lng":135.780105},{"code":"294490430","name":"大字桑畑","lat":33.919322,"lng":135.759643},{"code":"294490440","name":"大字七色","lat":33.899027,"lng":135.760283},{"code":"294490450","name":"大字重里","lat":33.956017,"lng":135.738558},{"code":"294490460","name":"大字永井","lat":33.97049,"lng":135.747159},{"code":"294490470","name":"大字玉垣内","lat":33.978528,"lng":135.7388},{"code":"294490480","name":"大字今西","lat":34.00459,"lng":135.73831},{"code":"294490490","name":"大字西中","lat":33.990426,"lng":135.713752},{"code":"294490500","name":"大字小山手","lat":33.972346,"lng":135.699753},{"code":"294490510","name":"大字小坪瀬","lat":33.974388,"lng":135.677232},{"code":"294490520","name":"大字迫西川","lat":33.972175,"lng":135.652475},{"code":"294490530","name":"大字上湯川","lat":33.917918,"lng":135.64764},{"code":"294490540","name":"大字出谷","lat":33.929823,"lng":135.714461}]}
