{"municipality":"29453","name":"吉野郡東吉野村","prefecture":"奈良県","source":{"dataset":"frogcat/japan-small-area","census":"平成27年国勢調査 小地域（e-Stat 統計LOD）","license":"MIT（リポジトリ）／政府統計の総合窓口(e-Stat)の利用規約（元データ・出典表記必要）","fetched":"2026-07-06"},"towns":[{"code":"294530010","name":"大字小川","lat":34.410041,"lng":135.974107},{"code":"294530020","name":"大字小","lat":34.390391,"lng":135.987169},{"code":"294530030","name":"大字木津川","lat":34.402808,"lng":135.997461},{"code":"294530040","name":"大字小栗栖","lat":34.394788,"lng":135.960497},{"code":"294530050","name":"大字中黒","lat":34.386486,"lng":135.950257},{"code":"294530060","name":"大字鷲家","lat":34.433388,"lng":136.003779},{"code":"294530070","name":"大字三尾","lat":34.369596,"lng":135.989234},{"code":"294530080","name":"大字狭戸","lat":34.371011,"lng":136.004798},{"code":"294530090","name":"大字大豆生","lat":34.377319,"lng":136.017806},{"code":"294530100","name":"大字麦谷","lat":34.369401,"lng":136.051141},{"code":"294530120","name":"大字萩原","lat":34.414495,"lng":136.002782},{"code":"294530130","name":"大字伊豆尾","lat":34.409572,"lng":136.025259},{"code":"294530140","name":"大字日裏","lat":34.396615,"lng":136.028268},{"code":"294530150","name":"大字木津","lat":34.423276,"lng":136.032671},{"code":"294530160","name":"大字杉谷","lat":34.411304,"lng":136.064497},{"code":"294530170","name":"大字平野","lat":34.442629,"lng":136.068398},{"code":"294530180","name":"大字滝野","lat":34.468974,"lng":136.060691},{"code":"294530190","name":"大字谷尻","lat":34.448578,"lng":136.03717}]}
