{"municipality":"29452","name":"吉野郡川上村","prefecture":"奈良県","source":{"dataset":"frogcat/japan-small-area","census":"平成27年国勢調査 小地域（e-Stat 統計LOD）","license":"MIT（リポジトリ）／政府統計の総合窓口(e-Stat)の利用規約（元データ・出典表記必要）","fetched":"2026-07-06"},"towns":[{"code":"29452001001","name":"大字東川","lat":34.368382,"lng":135.929175},{"code":"29452001002","name":"大字東川高佐","lat":34.371212,"lng":135.940767},{"code":"29452001003","name":"大字東川衣引","lat":34.366945,"lng":135.938412},{"code":"29452001004","name":"大字東川深山","lat":34.371123,"lng":135.934295},{"code":"29452001005","name":"大字東川柳瀬","lat":34.372959,"lng":135.936569},{"code":"29452001006","name":"大字東川安場","lat":34.374347,"lng":135.941084},{"code":"29452001007","name":"大字東川中井","lat":34.364491,"lng":135.961077},{"code":"294520020","name":"大字西河","lat":34.349813,"lng":135.908237},{"code":"29452003001","name":"大字大滝","lat":34.355015,"lng":135.923341},{"code":"29452003002","name":"大字大滝小滝","lat":34.345328,"lng":135.915794},{"code":"29452003003","name":"大字大滝白屋区","lat":34.33891,"lng":135.923998},{"code":"294520040","name":"大字寺尾","lat":34.338325,"lng":135.936117},{"code":"294520050","name":"大字北塩谷","lat":34.35063,"lng":135.955807},{"code":"294520060","name":"大字迫","lat":34.334375,"lng":135.948382},{"code":"294520070","name":"大字高原","lat":34.307378,"lng":135.932596},{"code":"294520080","name":"大字高原土場","lat":34.330462,"lng":135.959503},{"code":"294520090","name":"大字人知","lat":34.32507,"lng":135.965615},{"code":"294520100","name":"大字白屋","lat":34.337154,"lng":135.973989},{"code":"294520110","name":"大字井戸","lat":34.31088,"lng":135.970111},{"code":"294520120","name":"大字武木","lat":34.328759,"lng":135.992647},{"code":"294520130","name":"大字井光","lat":34.336228,"lng":136.012712},{"code":"294520140","name":"大字下多古","lat":34.294259,"lng":135.96163},{"code":"294520150","name":"大字白川渡","lat":34.304081,"lng":135.999459},{"code":"294520160","name":"大字枌尾","lat":34.30305,"lng":136.023501},{"code":"294520170","name":"大字中奥","lat":34.314597,"lng":136.041507},{"code":"294520180","name":"大字瀬戸","lat":34.329674,"lng":136.079897},{"code":"294520190","name":"大字北和田","lat":34.294509,"lng":136.011371},{"code":"29452020001","name":"大字神之谷","lat":34.28271,"lng":136.065995},{"code":"29452020002","name":"大字神之谷三之公","lat":34.254573,"lng":136.095892},{"code":"294520210","name":"大字上多古","lat":34.279065,"lng":135.976222},{"code":"294520220","name":"大字柏木","lat":34.282312,"lng":136.000165},{"code":"294520230","name":"大字上谷","lat":34.262263,"lng":135.985136},{"code":"294520240","name":"大字大迫","lat":34.269689,"lng":136.014924},{"code":"294520250","name":"大字伯母谷","lat":34.243563,"lng":135.993079},{"code":"29452026001","name":"大字入之波","lat":34.230096,"lng":136.052243},{"code":"29452026002","name":"大字入之波筏場","lat":34.236696,"lng":136.078424}]}
