{"municipality":"30202","name":"海南市","prefecture":"和歌山県","source":{"dataset":"frogcat/japan-small-area","census":"平成27年国勢調査 小地域（e-Stat 統計LOD）","license":"MIT（リポジトリ）／政府統計の総合窓口(e-Stat)の利用規約（元データ・出典表記必要）","fetched":"2026-07-06"},"towns":[{"code":"302020010","name":"黒江","lat":34.167366,"lng":135.206417},{"code":"302020020","name":"船尾","lat":34.156052,"lng":135.195832},{"code":"30202003101","name":"日方","lat":34.161505,"lng":135.217712},{"code":"30202003102","name":"日方","lat":34.156945,"lng":135.208039},{"code":"30202003201","name":"山崎町１丁目","lat":34.158373,"lng":135.215511},{"code":"30202003202","name":"山崎町２丁目","lat":34.159084,"lng":135.214656},{"code":"30202003203","name":"山崎町３丁目","lat":34.159532,"lng":135.215576},{"code":"30202003301","name":"馬場町１丁目","lat":34.158328,"lng":135.21341},{"code":"30202003302","name":"馬場町２丁目","lat":34.158051,"lng":135.214288},{"code":"30202003303","name":"馬場町３丁目","lat":34.158862,"lng":135.213736},{"code":"302020041","name":"名高","lat":34.15323,"lng":135.215132},{"code":"302020042","name":"築地","lat":34.152423,"lng":135.208213},{"code":"302020043","name":"鳥居","lat":34.148491,"lng":135.217749},{"code":"302020044","name":"藤白","lat":34.142791,"lng":135.212183},{"code":"302020045","name":"冷水","lat":34.139542,"lng":135.19266},{"code":"302020051","name":"大野中","lat":34.148512,"lng":135.231072},{"code":"302020052","name":"幡川","lat":34.149322,"lng":135.23538},{"code":"302020053","name":"井田","lat":34.159309,"lng":135.223227},{"code":"302020054","name":"山田","lat":34.147187,"lng":135.227482},{"code":"302020061","name":"阪井","lat":34.158371,"lng":135.26341},{"code":"302020062","name":"重根","lat":34.148364,"lng":135.251281},{"code":"302020063","name":"別所","lat":34.13537,"lng":135.246571},{"code":"302020064","name":"扱沢","lat":34.124949,"lng":135.249149},{"code":"302020065","name":"東畑","lat":34.133065,"lng":135.263176},{"code":"302020071","name":"小野田","lat":34.169569,"lng":135.253492},{"code":"302020072","name":"且来","lat":34.169379,"lng":135.235117},{"code":"302020073","name":"多田","lat":34.178075,"lng":135.238453},{"code":"302020074","name":"岡田","lat":34.170477,"lng":135.218242},{"code":"302020075","name":"北赤坂","lat":34.16365,"lng":135.239005},{"code":"302020081","name":"別院","lat":34.171537,"lng":135.278023},{"code":"302020082","name":"野尻","lat":34.176228,"lng":135.286167},{"code":"302020083","name":"下津野","lat":34.174289,"lng":135.293825},{"code":"302020084","name":"原野","lat":34.181034,"lng":135.301084},{"code":"302020085","name":"七山","lat":34.190942,"lng":135.309517},{"code":"302020086","name":"孟子","lat":34.187808,"lng":135.289645},{"code":"302020087","name":"高津","lat":34.196545,"lng":135.291877},{"code":"302020091","name":"溝ノ口","lat":34.160229,"lng":135.290612},{"code":"302020092","name":"椋木","lat":34.159605,"lng":135.28321},{"code":"302020093","name":"野上中","lat":34.165733,"lng":135.28683},{"code":"302020094","name":"木津","lat":34.152938,"lng":135.278214},{"code":"302020095","name":"沖野々","lat":34.164773,"lng":135.272641},{"code":"302020101","name":"野上新","lat":34.149374,"lng":135.294099},{"code":"302020102","name":"九品寺","lat":34.153397,"lng":135.283534},{"code":"302020103","name":"次ケ谷","lat":34.145943,"lng":135.276258},{"code":"302020104","name":"ひや水","lat":34.138738,"lng":135.276478},{"code":"302020105","name":"上谷","lat":34.131966,"lng":135.285501},{"code":"302020106","name":"赤沼","lat":34.124552,"lng":135.279718},{"code":"302020107","name":"海老谷","lat":34.123964,"lng":135.27027},{"code":"302020110","name":"下津町小畑","lat":34.103416,"lng":135.170602},{"code":"302020120","name":"下津町上","lat":34.110934,"lng":135.160427},{"code":"302020130","name":"下津町小原","lat":34.10113,"lng":135.155472},{"code":"302020140","name":"下津町東","lat":34.11012,"lng":135.147962},{"code":"302020150","name":"下津町新田","lat":34.106561,"lng":135.143709},{"code":"302020160","name":"下津町西","lat":34.111476,"lng":135.127905},{"code":"302020170","name":"下津町鰈川","lat":34.099138,"lng":135.143791},{"code":"302020180","name":"下津町丸田加茂郷","lat":34.126673,"lng":135.157952},{"code":"302020190","name":"下津町丸田","lat":34.132022,"lng":135.152725},{"code":"302020200","name":"下津町丸田戸坂","lat":34.136292,"lng":135.157104},{"code":"302020210","name":"下津町黒田","lat":34.121955,"lng":135.164824},{"code":"302020220","name":"下津町丁","lat":34.117713,"lng":135.162491},{"code":"302020230","name":"下津町方北","lat":34.123665,"lng":135.140665},{"code":"302020240","name":"下津町方南","lat":34.118671,"lng":135.15007},{"code":"302020250","name":"下津町大崎女良","lat":34.130057,"lng":135.145886},{"code":"302020260","name":"下津町大崎","lat":34.133535,"lng":135.134321},{"code":"302020270","name":"下津町塩津","lat":34.134766,"lng":135.169391},{"code":"302020280","name":"下津町大窪","lat":34.110112,"lng":135.208441},{"code":"302020290","name":"下津町沓掛","lat":34.105871,"lng":135.184282},{"code":"302020300","name":"下津町市坪","lat":34.10946,"lng":135.196178},{"code":"302020310","name":"下津町橘本","lat":34.128449,"lng":135.199337},{"code":"302020320","name":"下津町小松原","lat":34.127058,"lng":135.188452},{"code":"302020330","name":"下津町青枝","lat":34.116146,"lng":135.186776},{"code":"302020340","name":"下津町中","lat":34.120823,"lng":135.180472},{"code":"302020350","name":"下津町小南","lat":34.122266,"lng":135.172569},{"code":"302020360","name":"下津町梅田","lat":34.131941,"lng":135.179385},{"code":"302020370","name":"下津町下","lat":34.130427,"lng":135.169987},{"code":"302020380","name":"下津町笠畑","lat":34.112138,"lng":135.225261},{"code":"302020390","name":"下津町興","lat":34.117497,"lng":135.226613},{"code":"302020400","name":"下津町引尾上出","lat":34.122265,"lng":135.23214},{"code":"302020410","name":"下津町引尾下出","lat":34.123123,"lng":135.222451},{"code":"302020420","name":"下津町引尾松尾","lat":34.129119,"lng":135.23044},{"code":"302020430","name":"下津町引尾土井原","lat":34.131208,"lng":135.220041},{"code":"302020440","name":"下津町百垣内","lat":34.121538,"lng":135.215307},{"code":"302020450","name":"下津町曽根田","lat":34.130091,"lng":135.2104}]}
