{"municipality":"30204","name":"有田市","prefecture":"和歌山県","source":{"dataset":"frogcat/japan-small-area","census":"平成27年国勢調査 小地域（e-Stat 統計LOD）","license":"MIT（リポジトリ）／政府統計の総合窓口(e-Stat)の利用規約（元データ・出典表記必要）","fetched":"2026-07-06"},"towns":[{"code":"302040010","name":"箕島","lat":34.086927,"lng":135.121551},{"code":"302040020","name":"港町","lat":34.088252,"lng":135.107325},{"code":"302040030","name":"宮崎町","lat":34.075759,"lng":135.114854},{"code":"302040040","name":"宮崎町","lat":34.072662,"lng":135.104352},{"code":"302040050","name":"宮崎町","lat":34.071124,"lng":135.091674},{"code":"302040060","name":"宮崎町","lat":34.07472,"lng":135.09305},{"code":"302040070","name":"宮崎町","lat":34.07812,"lng":135.101662},{"code":"302040080","name":"新堂","lat":34.087218,"lng":135.134527},{"code":"302040090","name":"野","lat":34.078052,"lng":135.136255},{"code":"302040100","name":"山地","lat":34.070731,"lng":135.130578},{"code":"302040110","name":"古江見","lat":34.075634,"lng":135.124677},{"code":"302040120","name":"千田","lat":34.065683,"lng":135.150617},{"code":"302040130","name":"千田","lat":34.065656,"lng":135.140132},{"code":"302040140","name":"千田","lat":34.063253,"lng":135.137747},{"code":"302040150","name":"辻堂","lat":34.076701,"lng":135.147245},{"code":"302040160","name":"星尾","lat":34.072926,"lng":135.159156},{"code":"302040170","name":"山田原","lat":34.088457,"lng":135.145139},{"code":"302040180","name":"下中島","lat":34.086613,"lng":135.155717},{"code":"302040190","name":"宮原町新町","lat":34.076701,"lng":135.176074},{"code":"302040200","name":"宮原町須谷","lat":34.074241,"lng":135.187259},{"code":"302040210","name":"宮原町東","lat":34.082458,"lng":135.183548},{"code":"302040220","name":"宮原町道","lat":34.088742,"lng":135.174074},{"code":"302040230","name":"宮原町畑","lat":34.093908,"lng":135.177713},{"code":"302040240","name":"宮原町滝","lat":34.084358,"lng":135.165022},{"code":"302040250","name":"宮原町滝川原","lat":34.079651,"lng":135.165428},{"code":"302040260","name":"糸我町中番","lat":34.064485,"lng":135.180759},{"code":"302040270","name":"糸我町西","lat":34.067166,"lng":135.170241},{"code":"302040280","name":"初島町浜","lat":34.102781,"lng":135.109255},{"code":"302040290","name":"初島町里","lat":34.097141,"lng":135.126956}]}
