{"municipality":"30208","name":"紀の川市","prefecture":"和歌山県","source":{"dataset":"frogcat/japan-small-area","census":"平成27年国勢調査 小地域（e-Stat 統計LOD）","license":"MIT（リポジトリ）／政府統計の総合窓口(e-Stat)の利用規約（元データ・出典表記必要）","fetched":"2026-07-06"},"towns":[{"code":"302080010","name":"大字上野","lat":34.258154,"lng":135.360716},{"code":"302080020","name":"大字打田","lat":34.259921,"lng":135.369247},{"code":"302080030","name":"大字打田","lat":34.256614,"lng":135.370718},{"code":"302080040","name":"大字窪","lat":34.252231,"lng":135.36871},{"code":"302080050","name":"大字窪","lat":34.255754,"lng":135.376158},{"code":"302080060","name":"大字窪","lat":34.243313,"lng":135.37408},{"code":"302080070","name":"大字高野","lat":34.233848,"lng":135.387374},{"code":"302080080","name":"大字竹房","lat":34.219869,"lng":135.376515},{"code":"302080090","name":"大字黒土","lat":34.261464,"lng":135.378628},{"code":"302080100","name":"大字広野","lat":34.267464,"lng":135.377157},{"code":"302080110","name":"大字赤尾","lat":34.271962,"lng":135.379247},{"code":"302080120","name":"大字東大井","lat":34.26941,"lng":135.368516},{"code":"302080130","name":"大字打田","lat":34.267499,"lng":135.369519},{"code":"302080140","name":"大字久留壁","lat":34.265783,"lng":135.365522},{"code":"302080150","name":"大字西大井","lat":34.267917,"lng":135.360483},{"code":"302080160","name":"大字田中馬場","lat":34.266581,"lng":135.355193},{"code":"302080170","name":"大字花野","lat":34.259648,"lng":135.355857},{"code":"302080180","name":"大字花野","lat":34.259147,"lng":135.357302},{"code":"302080190","name":"大字尾崎","lat":34.256722,"lng":135.351606},{"code":"302080200","name":"大字畑野上","lat":34.256763,"lng":135.347787},{"code":"302080210","name":"大字尾崎","lat":34.264786,"lng":135.349968},{"code":"302080220","name":"大字中井阪","lat":34.256189,"lng":135.34379},{"code":"302080230","name":"大字下井阪","lat":34.253763,"lng":135.340451},{"code":"302080240","name":"大字下井阪","lat":34.253866,"lng":135.33706},{"code":"302080250","name":"大字南中","lat":34.278337,"lng":135.357705},{"code":"302080260","name":"大字北大井","lat":34.274094,"lng":135.362449},{"code":"302080270","name":"大字南勢田","lat":34.276257,"lng":135.373201},{"code":"302080280","name":"大字北勢田","lat":34.292448,"lng":135.378501},{"code":"302080290","name":"大字重行","lat":34.299242,"lng":135.375565},{"code":"302080300","name":"大字池田新","lat":34.281244,"lng":135.365939},{"code":"302080310","name":"大字北中","lat":34.283272,"lng":135.361019},{"code":"302080320","name":"大字神領","lat":34.288107,"lng":135.364755},{"code":"302080330","name":"大字東山田","lat":34.300424,"lng":135.369077},{"code":"302080340","name":"大字西山田","lat":34.302231,"lng":135.353772},{"code":"302080350","name":"大字神通","lat":34.322066,"lng":135.38003},{"code":"302080360","name":"大字中畑","lat":34.318093,"lng":135.359487},{"code":"302080370","name":"大字今畑","lat":34.319556,"lng":135.340972},{"code":"302080380","name":"大字登尾","lat":34.291243,"lng":135.35703},{"code":"302080390","name":"大字枇杷谷","lat":34.293239,"lng":135.351462},{"code":"302080400","name":"大字豊田","lat":34.282625,"lng":135.354388},{"code":"302080410","name":"大字東三谷","lat":34.287378,"lng":135.347186},{"code":"302080420","name":"大字中三谷","lat":34.289737,"lng":135.341181},{"code":"302080430","name":"大字西三谷","lat":34.283459,"lng":135.337189},{"code":"302080440","name":"大字西三谷","lat":34.277676,"lng":135.335653},{"code":"302080450","name":"大字西三谷","lat":34.271162,"lng":135.339397},{"code":"302080460","name":"大字東国分","lat":34.268032,"lng":135.34155},{"code":"302080470","name":"大字東国分","lat":34.263382,"lng":135.343024},{"code":"302080480","name":"大字東国分","lat":34.267492,"lng":135.346917},{"code":"302080490","name":"大字東国分","lat":34.268657,"lng":135.345409},{"code":"302080500","name":"大字北大井","lat":34.272629,"lng":135.351602},{"code":"302080510","name":"大字赤尾","lat":34.271172,"lng":135.373215},{"code":"302080520","name":"大字古和田","lat":34.270376,"lng":135.346214},{"code":"302080530","name":"大字粉河","lat":34.280109,"lng":135.408584},{"code":"302080540","name":"大字猪垣","lat":34.28383,"lng":135.396621},{"code":"302080550","name":"大字東毛","lat":34.288667,"lng":135.40385},{"code":"302080560","name":"大字中津川","lat":34.317866,"lng":135.408897},{"code":"302080570","name":"大字中山","lat":34.277181,"lng":135.397623},{"code":"302080580","name":"大字藤井","lat":34.289899,"lng":135.397065},{"code":"302080590","name":"大字井田","lat":34.270733,"lng":135.416334},{"code":"302080600","name":"大字東野","lat":34.273136,"lng":135.420457},{"code":"302080610","name":"大字荒見","lat":34.250286,"lng":135.420035},{"code":"302080620","name":"大字遠方","lat":34.251468,"lng":135.385179},{"code":"302080630","name":"大字風市","lat":34.255813,"lng":135.393364},{"code":"302080640","name":"大字勝神","lat":34.242892,"lng":135.398953},{"code":"302080650","name":"大字杉原","lat":34.251346,"lng":135.404856},{"code":"302080660","name":"大字馬宿","lat":34.285307,"lng":135.432462},{"code":"302080670","name":"大字上丹生谷","lat":34.296135,"lng":135.421471},{"code":"302080680","name":"大字下丹生谷","lat":34.282448,"lng":135.42327},{"code":"302080690","name":"大字西川原","lat":34.31124,"lng":135.426508},{"code":"302080700","name":"大字野上","lat":34.294109,"lng":135.42888},{"code":"302080710","name":"大字東川原","lat":34.305824,"lng":135.432873},{"code":"302080720","name":"大字北志野","lat":34.298233,"lng":135.386351},{"code":"302080730","name":"大字北長田","lat":34.289375,"lng":135.389985},{"code":"302080740","name":"大字上田井","lat":34.264451,"lng":135.384191},{"code":"302080750","name":"大字嶋","lat":34.263493,"lng":135.392034},{"code":"302080760","name":"大字長田中","lat":34.276666,"lng":135.391473},{"code":"302080770","name":"大字深田","lat":34.270113,"lng":135.393177},{"code":"302080780","name":"大字別所","lat":34.270334,"lng":135.388822},{"code":"302080790","name":"大字松井","lat":34.264203,"lng":135.397755},{"code":"302080800","name":"大字南志野","lat":34.27818,"lng":135.38349},{"code":"302080810","name":"大字上鞆渕","lat":34.23448,"lng":135.47232},{"code":"302080820","name":"大字下鞆渕","lat":34.213914,"lng":135.439462},{"code":"302080830","name":"大字中鞆渕","lat":34.219072,"lng":135.45791},{"code":"30208084016","name":"大字名手上","lat":34.315325,"lng":135.462081},{"code":"30208084017","name":"大字名手上","lat":34.30978,"lng":135.457279},{"code":"30208085014","name":"大字平野","lat":34.327085,"lng":135.447057},{"code":"30208085015","name":"大字平野","lat":34.322836,"lng":135.452569},{"code":"30208085018","name":"大字平野","lat":34.303308,"lng":135.448924},{"code":"30208085024","name":"大字平野","lat":34.297235,"lng":135.452203},{"code":"30208085025","name":"大字平野","lat":34.300189,"lng":135.455713},{"code":"30208086013","name":"大字切畑","lat":34.32966,"lng":135.43849},{"code":"30208086019","name":"大字切畑","lat":34.307881,"lng":135.442369},{"code":"30208086020","name":"大字切畑","lat":34.300091,"lng":135.436847},{"code":"302080870","name":"大字名手下","lat":34.293902,"lng":135.447279},{"code":"30208088021","name":"大字江川中","lat":34.291224,"lng":135.437236},{"code":"30208088022","name":"大字江川中","lat":34.29322,"lng":135.441569},{"code":"30208088026","name":"大字江川中","lat":34.286349,"lng":135.444711},{"code":"30208089027","name":"大字西野山","lat":34.282572,"lng":135.440994},{"code":"30208089028","name":"大字西野山","lat":34.28196,"lng":135.446273},{"code":"30208090040","name":"大字名手市場","lat":34.280379,"lng":135.430616},{"code":"30208090043","name":"大字名手市場","lat":34.276962,"lng":135.431656},{"code":"30208090044","name":"大字名手市場","lat":34.276186,"lng":135.432474},{"code":"30208090045","name":"大字名手市場","lat":34.277887,"lng":135.433554},{"code":"30208091039","name":"大字名手市場","lat":34.281529,"lng":135.427944},{"code":"30208091041","name":"大字名手市場","lat":34.278098,"lng":135.429583},{"code":"30208091042","name":"大字名手市場","lat":34.276179,"lng":135.430448},{"code":"302080920","name":"大字名手市場","lat":34.274727,"lng":135.431147},{"code":"30208093002","name":"大字名手市場","lat":34.274906,"lng":135.432928},{"code":"30208093003","name":"大字名手市場","lat":34.27573,"lng":135.43425},{"code":"30208093004","name":"大字名手市場","lat":34.276229,"lng":135.436079},{"code":"30208093005","name":"大字名手市場","lat":34.273771,"lng":135.436452},{"code":"30208093006","name":"大字名手市場","lat":34.274925,"lng":135.434965},{"code":"30208093007","name":"大字名手市場","lat":34.274117,"lng":135.43395},{"code":"30208093008","name":"大字名手市場","lat":34.273555,"lng":135.43261},{"code":"30208093009","name":"大字名手市場","lat":34.273287,"lng":135.430988},{"code":"30208093030","name":"大字名手市場","lat":34.278726,"lng":135.439778},{"code":"30208093031","name":"大字名手市場","lat":34.275182,"lng":135.440218},{"code":"30208093032","name":"大字名手市場","lat":34.272686,"lng":135.439348},{"code":"30208093046","name":"大字名手市場","lat":34.278172,"lng":135.435565},{"code":"30208093047","name":"大字名手市場","lat":34.272862,"lng":135.435384},{"code":"302080940","name":"大字穴伏","lat":34.276,"lng":135.444669},{"code":"30208095035","name":"大字王子","lat":34.273198,"lng":135.425061},{"code":"30208095036","name":"大字王子","lat":34.27345,"lng":135.42827},{"code":"30208096037","name":"大字藤崎","lat":34.270014,"lng":135.426798},{"code":"30208096038","name":"大字藤崎","lat":34.266719,"lng":135.424406},{"code":"302080970","name":"大字後田","lat":34.266657,"lng":135.430564},{"code":"30208098010","name":"大字名手西野","lat":34.27134,"lng":135.431518},{"code":"30208098011","name":"大字名手西野","lat":34.271104,"lng":135.434657},{"code":"30208098033","name":"大字名手西野","lat":34.268996,"lng":135.436865},{"code":"30208099049","name":"大字北涌","lat":34.267196,"lng":135.441001},{"code":"30208099050","name":"大字北涌","lat":34.267923,"lng":135.442896},{"code":"30208099051","name":"大字北涌","lat":34.271519,"lng":135.448476},{"code":"30208100054","name":"大字麻生津中","lat":34.26601,"lng":135.446437},{"code":"30208100055","name":"大字麻生津中","lat":34.262223,"lng":135.445152},{"code":"30208100057","name":"大字麻生津中","lat":34.251788,"lng":135.448351},{"code":"30208100058","name":"大字麻生津中","lat":34.250575,"lng":135.458352},{"code":"30208100061","name":"大字麻生津中","lat":34.260547,"lng":135.460089},{"code":"30208101047","name":"大字西脇","lat":34.260099,"lng":135.43306},{"code":"30208101048","name":"大字西脇","lat":34.26097,"lng":135.43869},{"code":"30208101056","name":"大字西脇","lat":34.25014,"lng":135.438449},{"code":"30208102052","name":"大字横谷","lat":34.267247,"lng":135.459421},{"code":"30208102053","name":"大字横谷","lat":34.265856,"lng":135.452653},{"code":"30208102060","name":"大字横谷","lat":34.262162,"lng":135.45103},{"code":"30208103059","name":"大字赤沼田","lat":34.257304,"lng":135.453153},{"code":"30208103062","name":"大字赤沼田","lat":34.256117,"lng":135.460258},{"code":"302081040","name":"大字市場","lat":34.242179,"lng":135.34288},{"code":"302081050","name":"大字元","lat":34.238748,"lng":135.353436},{"code":"302081060","name":"大字段","lat":34.248397,"lng":135.345791},{"code":"302081070","name":"大字段新田","lat":34.248439,"lng":135.355868},{"code":"302081080","name":"大字段新田","lat":34.246883,"lng":135.362056},{"code":"302081090","name":"大字神田","lat":34.230244,"lng":135.353491},{"code":"302081100","name":"大字神田","lat":34.216087,"lng":135.365363},{"code":"302081110","name":"大字最上","lat":34.235177,"lng":135.343217},{"code":"302081120","name":"大字最上","lat":34.222976,"lng":135.346902},{"code":"302081130","name":"大字最上","lat":34.203451,"lng":135.358724},{"code":"302081140","name":"大字調月","lat":34.238032,"lng":135.333829},{"code":"302081150","name":"大字調月","lat":34.226037,"lng":135.333969},{"code":"302081160","name":"大字調月","lat":34.225791,"lng":135.338957},{"code":"302081170","name":"大字調月","lat":34.217885,"lng":135.336628},{"code":"302081180","name":"大字調月","lat":34.200289,"lng":135.351589},{"code":"302081190","name":"大字大原","lat":34.219061,"lng":135.383272},{"code":"302081200","name":"大字善田","lat":34.220075,"lng":135.39459},{"code":"302081210","name":"大字黒川","lat":34.220727,"lng":135.40718},{"code":"302081220","name":"大字黒川","lat":34.207569,"lng":135.406566},{"code":"302081230","name":"大字黒川","lat":34.210413,"lng":135.415897},{"code":"302081240","name":"大字黒川","lat":34.222621,"lng":135.418382},{"code":"302081250","name":"大字野田原","lat":34.194656,"lng":135.396327},{"code":"302081260","name":"大字野田原","lat":34.193351,"lng":135.376724},{"code":"302081270","name":"大字脇谷","lat":34.200334,"lng":135.371942},{"code":"302081280","name":"大字垣内","lat":34.189985,"lng":135.412722},{"code":"302081290","name":"大字中畑","lat":34.191267,"lng":135.421089},{"code":"302081300","name":"大字峯","lat":34.186781,"lng":135.443165},{"code":"302081310","name":"大字神田","lat":34.235258,"lng":135.352199},{"code":"302081320","name":"大字最上","lat":34.236671,"lng":135.341064},{"code":"302081330","name":"大字最上","lat":34.235913,"lng":135.340973},{"code":"302081340","name":"大字前田","lat":34.22396,"lng":135.320383},{"code":"302081350","name":"大字尼寺","lat":34.229737,"lng":135.307397},{"code":"302081360","name":"大字上野山","lat":34.217282,"lng":135.310858},{"code":"302081370","name":"大字神戸","lat":34.212881,"lng":135.313796},{"code":"30208138001","name":"大字国主","lat":34.207055,"lng":135.309314},{"code":"30208138002","name":"大字国主","lat":34.203519,"lng":135.306631},{"code":"30208139001","name":"大字井ノ口","lat":34.196773,"lng":135.320282},{"code":"30208139002","name":"大字井ノ口","lat":34.207742,"lng":135.319193},{"code":"302081400","name":"大字高尾","lat":34.198006,"lng":135.328186},{"code":"302081410","name":"大字岸小野","lat":34.204073,"lng":135.329588},{"code":"302081420","name":"大字北","lat":34.208327,"lng":135.334073},{"code":"30208143001","name":"大字長原","lat":34.215332,"lng":135.301917},{"code":"30208143002","name":"大字長原","lat":34.203409,"lng":135.302341},{"code":"30208144001","name":"大字長山","lat":34.206862,"lng":135.292756},{"code":"30208144002","name":"大字長山","lat":34.210186,"lng":135.285534},{"code":"302081450","name":"大字西山","lat":34.219792,"lng":135.284604},{"code":"302081460","name":"大字岸宮","lat":34.224828,"lng":135.296729},{"code":"302081470","name":"大字鳥居","lat":34.220483,"lng":135.306014},{"code":"302081480","name":"大字北山","lat":34.2319,"lng":135.316548},{"code":"30208149001","name":"大字丸栖","lat":34.234711,"lng":135.321857},{"code":"30208149002","name":"大字丸栖","lat":34.233955,"lng":135.330636},{"code":"30208149003","name":"大字丸栖","lat":34.239107,"lng":135.328675},{"code":"30208149004","name":"大字丸栖","lat":34.238709,"lng":135.322038}]}
