{"municipality":"31386","name":"西伯郡大山町","prefecture":"鳥取県","source":{"dataset":"frogcat/japan-small-area","census":"平成27年国勢調査 小地域（e-Stat 統計LOD）","license":"MIT（リポジトリ）／政府統計の総合窓口(e-Stat)の利用規約（元データ・出典表記必要）","fetched":"2026-07-06"},"towns":[{"code":"31386001001","name":"富長富長東","lat":35.499428,"lng":133.486059},{"code":"31386001002","name":"富長富長中","lat":35.497934,"lng":133.481052},{"code":"31386001003","name":"富長富長西","lat":35.499082,"lng":133.475949},{"code":"31386002001","name":"古御堂古御堂","lat":35.494513,"lng":133.477485},{"code":"31386002002","name":"古御堂文珠領","lat":35.489851,"lng":133.486601},{"code":"313860030","name":"茶畑","lat":35.483999,"lng":133.48221},{"code":"31386004001","name":"高田上福","lat":35.475804,"lng":133.478579},{"code":"31386004002","name":"高田東高田","lat":35.475376,"lng":133.493621},{"code":"31386004003","name":"高田西高田","lat":35.475855,"lng":133.483636},{"code":"31386004004","name":"高田上高田","lat":35.470582,"lng":133.488094},{"code":"31386004005","name":"高田南高田","lat":35.469268,"lng":133.492888},{"code":"31386004006","name":"高田新高田","lat":35.458506,"lng":133.512557},{"code":"31386005001","name":"押平押平１区","lat":35.476315,"lng":133.480688},{"code":"31386005002","name":"押平押平２区","lat":35.479696,"lng":133.479221},{"code":"31386005003","name":"押平押平３区","lat":35.478922,"lng":133.483321},{"code":"31386005004","name":"押平押平","lat":35.481809,"lng":133.477227},{"code":"31386005005","name":"押平中村","lat":35.487223,"lng":133.47448},{"code":"31386005006","name":"押平古原","lat":35.486847,"lng":133.484644},{"code":"31386005007","name":"押平かずき","lat":35.490897,"lng":133.480499},{"code":"31386006001","name":"大塚福田","lat":35.489399,"lng":133.468827},{"code":"31386006002","name":"大塚大雀","lat":35.495652,"lng":133.46669},{"code":"31386006003","name":"大塚千歳","lat":35.497348,"lng":133.472231},{"code":"31386006004","name":"大塚塚根","lat":35.492721,"lng":133.474243},{"code":"31386006005","name":"大塚大塚","lat":35.492316,"lng":133.471123},{"code":"31386007001","name":"名和坪田１区","lat":35.500387,"lng":133.494967},{"code":"31386007002","name":"名和坪田２区","lat":35.497801,"lng":133.503451},{"code":"31386007003","name":"名和坪田３区","lat":35.501656,"lng":133.505646},{"code":"31386007004","name":"名和新坪田","lat":35.502799,"lng":133.497509},{"code":"31386007005","name":"名和東谷","lat":35.493638,"lng":133.510561},{"code":"31386008001","name":"門前門前","lat":35.493215,"lng":133.494453},{"code":"31386008002","name":"門前下大山","lat":35.480017,"lng":133.497673},{"code":"31386008003","name":"門前営団","lat":35.479955,"lng":133.505549},{"code":"31386008004","name":"門前上大山","lat":35.466867,"lng":133.51375},{"code":"31386009001","name":"加茂梶原","lat":35.489559,"lng":133.5052},{"code":"31386009002","name":"加茂旧奈和","lat":35.485828,"lng":133.510822},{"code":"31386009003","name":"加茂栃原","lat":35.485939,"lng":133.521789},{"code":"31386009004","name":"加茂渡道","lat":35.471505,"lng":133.530498},{"code":"31386009005","name":"加茂神田","lat":35.454772,"lng":133.542065},{"code":"31386009006","name":"加茂香取弥生","lat":35.438646,"lng":133.550273},{"code":"31386009007","name":"加茂","lat":35.46374,"lng":133.526337},{"code":"31386010001","name":"御来屋御来屋１区","lat":35.51441,"lng":133.498642},{"code":"31386010002","name":"御来屋御来屋２区","lat":35.511484,"lng":133.496267},{"code":"31386010003","name":"御来屋御来屋３区","lat":35.511095,"lng":133.49439},{"code":"31386010004","name":"御来屋御来屋４区","lat":35.510351,"lng":133.493926},{"code":"31386010005","name":"御来屋御来屋５区","lat":35.509993,"lng":133.493463},{"code":"31386010006","name":"御来屋御来屋６区","lat":35.509639,"lng":133.492664},{"code":"31386010007","name":"御来屋御来屋７区","lat":35.507734,"lng":133.494842},{"code":"31386010008","name":"御来屋御来屋８区","lat":35.508756,"lng":133.4915},{"code":"31386010009","name":"御来屋御来屋９区","lat":35.508353,"lng":133.492357},{"code":"31386010010","name":"御来屋御来屋１０区","lat":35.507883,"lng":133.491025},{"code":"31386010011","name":"御来屋御来屋１１区","lat":35.505917,"lng":133.488597},{"code":"31386010012","name":"御来屋御来屋南区","lat":35.505476,"lng":133.49343},{"code":"31386010013","name":"御来屋御来屋港区","lat":35.514637,"lng":133.496368},{"code":"31386010014","name":"御来屋みどり区","lat":35.509106,"lng":133.49904},{"code":"31386010015","name":"御来屋御来屋東区","lat":35.513321,"lng":133.500316},{"code":"31386010016","name":"御来屋敬仁会","lat":35.514312,"lng":133.500766},{"code":"31386010017","name":"御来屋のぞみ区","lat":35.51305,"lng":133.497216},{"code":"31386011001","name":"豊成上前谷","lat":35.517324,"lng":133.540906},{"code":"31386011002","name":"豊成下前谷","lat":35.520057,"lng":133.536881},{"code":"31386011003","name":"豊成上木料","lat":35.51504,"lng":133.534353},{"code":"31386011004","name":"豊成下木料","lat":35.517675,"lng":133.528557},{"code":"31386011005","name":"豊成楽仙","lat":35.482943,"lng":133.545456},{"code":"31386011006","name":"豊成","lat":35.506179,"lng":133.541322},{"code":"313860120","name":"倉谷","lat":35.502339,"lng":133.534361},{"code":"31386013001","name":"小竹峯小竹","lat":35.505739,"lng":133.526729},{"code":"31386013002","name":"小竹小竹","lat":35.509537,"lng":133.522805},{"code":"31386013003","name":"小竹陣構","lat":35.47699,"lng":133.539257},{"code":"31386013005","name":"小竹","lat":35.495144,"lng":133.530299},{"code":"31386014001","name":"東坪上坪東","lat":35.509913,"lng":133.517556},{"code":"31386014002","name":"東坪上坪西","lat":35.496591,"lng":133.520886},{"code":"31386014003","name":"東坪下坪","lat":35.516471,"lng":133.516528},{"code":"31386015001","name":"西坪西坪","lat":35.505972,"lng":133.509631},{"code":"31386015002","name":"西坪駅前","lat":35.513406,"lng":133.50331},{"code":"31386015003","name":"西坪ひがりが丘","lat":35.51195,"lng":133.508857},{"code":"313860160","name":"平田","lat":35.479371,"lng":133.435567},{"code":"313860170","name":"上万","lat":35.477509,"lng":133.439703},{"code":"313860180","name":"稲光","lat":35.477665,"lng":133.446024},{"code":"313860190","name":"妻木","lat":35.47123,"lng":133.449462},{"code":"313860200","name":"荘田","lat":35.468309,"lng":133.459564},{"code":"313860210","name":"長田","lat":35.453732,"lng":133.468343},{"code":"313860220","name":"富岡","lat":35.46501,"lng":133.448607},{"code":"31386023001","name":"安原安原","lat":35.465565,"lng":133.43911},{"code":"31386023002","name":"安原あずみの郷","lat":35.472426,"lng":133.437887},{"code":"313860240","name":"保田","lat":35.47071,"lng":133.433072},{"code":"313860250","name":"福尾","lat":35.493322,"lng":133.458222},{"code":"313860260","name":"上野","lat":35.489197,"lng":133.459218},{"code":"31386027001","name":"所子所子","lat":35.481544,"lng":133.46825},{"code":"31386027002","name":"所子栄","lat":35.480399,"lng":133.462972},{"code":"313860280","name":"平木","lat":35.47583,"lng":133.473148},{"code":"313860290","name":"神原","lat":35.470272,"lng":133.479122},{"code":"31386030001","name":"中高上中高","lat":35.46732,"lng":133.473866},{"code":"31386030002","name":"中高中高一区","lat":35.472227,"lng":133.472945},{"code":"31386030003","name":"中高中高二区","lat":35.471716,"lng":133.470794},{"code":"31386030004","name":"中高中高三区","lat":35.470267,"lng":133.472129},{"code":"31386030005","name":"中高中高西区","lat":35.474176,"lng":133.468741},{"code":"313860310","name":"野田","lat":35.468667,"lng":133.466462},{"code":"313860320","name":"清原","lat":35.473751,"lng":133.461988},{"code":"313860330","name":"唐王","lat":35.477455,"lng":133.455421},{"code":"313860340","name":"末長","lat":35.481889,"lng":133.452304},{"code":"31386035001","name":"国信国信","lat":35.488743,"lng":133.449891},{"code":"31386035002","name":"国信大山口","lat":35.483273,"lng":133.458795},{"code":"313860360","name":"末吉","lat":35.483849,"lng":133.445138},{"code":"313860370","name":"大山","lat":35.384121,"lng":133.539447},{"code":"31386038001","name":"鈑戸鈑戸","lat":35.427868,"lng":133.499788},{"code":"31386038002","name":"鈑戸種原","lat":35.420919,"lng":133.517196},{"code":"31386039001","name":"今在家今在家","lat":35.435013,"lng":133.495358},{"code":"31386039002","name":"今在家今在家住宅","lat":35.439981,"lng":133.503594},{"code":"313860400","name":"佐摩","lat":35.440919,"lng":133.491314},{"code":"313860410","name":"宮内","lat":35.449369,"lng":133.486808},{"code":"313860420","name":"平","lat":35.458976,"lng":133.481707},{"code":"313860430","name":"坊領","lat":35.457926,"lng":133.493764},{"code":"31386044001","name":"豊房蔵岡","lat":35.451704,"lng":133.50617},{"code":"31386044002","name":"豊房原","lat":35.447738,"lng":133.515984},{"code":"31386044003","name":"豊房別所","lat":35.438802,"lng":133.53039},{"code":"31386044004","name":"豊房畑","lat":35.433734,"lng":133.521891},{"code":"31386044005","name":"豊房香取下","lat":35.428121,"lng":133.547162},{"code":"31386044006","name":"豊房香取上","lat":35.41288,"lng":133.548447},{"code":"313860450","name":"前","lat":35.436967,"lng":133.512233},{"code":"31386046001","name":"赤松赤松","lat":35.41655,"lng":133.478378},{"code":"31386046002","name":"赤松明間","lat":35.406972,"lng":133.499242},{"code":"31386046003","name":"赤松あけまの森","lat":35.419411,"lng":133.499195},{"code":"31386046004","name":"赤松中槇原","lat":35.401584,"lng":133.482604},{"code":"31386046005","name":"赤松下槇原","lat":35.400103,"lng":133.457912},{"code":"31386046006","name":"赤松一の谷","lat":35.412355,"lng":133.456117},{"code":"31386046007","name":"赤松大谷","lat":35.405414,"lng":133.45691},{"code":"31386047001","name":"羽田井羽田井","lat":35.475928,"lng":133.592412},{"code":"31386047002","name":"羽田井報国","lat":35.484915,"lng":133.580658},{"code":"31386047003","name":"羽田井萩原","lat":35.451916,"lng":133.579452},{"code":"313860480","name":"束積","lat":35.496114,"lng":133.592165},{"code":"313860490","name":"八重","lat":35.502041,"lng":133.598299},{"code":"313860500","name":"樋口","lat":35.506143,"lng":133.588148},{"code":"313860510","name":"石井垣","lat":35.512545,"lng":133.586419},{"code":"313860520","name":"退休寺","lat":35.487842,"lng":133.573707},{"code":"313860530","name":"潮音寺","lat":35.51659,"lng":133.585237},{"code":"313860540","name":"栄田","lat":35.515038,"lng":133.595424},{"code":"31386055001","name":"田中田中","lat":35.518382,"lng":133.596524},{"code":"31386055002","name":"田中金屋","lat":35.520856,"lng":133.602253},{"code":"31386055003","name":"田中植松","lat":35.52787,"lng":133.586441},{"code":"31386055004","name":"田中下田中１区","lat":35.522166,"lng":133.59074},{"code":"31386055005","name":"田中中林","lat":35.520355,"lng":133.595604},{"code":"31386055006","name":"田中中山口","lat":35.520316,"lng":133.589069},{"code":"31386055007","name":"田中阿弥陀山","lat":35.523699,"lng":133.597907},{"code":"31386055008","name":"田中下田中２区","lat":35.523605,"lng":133.590777},{"code":"31386055009","name":"田中山陸団地","lat":35.522241,"lng":133.593903},{"code":"31386055010","name":"田中浜ノ上団地","lat":35.524749,"lng":133.595555},{"code":"31386056001","name":"御崎北御崎","lat":35.528755,"lng":133.590801},{"code":"31386056002","name":"御崎南御崎","lat":35.525887,"lng":133.590562},{"code":"31386057001","name":"赤坂赤坂","lat":35.522016,"lng":133.58278},{"code":"31386057002","name":"赤坂ナスパルタウン","lat":35.512361,"lng":133.579135},{"code":"31386058001","name":"下甲下甲","lat":35.527342,"lng":133.58034},{"code":"31386058002","name":"下甲曲松","lat":35.523158,"lng":133.575449},{"code":"31386058003","name":"下甲春日","lat":35.505292,"lng":133.576624},{"code":"31386058004","name":"下甲因ノ庄","lat":35.515087,"lng":133.574386},{"code":"31386059001","name":"高橋高橋","lat":35.489068,"lng":133.568124},{"code":"31386059002","name":"高橋香取","lat":35.421142,"lng":133.568559},{"code":"313860600","name":"殿河内","lat":35.505021,"lng":133.565126},{"code":"313860610","name":"上市","lat":35.518369,"lng":133.561954},{"code":"31386062001","name":"住吉住吉","lat":35.51814,"lng":133.569495},{"code":"31386062002","name":"住吉さざんか台団地","lat":35.516067,"lng":133.571113},{"code":"31386062003","name":"住吉西住吉","lat":35.516973,"lng":133.565037},{"code":"31386062004","name":"住吉中池谷","lat":35.50909,"lng":133.569188},{"code":"31386063001","name":"塩津塩津","lat":35.526804,"lng":133.571555},{"code":"31386063002","name":"塩津中尾","lat":35.524727,"lng":133.566011},{"code":"31386063003","name":"塩津下市駅前","lat":35.51985,"lng":133.567863},{"code":"313860640","name":"岡","lat":35.523073,"lng":133.558551},{"code":"31386065001","name":"下市下市","lat":35.512727,"lng":133.553646},{"code":"31386065002","name":"下市林ノ峰","lat":35.496253,"lng":133.55826},{"code":"31386065003","name":"下市二本松","lat":35.464376,"lng":133.554948},{"code":"31386066001","name":"松河原松河原","lat":35.519746,"lng":133.551154},{"code":"31386066003","name":"松河原庄田","lat":35.497688,"lng":133.549661},{"code":"31386066004","name":"松河原大中尾","lat":35.483962,"lng":133.550556},{"code":"313860670","name":"長野","lat":35.518338,"lng":133.545582}]}
