{"municipality":"32209","name":"雲南市","prefecture":"島根県","source":{"dataset":"frogcat/japan-small-area","census":"平成27年国勢調査 小地域（e-Stat 統計LOD）","license":"MIT（リポジトリ）／政府統計の総合窓口(e-Stat)の利用規約（元データ・出典表記必要）","fetched":"2026-07-06"},"towns":[{"code":"322090010","name":"木次町木次","lat":35.288514,"lng":132.908323},{"code":"322090020","name":"木次町新市","lat":35.285013,"lng":132.901699},{"code":"322090030","name":"木次町里方","lat":35.306735,"lng":132.904149},{"code":"322090040","name":"木次町山方","lat":35.308162,"lng":132.916057},{"code":"322090050","name":"木次町下熊谷","lat":35.28748,"lng":132.891566},{"code":"322090060","name":"木次町西日登","lat":35.257156,"lng":132.910616},{"code":"322090070","name":"木次町東日登","lat":35.264435,"lng":132.928392},{"code":"322090080","name":"木次町寺領","lat":35.271114,"lng":132.944246},{"code":"322090090","name":"木次町宇谷","lat":35.282435,"lng":132.945625},{"code":"322090100","name":"木次町上熊谷","lat":35.270182,"lng":132.894801},{"code":"322090110","name":"木次町湯村","lat":35.228641,"lng":132.922034},{"code":"322090120","name":"木次町北原","lat":35.236277,"lng":132.952581},{"code":"322090130","name":"木次町平田","lat":35.217012,"lng":132.939979},{"code":"322090140","name":"大東町大東","lat":35.330855,"lng":132.969473},{"code":"322090150","name":"大東町田中","lat":35.337359,"lng":132.983156},{"code":"322090160","name":"大東町新庄","lat":35.334602,"lng":132.991394},{"code":"322090170","name":"大東町清田","lat":35.312394,"lng":132.995286},{"code":"322090180","name":"大東町金成","lat":35.31039,"lng":132.981575},{"code":"322090190","name":"大東町飯田","lat":35.320395,"lng":132.957452},{"code":"322090200","name":"大東町養賀","lat":35.328926,"lng":132.944997},{"code":"322090210","name":"大東町大東下分","lat":35.33609,"lng":132.954895},{"code":"322090220","name":"大東町山田","lat":35.348377,"lng":132.973548},{"code":"322090230","name":"大東町畑鵯","lat":35.362201,"lng":132.986654},{"code":"322090240","name":"大東町遠所","lat":35.358095,"lng":132.96128},{"code":"322090250","name":"大東町幡屋","lat":35.363852,"lng":132.946003},{"code":"322090260","name":"大東町仁和寺","lat":35.342889,"lng":132.936141},{"code":"322090270","name":"大東町前原","lat":35.33331,"lng":132.932393},{"code":"322090280","name":"大東町西阿用","lat":35.279737,"lng":132.963864},{"code":"322090290","name":"大東町大ケ谷","lat":35.302857,"lng":132.954209},{"code":"322090300","name":"大東町下佐世","lat":35.31816,"lng":132.941471},{"code":"322090310","name":"大東町上佐世","lat":35.307353,"lng":132.934189},{"code":"322090320","name":"大東町川井","lat":35.287756,"lng":132.986671},{"code":"322090330","name":"大東町東阿用","lat":35.29945,"lng":132.974198},{"code":"322090340","name":"大東町岡村","lat":35.30232,"lng":132.963535},{"code":"322090350","name":"大東町下阿用","lat":35.312698,"lng":132.970227},{"code":"322090360","name":"大東町下久野","lat":35.259951,"lng":132.999932},{"code":"322090370","name":"大東町上久野","lat":35.263421,"lng":133.048154},{"code":"322090380","name":"大東町山王寺","lat":35.359632,"lng":133.0104},{"code":"322090390","name":"大東町薦沢","lat":35.369618,"lng":133.02771},{"code":"322090400","name":"大東町須賀","lat":35.356909,"lng":133.035377},{"code":"322090410","name":"大東町北村","lat":35.343749,"lng":133.018429},{"code":"322090420","name":"大東町中湯石","lat":35.325656,"lng":133.009014},{"code":"322090430","name":"大東町南村","lat":35.3359,"lng":133.028405},{"code":"322090440","name":"大東町小河内","lat":35.334343,"lng":133.046538},{"code":"322090450","name":"大東町刈畑","lat":35.31606,"lng":133.044664},{"code":"322090460","name":"大東町塩田","lat":35.292154,"lng":133.04153},{"code":"322090470","name":"大東町篠渕","lat":35.290589,"lng":133.011708},{"code":"322090480","name":"加茂町加茂中","lat":35.347466,"lng":132.911561},{"code":"322090490","name":"加茂町立原","lat":35.328077,"lng":132.928854},{"code":"322090500","name":"加茂町近松","lat":35.326566,"lng":132.920424},{"code":"322090510","name":"加茂町大西","lat":35.336258,"lng":132.917746},{"code":"322090520","name":"加茂町南加茂","lat":35.329504,"lng":132.908875},{"code":"322090530","name":"加茂町宇治","lat":35.343085,"lng":132.901195},{"code":"322090540","name":"加茂町神原","lat":35.341062,"lng":132.883373},{"code":"322090550","name":"加茂町三代","lat":35.329417,"lng":132.889321},{"code":"322090560","name":"加茂町大竹","lat":35.35354,"lng":132.875282},{"code":"322090570","name":"加茂町延野","lat":35.351373,"lng":132.887044},{"code":"322090580","name":"加茂町大崎","lat":35.356441,"lng":132.894017},{"code":"322090590","name":"加茂町猪尾","lat":35.361353,"lng":132.900445},{"code":"322090600","name":"加茂町岩倉","lat":35.366744,"lng":132.889639},{"code":"322090610","name":"加茂町東谷","lat":35.36556,"lng":132.910742},{"code":"322090620","name":"加茂町砂子原","lat":35.360457,"lng":132.926574},{"code":"322090630","name":"加茂町新宮","lat":35.355802,"lng":132.912688},{"code":"322090640","name":"三刀屋町三刀屋","lat":35.285939,"lng":132.878144},{"code":"322090650","name":"三刀屋町下熊谷","lat":35.303923,"lng":132.894303},{"code":"322090660","name":"三刀屋町給下","lat":35.305695,"lng":132.882192},{"code":"322090670","name":"三刀屋町伊萱","lat":35.318838,"lng":132.877782},{"code":"322090680","name":"三刀屋町高窪","lat":35.311953,"lng":132.851831},{"code":"322090690","name":"三刀屋町古城","lat":35.294881,"lng":132.859924},{"code":"322090700","name":"三刀屋町上熊谷","lat":35.252039,"lng":132.889685},{"code":"322090710","name":"三刀屋町多久和","lat":35.256943,"lng":132.872039},{"code":"322090720","name":"三刀屋町粟谷","lat":35.267326,"lng":132.860916},{"code":"322090730","name":"三刀屋町乙加宮","lat":35.266354,"lng":132.828236},{"code":"322090740","name":"三刀屋町根波別所","lat":35.273588,"lng":132.803755},{"code":"322090750","name":"三刀屋町里坊","lat":35.292103,"lng":132.8283},{"code":"322090760","name":"三刀屋町殿河内","lat":35.275991,"lng":132.850184},{"code":"322090770","name":"三刀屋町神代","lat":35.228171,"lng":132.886691},{"code":"322090780","name":"三刀屋町六重","lat":35.218155,"lng":132.876261},{"code":"322090790","name":"三刀屋町中野","lat":35.229583,"lng":132.855996},{"code":"322090800","name":"三刀屋町須所","lat":35.228157,"lng":132.840272},{"code":"322090810","name":"三刀屋町坂本","lat":35.244812,"lng":132.837283},{"code":"322090820","name":"吉田町民谷","lat":35.124382,"lng":132.829371},{"code":"322090830","name":"吉田町曽木","lat":35.166786,"lng":132.908748},{"code":"322090840","name":"吉田町上山","lat":35.183723,"lng":132.933372},{"code":"322090850","name":"吉田町深野","lat":35.200183,"lng":132.901827},{"code":"322090860","name":"吉田町川手","lat":35.218017,"lng":132.913619},{"code":"322090870","name":"吉田町吉田","lat":35.153706,"lng":132.861677},{"code":"322090880","name":"掛合町掛合","lat":35.194587,"lng":132.818136},{"code":"322090890","name":"掛合町多根","lat":35.239434,"lng":132.806066},{"code":"322090900","name":"掛合町松笠","lat":35.205589,"lng":132.784468},{"code":"322090910","name":"掛合町波多","lat":35.142186,"lng":132.737824},{"code":"322090920","name":"掛合町穴見","lat":35.175399,"lng":132.760528},{"code":"322090930","name":"掛合町入間","lat":35.14942,"lng":132.78862}]}
