{"municipality":"33346","name":"和気郡和気町","prefecture":"岡山県","source":{"dataset":"frogcat/japan-small-area","census":"平成27年国勢調査 小地域（e-Stat 統計LOD）","license":"MIT（リポジトリ）／政府統計の総合窓口(e-Stat)の利用規約（元データ・出典表記必要）","fetched":"2026-07-06"},"towns":[{"code":"333460010","name":"尺所","lat":34.801768,"lng":134.159337},{"code":"333460020","name":"衣笠","lat":34.79505,"lng":134.173502},{"code":"333460030","name":"福富","lat":34.79038,"lng":134.14951},{"code":"333460040","name":"日室","lat":34.801201,"lng":134.168616},{"code":"333460050","name":"大中山","lat":34.778127,"lng":134.174528},{"code":"333460060","name":"清水","lat":34.766717,"lng":134.17412},{"code":"333460070","name":"吉田","lat":34.828812,"lng":134.195954},{"code":"333460080","name":"藤野","lat":34.816217,"lng":134.175329},{"code":"333460090","name":"泉","lat":34.814518,"lng":134.162072},{"code":"333460100","name":"大田原","lat":34.806923,"lng":134.152828},{"code":"333460110","name":"和気","lat":34.802329,"lng":134.145443},{"code":"333460120","name":"益原","lat":34.823739,"lng":134.14378},{"code":"333460130","name":"保曽","lat":34.879158,"lng":134.169949},{"code":"333460140","name":"日笠上","lat":34.85218,"lng":134.176122},{"code":"333460150","name":"日笠下","lat":34.831627,"lng":134.159287},{"code":"333460160","name":"木倉","lat":34.844728,"lng":134.148503},{"code":"333460170","name":"田原上","lat":34.824541,"lng":134.120308},{"code":"333460180","name":"田原下","lat":34.810879,"lng":134.127472},{"code":"333460190","name":"原","lat":34.797697,"lng":134.134718},{"code":"333460200","name":"本","lat":34.802275,"lng":134.119917},{"code":"333460210","name":"津瀬","lat":34.866054,"lng":134.093922},{"code":"33346022001","name":"米沢字木道上，下","lat":34.85481,"lng":134.089129},{"code":"33346022002","name":"米沢字新町，宮ノ下，頭","lat":34.853115,"lng":134.093829},{"code":"33346023001","name":"佐伯字堅町上，堅町","lat":34.850338,"lng":134.091759},{"code":"33346023002","name":"佐伯字横町の一部，片山","lat":34.847823,"lng":134.090997},{"code":"33346023003","name":"佐伯字横町","lat":34.847321,"lng":134.089551},{"code":"33346023004","name":"佐伯","lat":34.844941,"lng":134.092844},{"code":"33346024001","name":"父井原字父井下，林谷","lat":34.841527,"lng":134.091208},{"code":"33346024002","name":"父井原字原，小原","lat":34.843926,"lng":134.1047},{"code":"33346024003","name":"父井原界の山林","lat":34.828855,"lng":134.107339},{"code":"33346024004","name":"父井原字大成上，下","lat":34.816444,"lng":134.094769},{"code":"33346024005","name":"父井原字父井上，倉山，奥新田","lat":34.831688,"lng":134.09059},{"code":"333460250","name":"矢田部","lat":34.852936,"lng":134.07778},{"code":"33346026001","name":"宇生字土生西，東","lat":34.849311,"lng":134.065512},{"code":"33346026002","name":"宇生字宇屋下，上，向，中","lat":34.849417,"lng":134.07159},{"code":"33346027001","name":"田賀字加賀知田","lat":34.851499,"lng":134.050194},{"code":"33346027002","name":"田賀字田尻下，上，西","lat":34.844755,"lng":134.061128},{"code":"33346028001","name":"小坂字東谷，田中","lat":34.831509,"lng":134.063578},{"code":"33346028002","name":"小坂字奥谷上，下，西谷","lat":34.839306,"lng":134.051424},{"code":"33346028003","name":"小坂字大杉","lat":34.833298,"lng":134.043873},{"code":"33346028004","name":"小坂字花屋","lat":34.841051,"lng":134.040975},{"code":"33346029001","name":"加三方字三宅中，東，加部","lat":34.835298,"lng":134.081427},{"code":"33346029002","name":"加三方字大方上，中，下，三宅西","lat":34.833201,"lng":134.073719},{"code":"33346030001","name":"矢田字井ノ口，上ノ庄","lat":34.86434,"lng":134.113537},{"code":"33346030002","name":"矢田字堀，山根中庄司，駅前","lat":34.852578,"lng":134.102702},{"code":"33346030003","name":"矢田字大下中，東，西，竜ケ鼻","lat":34.84782,"lng":134.100778},{"code":"33346031001","name":"岩戸字河本","lat":34.850205,"lng":134.112471},{"code":"33346031002","name":"岩戸字天瀬下，天瀬上","lat":34.842072,"lng":134.128293},{"code":"33346032001","name":"田土字杉平下，杉平中，杉平上","lat":34.865791,"lng":134.136285},{"code":"33346032002","name":"田土字大畑上，大畑下","lat":34.855938,"lng":134.140702},{"code":"33346032003","name":"田土字畑ケ市，丸山，上ケ市","lat":34.856025,"lng":134.125763},{"code":"33346033001","name":"丸山字大岩","lat":34.883437,"lng":134.14725},{"code":"33346033002","name":"丸山字片倉","lat":34.874367,"lng":134.141904},{"code":"333460340","name":"南山方","lat":34.875998,"lng":134.124206},{"code":"33346035001","name":"塩田字駅前，市場，塩田西","lat":34.900624,"lng":134.091361},{"code":"33346035002","name":"塩田字塩田東","lat":34.901134,"lng":134.100059},{"code":"33346036001","name":"奥塩田字下ノ迫","lat":34.90876,"lng":134.105574},{"code":"33346036002","name":"奥塩田字六郎谷，大方，日浦","lat":34.90585,"lng":134.119332},{"code":"33346037001","name":"北山方字中原成仏，新田，常瀬","lat":34.890275,"lng":134.113432},{"code":"33346037002","name":"北山方字本谷上，本谷下，旭東","lat":34.883312,"lng":134.125754},{"code":"333460380","name":"苦木","lat":34.884929,"lng":134.101426}]}
