{"municipality":"34103","name":"広島市南区","prefecture":"広島県","source":{"dataset":"frogcat/japan-small-area","census":"平成27年国勢調査 小地域（e-Stat 統計LOD）","license":"MIT（リポジトリ）／政府統計の総合窓口(e-Stat)の利用規約（元データ・出典表記必要）","fetched":"2026-07-06"},"towns":[{"code":"341030140","name":"仁保町","lat":34.313912,"lng":132.458018},{"code":"341030170","name":"松原町","lat":34.397188,"lng":132.475146},{"code":"341030180","name":"大須賀町","lat":34.40063,"lng":132.469984},{"code":"341030190","name":"猿猴橋町","lat":34.394832,"lng":132.476405},{"code":"341030200","name":"荒神町","lat":34.394704,"lng":132.477785},{"code":"341030220","name":"京橋町","lat":34.395179,"lng":132.471717},{"code":"34103023001","name":"的場町１丁目","lat":34.393615,"lng":132.47401},{"code":"34103023002","name":"的場町２丁目","lat":34.391762,"lng":132.47494},{"code":"341030240","name":"松川町","lat":34.390186,"lng":132.471911},{"code":"341030250","name":"金屋町","lat":34.391474,"lng":132.472882},{"code":"341030260","name":"比治山町","lat":34.388312,"lng":132.471836},{"code":"341030270","name":"比治山公園","lat":34.384073,"lng":132.473306},{"code":"341030280","name":"稲荷町","lat":34.392195,"lng":132.470624},{"code":"341030410","name":"比治山本町","lat":34.382462,"lng":132.470075},{"code":"34103116001","name":"青崎１丁目","lat":34.372763,"lng":132.506215},{"code":"34103116002","name":"青崎２丁目","lat":34.371723,"lng":132.508468},{"code":"341031170","name":"東青崎町","lat":34.374197,"lng":132.509453},{"code":"34103118001","name":"堀越１丁目","lat":34.373814,"lng":132.51155},{"code":"34103118002","name":"堀越２丁目","lat":34.373561,"lng":132.514315},{"code":"34103118003","name":"堀越３丁目","lat":34.370123,"lng":132.513019},{"code":"341031190","name":"向洋本町","lat":34.368982,"lng":132.507172},{"code":"341031200","name":"向洋中町","lat":34.36743,"lng":132.507674},{"code":"341031210","name":"向洋大原町","lat":34.363968,"lng":132.50401},{"code":"341031220","name":"月見町","lat":34.363288,"lng":132.513393},{"code":"341031230","name":"小磯町","lat":34.370887,"lng":132.503052},{"code":"341031240","name":"西荒神町","lat":34.393571,"lng":132.477009},{"code":"341031250","name":"東荒神町","lat":34.394287,"lng":132.47929},{"code":"34103126001","name":"西蟹屋１丁目","lat":34.392641,"lng":132.477493},{"code":"34103126002","name":"西蟹屋２丁目","lat":34.393537,"lng":132.480125},{"code":"34103126003","name":"西蟹屋３丁目","lat":34.392488,"lng":132.48178},{"code":"34103126004","name":"西蟹屋４丁目","lat":34.390988,"lng":132.479825},{"code":"34103127001","name":"南蟹屋１丁目","lat":34.389301,"lng":132.484183},{"code":"34103127002","name":"南蟹屋２丁目","lat":34.391239,"lng":132.485729},{"code":"34103128001","name":"大州１丁目","lat":34.387552,"lng":132.489226},{"code":"34103128002","name":"大州２丁目","lat":34.390004,"lng":132.489323},{"code":"34103128003","name":"大州３丁目","lat":34.389253,"lng":132.492615},{"code":"34103128004","name":"大州４丁目","lat":34.38805,"lng":132.496847},{"code":"34103128005","name":"大州５丁目","lat":34.383686,"lng":132.49698},{"code":"341031390","name":"東駅町","lat":34.392535,"lng":132.489545},{"code":"341031990","name":"向洋沖町","lat":34.357902,"lng":132.50468},{"code":"34103200001","name":"向洋新町１丁目","lat":34.366643,"lng":132.512157},{"code":"34103200002","name":"向洋新町２丁目","lat":34.3641,"lng":132.510151},{"code":"34103200003","name":"向洋新町３丁目","lat":34.361758,"lng":132.506147},{"code":"34103200004","name":"向洋新町４丁目","lat":34.361361,"lng":132.50233},{"code":"341032100","name":"仁保沖町","lat":34.357938,"lng":132.488131},{"code":"341032110","name":"宇品町","lat":34.339536,"lng":132.482056},{"code":"341032120","name":"元宇品町","lat":34.345993,"lng":132.46134},{"code":"341032140","name":"似島町","lat":34.310331,"lng":132.435453},{"code":"34103216001","name":"皆実町１丁目","lat":34.378901,"lng":132.468248},{"code":"34103216002","name":"皆実町２丁目","lat":34.376221,"lng":132.463579},{"code":"34103216003","name":"皆実町３丁目","lat":34.376122,"lng":132.466668},{"code":"34103216004","name":"皆実町４丁目","lat":34.375816,"lng":132.470391},{"code":"34103216005","name":"皆実町５丁目","lat":34.374107,"lng":132.466784},{"code":"34103216006","name":"皆実町６丁目","lat":34.372774,"lng":132.463308},{"code":"341032170","name":"上東雲町","lat":34.38554,"lng":132.486631},{"code":"34103218001","name":"東雲本町１丁目","lat":34.381872,"lng":132.484351},{"code":"34103218002","name":"東雲本町２丁目","lat":34.381612,"lng":132.487094},{"code":"34103218003","name":"東雲本町３丁目","lat":34.378703,"lng":132.487055},{"code":"34103219001","name":"東雲１丁目","lat":34.383819,"lng":132.490822},{"code":"34103219002","name":"東雲２丁目","lat":34.381444,"lng":132.492535},{"code":"34103219003","name":"東雲３丁目","lat":34.37807,"lng":132.496616},{"code":"34103220001","name":"仁保新町１丁目","lat":34.377348,"lng":132.492049},{"code":"34103220002","name":"仁保新町２丁目","lat":34.37537,"lng":132.495213},{"code":"341032210","name":"黄金山町","lat":34.367317,"lng":132.489665},{"code":"34103222001","name":"仁保１丁目","lat":34.371629,"lng":132.493619},{"code":"34103222002","name":"仁保２丁目","lat":34.371599,"lng":132.498391},{"code":"34103222003","name":"仁保３丁目","lat":34.368075,"lng":132.496512},{"code":"34103222004","name":"仁保４丁目","lat":34.363995,"lng":132.498317},{"code":"341032230","name":"東本浦町","lat":34.37583,"lng":132.490002},{"code":"341032240","name":"西本浦町","lat":34.375661,"lng":132.485458},{"code":"341032250","name":"本浦町","lat":34.373001,"lng":132.4878},{"code":"341032260","name":"山城町","lat":34.368594,"lng":132.477041},{"code":"341032270","name":"北大河町","lat":34.372267,"lng":132.481446},{"code":"341032280","name":"南大河町","lat":34.369907,"lng":132.482516},{"code":"341032290","name":"丹那町","lat":34.365772,"lng":132.480839},{"code":"341032300","name":"丹那新町","lat":34.367435,"lng":132.485918},{"code":"341032310","name":"日宇那町","lat":34.362885,"lng":132.492512},{"code":"341032320","name":"楠那町","lat":34.363293,"lng":132.48654},{"code":"341032330","name":"東霞町","lat":34.377463,"lng":132.48428},{"code":"341032340","name":"西霞町","lat":34.376382,"lng":132.48148},{"code":"34103235001","name":"宇品西１丁目","lat":34.369261,"lng":132.461022},{"code":"34103235002","name":"宇品西２丁目","lat":34.365322,"lng":132.45937},{"code":"34103235003","name":"宇品西３丁目","lat":34.361515,"lng":132.459845},{"code":"34103235004","name":"宇品西４丁目","lat":34.357506,"lng":132.459462},{"code":"34103235005","name":"宇品西５丁目","lat":34.361432,"lng":132.457995},{"code":"34103235006","name":"宇品西６丁目","lat":34.357536,"lng":132.457314},{"code":"34103236001","name":"宇品御幸１丁目","lat":34.369272,"lng":132.462948},{"code":"34103236002","name":"宇品御幸２丁目","lat":34.365573,"lng":132.462747},{"code":"34103236003","name":"宇品御幸３丁目","lat":34.362647,"lng":132.462691},{"code":"34103236004","name":"宇品御幸４丁目","lat":34.359768,"lng":132.462276},{"code":"34103236005","name":"宇品御幸５丁目","lat":34.357299,"lng":132.461942},{"code":"34103237001","name":"宇品神田１丁目","lat":34.3672,"lng":132.46596},{"code":"34103237002","name":"宇品神田２丁目","lat":34.365094,"lng":132.46598},{"code":"34103237003","name":"宇品神田３丁目","lat":34.363084,"lng":132.4658},{"code":"34103237004","name":"宇品神田４丁目","lat":34.361278,"lng":132.465644},{"code":"34103237005","name":"宇品神田５丁目","lat":34.358567,"lng":132.465245},{"code":"34103238001","name":"宇品東１丁目","lat":34.365652,"lng":132.468871},{"code":"34103238002","name":"宇品東２丁目","lat":34.365541,"lng":132.471249},{"code":"34103238003","name":"宇品東３丁目","lat":34.365334,"lng":132.473639},{"code":"34103238004","name":"宇品東４丁目","lat":34.361254,"lng":132.476681},{"code":"34103238005","name":"宇品東５丁目","lat":34.359982,"lng":132.472148},{"code":"34103238006","name":"宇品東６丁目","lat":34.362122,"lng":132.468515},{"code":"34103238007","name":"宇品東７丁目","lat":34.358714,"lng":132.468185},{"code":"34103239001","name":"宇品海岸１丁目","lat":34.353793,"lng":132.456615},{"code":"34103239002","name":"宇品海岸２丁目","lat":34.354522,"lng":132.461699},{"code":"34103239003","name":"宇品海岸３丁目","lat":34.355172,"lng":132.469712},{"code":"34103240001","name":"出島１丁目","lat":34.358217,"lng":132.453534},{"code":"34103240002","name":"出島２丁目","lat":34.353143,"lng":132.447258},{"code":"34103240003","name":"出島３丁目","lat":34.348444,"lng":132.440814},{"code":"34103240004","name":"出島４丁目","lat":34.349258,"lng":132.445726},{"code":"34103241001","name":"霞１丁目","lat":34.380891,"lng":132.480252},{"code":"34103241002","name":"霞２丁目","lat":34.378745,"lng":132.48149},{"code":"34103242001","name":"出汐１丁目","lat":34.379469,"lng":132.475932},{"code":"34103242002","name":"出汐２丁目","lat":34.375963,"lng":132.474271},{"code":"34103242003","name":"出汐３丁目","lat":34.377052,"lng":132.477538},{"code":"34103242004","name":"出汐４丁目","lat":34.37797,"lng":132.477987},{"code":"34103243001","name":"旭１丁目","lat":34.374678,"lng":132.478847},{"code":"34103243002","name":"旭２丁目","lat":34.373161,"lng":132.476838},{"code":"34103243003","name":"旭３丁目","lat":34.369387,"lng":132.475632},{"code":"341032440","name":"西旭町","lat":34.371829,"lng":132.474169},{"code":"34103245001","name":"翠１丁目","lat":34.371154,"lng":132.466407},{"code":"34103245002","name":"翠２丁目","lat":34.372257,"lng":132.469603},{"code":"34103245003","name":"翠３丁目","lat":34.371532,"lng":132.472013},{"code":"34103245004","name":"翠４丁目","lat":34.368439,"lng":132.472563},{"code":"34103245005","name":"翠５丁目","lat":34.368785,"lng":132.468411},{"code":"341032460","name":"西翠町","lat":34.370011,"lng":132.46439},{"code":"34103247001","name":"段原南１丁目","lat":34.38357,"lng":132.476053},{"code":"34103247002","name":"段原南２丁目","lat":34.3848,"lng":132.478098},{"code":"34103248001","name":"段原１丁目","lat":34.390365,"lng":132.475624},{"code":"34103248002","name":"段原２丁目","lat":34.388066,"lng":132.475871},{"code":"34103248003","name":"段原３丁目","lat":34.388221,"lng":132.478103},{"code":"34103248004","name":"段原４丁目","lat":34.388941,"lng":132.479712},{"code":"34103249001","name":"段原日出１丁目","lat":34.387424,"lng":132.481991},{"code":"34103249002","name":"段原日出２丁目","lat":34.386667,"lng":132.483665},{"code":"34103250001","name":"段原山崎１丁目","lat":34.384062,"lng":132.479252},{"code":"34103250002","name":"段原山崎２丁目","lat":34.384686,"lng":132.480891},{"code":"34103250003","name":"段原山崎３丁目","lat":34.384724,"lng":132.482799},{"code":"34103260001","name":"仁保南１丁目","lat":34.364896,"lng":132.496694},{"code":"34103260002","name":"仁保南２丁目","lat":34.363825,"lng":132.494623}]}
