{"municipality":"34102","name":"広島市東区","prefecture":"広島県","source":{"dataset":"frogcat/japan-small-area","census":"平成27年国勢調査 小地域（e-Stat 統計LOD）","license":"MIT（リポジトリ）／政府統計の総合窓口(e-Stat)の利用規約（元データ・出典表記必要）","fetched":"2026-07-06"},"towns":[{"code":"341020010","name":"戸坂町","lat":34.434875,"lng":132.500052},{"code":"341020040","name":"尾長町","lat":34.40312,"lng":132.490704},{"code":"341020060","name":"矢賀町","lat":34.403739,"lng":132.495068},{"code":"34102007001","name":"矢賀新町１丁目","lat":34.393042,"lng":132.494381},{"code":"34102007002","name":"矢賀新町２丁目","lat":34.39406,"lng":132.495517},{"code":"34102007003","name":"矢賀新町３丁目","lat":34.392812,"lng":132.497633},{"code":"34102007004","name":"矢賀新町４丁目","lat":34.391743,"lng":132.497285},{"code":"34102007005","name":"矢賀新町５丁目","lat":34.390618,"lng":132.499455},{"code":"341020080","name":"東蟹屋町","lat":34.395456,"lng":132.483955},{"code":"341020090","name":"若草町","lat":34.397589,"lng":132.480538},{"code":"34102010001","name":"光町１丁目","lat":34.398987,"lng":132.480917},{"code":"34102010002","name":"光町２丁目","lat":34.40074,"lng":132.481742},{"code":"341020110","name":"光が丘","lat":34.40384,"lng":132.477917},{"code":"341020120","name":"山根町","lat":34.403718,"lng":132.485565},{"code":"341020130","name":"愛宕町","lat":34.396676,"lng":132.482451},{"code":"34102042001","name":"二葉の里１丁目","lat":34.401944,"lng":132.470781},{"code":"34102042002","name":"二葉の里２丁目","lat":34.404203,"lng":132.472439},{"code":"34102042003","name":"二葉の里３丁目","lat":34.401274,"lng":132.475165},{"code":"34102129001","name":"牛田東１丁目","lat":34.407886,"lng":132.479123},{"code":"34102129002","name":"牛田東２丁目","lat":34.412298,"lng":132.480996},{"code":"34102129003","name":"牛田東３丁目","lat":34.40881,"lng":132.483491},{"code":"34102129004","name":"牛田東４丁目","lat":34.415347,"lng":132.486581},{"code":"34102130001","name":"牛田南１丁目","lat":34.406413,"lng":132.47252},{"code":"34102130002","name":"牛田南２丁目","lat":34.407645,"lng":132.475764},{"code":"34102131001","name":"牛田早稲田１丁目","lat":34.411295,"lng":132.475835},{"code":"34102131002","name":"牛田早稲田２丁目","lat":34.414519,"lng":132.478106},{"code":"34102131003","name":"牛田早稲田３丁目","lat":34.41528,"lng":132.480932},{"code":"34102131004","name":"牛田早稲田４丁目","lat":34.417838,"lng":132.482354},{"code":"34102132001","name":"牛田中１丁目","lat":34.410256,"lng":132.472654},{"code":"34102132002","name":"牛田中２丁目","lat":34.410477,"lng":132.474043},{"code":"34102133001","name":"牛田本町１丁目","lat":34.408803,"lng":132.470492},{"code":"34102133002","name":"牛田本町２丁目","lat":34.410104,"lng":132.471509},{"code":"34102133003","name":"牛田本町３丁目","lat":34.410287,"lng":132.469377},{"code":"34102133004","name":"牛田本町４丁目","lat":34.411588,"lng":132.468192},{"code":"34102133005","name":"牛田本町５丁目","lat":34.413176,"lng":132.466952},{"code":"34102133006","name":"牛田本町６丁目","lat":34.41534,"lng":132.46493},{"code":"34102134001","name":"牛田旭１丁目","lat":34.414038,"lng":132.469884},{"code":"34102134002","name":"牛田旭２丁目","lat":34.415293,"lng":132.473674},{"code":"34102135001","name":"牛田新町１丁目","lat":34.419486,"lng":132.468858},{"code":"34102135002","name":"牛田新町２丁目","lat":34.42233,"lng":132.465053},{"code":"34102135003","name":"牛田新町３丁目","lat":34.426108,"lng":132.471179},{"code":"34102135004","name":"牛田新町４丁目","lat":34.430078,"lng":132.474462},{"code":"341021360","name":"牛田山","lat":34.421801,"lng":132.477857},{"code":"341021370","name":"上大須賀町","lat":34.399829,"lng":132.472584},{"code":"34102138001","name":"矢賀１丁目","lat":34.396169,"lng":132.494219},{"code":"34102138002","name":"矢賀２丁目","lat":34.399819,"lng":132.495969},{"code":"34102138003","name":"矢賀３丁目","lat":34.403359,"lng":132.498497},{"code":"34102138004","name":"矢賀４丁目","lat":34.397138,"lng":132.497184},{"code":"34102138005","name":"矢賀５丁目","lat":34.403487,"lng":132.500668},{"code":"34102138006","name":"矢賀６丁目","lat":34.404396,"lng":132.503023},{"code":"341021400","name":"東山町","lat":34.397789,"lng":132.492512},{"code":"34102141001","name":"戸坂くるめ木１丁目","lat":34.433191,"lng":132.477688},{"code":"34102141002","name":"戸坂くるめ木２丁目","lat":34.429374,"lng":132.48081},{"code":"34102142001","name":"戸坂千足１丁目","lat":34.43701,"lng":132.480829},{"code":"34102142002","name":"戸坂千足２丁目","lat":34.43854,"lng":132.486749},{"code":"341021430","name":"戸坂山崎町","lat":34.435362,"lng":132.483819},{"code":"34102144001","name":"戸坂惣田１丁目","lat":34.440007,"lng":132.490059},{"code":"34102144002","name":"戸坂惣田２丁目","lat":34.438191,"lng":132.492106},{"code":"341021450","name":"戸坂中町","lat":34.435394,"lng":132.487509},{"code":"341021460","name":"戸坂桜東町","lat":34.433108,"lng":132.48513},{"code":"341021470","name":"戸坂桜西町","lat":34.432806,"lng":132.483282},{"code":"341021480","name":"戸坂桜上町","lat":34.430521,"lng":132.484842},{"code":"34102149001","name":"戸坂山根１丁目","lat":34.434623,"lng":132.489232},{"code":"34102149002","name":"戸坂山根２丁目","lat":34.435534,"lng":132.490592},{"code":"34102149003","name":"戸坂山根３丁目","lat":34.434633,"lng":132.493244},{"code":"34102150001","name":"戸坂出江１丁目","lat":34.431036,"lng":132.488188},{"code":"34102150002","name":"戸坂出江２丁目","lat":34.433944,"lng":132.486906},{"code":"341021510","name":"戸坂城山町","lat":34.428412,"lng":132.487893},{"code":"34102152001","name":"戸坂数甲１丁目","lat":34.431792,"lng":132.49071},{"code":"34102152002","name":"戸坂数甲２丁目","lat":34.431668,"lng":132.493562},{"code":"34102153001","name":"戸坂大上１丁目","lat":34.425656,"lng":132.486436},{"code":"34102153002","name":"戸坂大上２丁目","lat":34.429141,"lng":132.493984},{"code":"34102153003","name":"戸坂大上３丁目","lat":34.426917,"lng":132.492955},{"code":"34102153004","name":"戸坂大上４丁目","lat":34.426136,"lng":132.496063},{"code":"34102154001","name":"戸坂新町１丁目","lat":34.423297,"lng":132.496381},{"code":"34102154002","name":"戸坂新町２丁目","lat":34.428928,"lng":132.497803},{"code":"34102154003","name":"戸坂新町３丁目","lat":34.424589,"lng":132.501966},{"code":"34102155001","name":"戸坂南１丁目","lat":34.423523,"lng":132.490238},{"code":"34102155002","name":"戸坂南２丁目","lat":34.423356,"lng":132.493292},{"code":"34102156001","name":"尾長東１丁目","lat":34.396525,"lng":132.491011},{"code":"34102156002","name":"尾長東２丁目","lat":34.39811,"lng":132.48929},{"code":"34102156003","name":"尾長東３丁目","lat":34.401321,"lng":132.492712},{"code":"34102157001","name":"尾長西１丁目","lat":34.397611,"lng":132.486556},{"code":"34102157002","name":"尾長西２丁目","lat":34.399994,"lng":132.489018},{"code":"34102158001","name":"曙１丁目","lat":34.396147,"lng":132.487116},{"code":"34102158002","name":"曙２丁目","lat":34.395894,"lng":132.489679},{"code":"34102158003","name":"曙３丁目","lat":34.394734,"lng":132.487578},{"code":"34102158004","name":"曙４丁目","lat":34.39431,"lng":132.489832},{"code":"34102158005","name":"曙５丁目","lat":34.394372,"lng":132.491696},{"code":"341021590","name":"戸坂長尾台","lat":34.427964,"lng":132.484056},{"code":"34102161001","name":"中山南１丁目","lat":34.406388,"lng":132.496509},{"code":"34102161002","name":"中山南２丁目","lat":34.407239,"lng":132.499947},{"code":"34102162001","name":"中山西１丁目","lat":34.407062,"lng":132.49069},{"code":"34102162002","name":"中山西２丁目","lat":34.409987,"lng":132.492986},{"code":"34102163001","name":"中山東１丁目","lat":34.410804,"lng":132.499832},{"code":"34102163002","name":"中山東２丁目","lat":34.409916,"lng":132.503857},{"code":"34102163003","name":"中山東３丁目","lat":34.412521,"lng":132.502669},{"code":"341021640","name":"中山中町","lat":34.413867,"lng":132.494218},{"code":"34102165001","name":"中山上１丁目","lat":34.417441,"lng":132.493773},{"code":"34102165002","name":"中山上２丁目","lat":34.4187,"lng":132.499288},{"code":"341021660","name":"中山北町","lat":34.419962,"lng":132.493764},{"code":"341021670","name":"中山鏡が丘","lat":34.415393,"lng":132.500711},{"code":"34102168001","name":"中山新町１丁目","lat":34.421487,"lng":132.496783},{"code":"34102168002","name":"中山新町２丁目","lat":34.421738,"lng":132.499893},{"code":"34102168003","name":"中山新町３丁目","lat":34.421802,"lng":132.503761},{"code":"34102838001","name":"温品１丁目","lat":34.407389,"lng":132.505063},{"code":"34102838002","name":"温品２丁目","lat":34.405657,"lng":132.508042},{"code":"34102838003","name":"温品３丁目","lat":34.41,"lng":132.511599},{"code":"34102838004","name":"温品４丁目","lat":34.410124,"lng":132.508461},{"code":"34102838005","name":"温品５丁目","lat":34.413447,"lng":132.506529},{"code":"34102838006","name":"温品６丁目","lat":34.417521,"lng":132.508627},{"code":"34102838007","name":"温品７丁目","lat":34.415242,"lng":132.510175},{"code":"34102838008","name":"温品８丁目","lat":34.416039,"lng":132.512093},{"code":"34102839001","name":"上温品１丁目","lat":34.42152,"lng":132.513124},{"code":"34102839002","name":"上温品２丁目","lat":34.424644,"lng":132.511329},{"code":"34102839003","name":"上温品３丁目","lat":34.426362,"lng":132.515221},{"code":"34102839004","name":"上温品４丁目","lat":34.424748,"lng":132.518782},{"code":"34102840001","name":"馬木１丁目","lat":34.431042,"lng":132.522045},{"code":"34102840002","name":"馬木２丁目","lat":34.435649,"lng":132.526385},{"code":"34102840003","name":"馬木３丁目","lat":34.43534,"lng":132.530168},{"code":"34102840004","name":"馬木４丁目","lat":34.439295,"lng":132.532214},{"code":"34102840005","name":"馬木５丁目","lat":34.440128,"lng":132.528634},{"code":"34102840006","name":"馬木６丁目","lat":34.444302,"lng":132.531931},{"code":"34102840007","name":"馬木７丁目","lat":34.441626,"lng":132.535107},{"code":"34102840008","name":"馬木８丁目","lat":34.437946,"lng":132.539155},{"code":"34102840009","name":"馬木９丁目","lat":34.444303,"lng":132.537492},{"code":"34102841001","name":"福田１丁目","lat":34.450408,"lng":132.536269},{"code":"34102841002","name":"福田２丁目","lat":34.448357,"lng":132.53835},{"code":"34102841003","name":"福田３丁目","lat":34.449122,"lng":132.543366},{"code":"34102841004","name":"福田４丁目","lat":34.452814,"lng":132.545356},{"code":"34102841005","name":"福田５丁目","lat":34.45621,"lng":132.541742},{"code":"34102841006","name":"福田６丁目","lat":34.4563,"lng":132.547709},{"code":"34102841007","name":"福田７丁目","lat":34.453013,"lng":132.549645},{"code":"34102841008","name":"福田８丁目","lat":34.454992,"lng":132.55347},{"code":"341028420","name":"温品町","lat":34.427751,"lng":132.512439},{"code":"341028430","name":"馬木町","lat":34.432832,"lng":132.532696},{"code":"341028440","name":"福田町","lat":34.444969,"lng":132.551437}]}
