{"municipality":"35207","name":"下松市","prefecture":"山口県","source":{"dataset":"frogcat/japan-small-area","census":"平成27年国勢調査 小地域（e-Stat 統計LOD）","license":"MIT（リポジトリ）／政府統計の総合窓口(e-Stat)の利用規約（元データ・出典表記必要）","fetched":"2026-07-06"},"towns":[{"code":"352070010","name":"大字東豊井","lat":33.99771,"lng":131.887302},{"code":"35207002101","name":"駅南１丁目","lat":34.010025,"lng":131.866329},{"code":"35207002102","name":"駅南２丁目","lat":34.009078,"lng":131.865055},{"code":"352070022","name":"大字西豊井","lat":34.012592,"lng":131.871083},{"code":"352070031","name":"若宮町","lat":34.022864,"lng":131.881555},{"code":"35207003301","name":"星が丘１丁目","lat":34.021091,"lng":131.897485},{"code":"35207003302","name":"星が丘２丁目","lat":34.019613,"lng":131.899527},{"code":"35207003303","name":"星が丘３丁目","lat":34.01884,"lng":131.897711},{"code":"352070034","name":"大字河内","lat":34.016305,"lng":131.900816},{"code":"352070040","name":"大字来巻","lat":34.019332,"lng":131.924285},{"code":"352070050","name":"大字切山","lat":34.048835,"lng":131.923411},{"code":"352070060","name":"大字山田","lat":34.045916,"lng":131.904102},{"code":"35207007101","name":"生野屋西１丁目","lat":34.035523,"lng":131.880172},{"code":"35207007102","name":"生野屋西２丁目","lat":34.037561,"lng":131.879962},{"code":"35207007103","name":"生野屋西３丁目","lat":34.040794,"lng":131.880448},{"code":"35207007104","name":"生野屋西４丁目","lat":34.039396,"lng":131.883335},{"code":"35207007201","name":"生野屋１丁目","lat":34.039233,"lng":131.885227},{"code":"35207007202","name":"生野屋２丁目","lat":34.037717,"lng":131.886697},{"code":"35207007203","name":"生野屋３丁目","lat":34.041498,"lng":131.889784},{"code":"35207007204","name":"生野屋４丁目","lat":34.038432,"lng":131.889347},{"code":"35207007205","name":"生野屋５丁目","lat":34.03672,"lng":131.891952},{"code":"35207007301","name":"生野屋南１丁目","lat":34.032245,"lng":131.876383},{"code":"35207007302","name":"生野屋南２丁目","lat":34.033928,"lng":131.883026},{"code":"35207007303","name":"生野屋南３丁目","lat":34.03488,"lng":131.890678},{"code":"352070074","name":"大字生野屋","lat":34.041825,"lng":131.886194},{"code":"352070080","name":"大字末武上","lat":34.041975,"lng":131.870031},{"code":"352070090","name":"大字末武中","lat":34.029216,"lng":131.848893},{"code":"352070100","name":"大字末武下","lat":34.012746,"lng":131.857296},{"code":"352070110","name":"大字平田","lat":34.012508,"lng":131.846539},{"code":"352070120","name":"大字笠戸島","lat":33.954077,"lng":131.839469},{"code":"352070130","name":"大字瀬戸","lat":34.063592,"lng":131.889215},{"code":"352070140","name":"大字下谷","lat":34.090787,"lng":131.876079},{"code":"352070150","name":"大字中須南","lat":34.087161,"lng":131.895193},{"code":"352070160","name":"大字温見","lat":34.079769,"lng":131.905788},{"code":"352070170","name":"大字大藤谷","lat":34.070829,"lng":131.919004},{"code":"35207018001","name":"旗岡１丁目","lat":34.010711,"lng":131.875339},{"code":"35207018002","name":"旗岡２丁目","lat":34.012005,"lng":131.876735},{"code":"35207018003","name":"旗岡３丁目","lat":34.011602,"lng":131.878539},{"code":"35207018004","name":"旗岡４丁目","lat":34.008963,"lng":131.878602},{"code":"35207018005","name":"旗岡５丁目","lat":34.008305,"lng":131.87625},{"code":"35207019001","name":"古川町１丁目","lat":34.008022,"lng":131.869533},{"code":"35207019002","name":"古川町２丁目","lat":34.00863,"lng":131.870867},{"code":"35207019003","name":"古川町３丁目","lat":34.007228,"lng":131.871897},{"code":"35207019004","name":"古川町４丁目","lat":34.006528,"lng":131.870589},{"code":"352070200","name":"北斗町","lat":34.009963,"lng":131.869274},{"code":"35207021001","name":"栄町１丁目","lat":34.011027,"lng":131.867331},{"code":"35207021002","name":"栄町２丁目","lat":34.011526,"lng":131.868439},{"code":"35207021003","name":"栄町３丁目","lat":34.012113,"lng":131.869543},{"code":"35207022001","name":"大手町１丁目","lat":34.012387,"lng":131.866089},{"code":"35207022002","name":"大手町２丁目","lat":34.013418,"lng":131.868087},{"code":"35207022003","name":"大手町３丁目","lat":34.015053,"lng":131.870519},{"code":"35207023001","name":"東柳１丁目","lat":34.013449,"lng":131.864781},{"code":"35207023002","name":"東柳２丁目","lat":34.014288,"lng":131.867045},{"code":"35207024001","name":"青柳１丁目","lat":34.004883,"lng":131.871867},{"code":"35207024002","name":"青柳２丁目","lat":34.005883,"lng":131.872973},{"code":"35207025001","name":"琴平町１丁目","lat":34.002908,"lng":131.873468},{"code":"35207025002","name":"琴平町２丁目","lat":34.003923,"lng":131.874559},{"code":"35207026001","name":"東陽１丁目","lat":34.032985,"lng":131.908192},{"code":"35207026002","name":"東陽２丁目","lat":34.035819,"lng":131.909958},{"code":"35207026003","name":"東陽３丁目","lat":34.03697,"lng":131.914321},{"code":"35207026004","name":"東陽４丁目","lat":34.034893,"lng":131.914555},{"code":"35207026005","name":"東陽５丁目","lat":34.031501,"lng":131.915739},{"code":"35207026006","name":"東陽６丁目","lat":34.031995,"lng":131.912064},{"code":"35207026007","name":"東陽７丁目","lat":34.033616,"lng":131.913648},{"code":"35207027001","name":"昭和町１丁目","lat":34.017729,"lng":131.880117},{"code":"35207027002","name":"昭和町２丁目","lat":34.016569,"lng":131.882082},{"code":"35207028001","name":"西柳１丁目","lat":34.015523,"lng":131.866439},{"code":"35207028002","name":"西柳２丁目","lat":34.016672,"lng":131.864945},{"code":"352070290","name":"中央町","lat":34.017901,"lng":131.862713},{"code":"35207030001","name":"葉山１丁目","lat":34.024657,"lng":131.911601},{"code":"35207030002","name":"葉山２丁目","lat":34.022495,"lng":131.906678},{"code":"35207031001","name":"清瀬町１丁目","lat":34.030671,"lng":131.858118},{"code":"35207031002","name":"清瀬町２丁目","lat":34.029158,"lng":131.85557},{"code":"35207031003","name":"清瀬町３丁目","lat":34.029588,"lng":131.852008},{"code":"35207031004","name":"清瀬町４丁目","lat":34.03231,"lng":131.855715},{"code":"35207032001","name":"望町１丁目","lat":34.028769,"lng":131.861257},{"code":"35207032002","name":"望町２丁目","lat":34.025248,"lng":131.859025},{"code":"35207032003","name":"望町３丁目","lat":34.02629,"lng":131.857366},{"code":"35207032004","name":"望町４丁目","lat":34.027003,"lng":131.855237},{"code":"35207032005","name":"望町５丁目","lat":34.027557,"lng":131.852116},{"code":"35207033001","name":"美里町１丁目","lat":34.025762,"lng":131.865092},{"code":"35207033002","name":"美里町２丁目","lat":34.026752,"lng":131.863171},{"code":"35207033003","name":"美里町３丁目","lat":34.023169,"lng":131.861089},{"code":"35207033004","name":"美里町４丁目","lat":34.020529,"lng":131.858203},{"code":"35207034001","name":"瑞穂町１丁目","lat":34.02205,"lng":131.85545},{"code":"35207034002","name":"瑞穂町２丁目","lat":34.023654,"lng":131.85283},{"code":"35207034003","name":"瑞穂町３丁目","lat":34.026604,"lng":131.849699},{"code":"35207034004","name":"瑞穂町４丁目","lat":34.024949,"lng":131.848612},{"code":"35207035001","name":"潮音町１丁目","lat":34.016713,"lng":131.854603},{"code":"35207035002","name":"潮音町２丁目","lat":34.017627,"lng":131.852497},{"code":"35207035003","name":"潮音町３丁目","lat":34.021045,"lng":131.850795},{"code":"35207035004","name":"潮音町４丁目","lat":34.023385,"lng":131.847382},{"code":"35207035005","name":"潮音町５丁目","lat":34.021077,"lng":131.846473},{"code":"35207035006","name":"潮音町６丁目","lat":34.018468,"lng":131.849575},{"code":"35207035007","name":"潮音町７丁目","lat":34.018395,"lng":131.845584},{"code":"35207035008","name":"潮音町８丁目","lat":34.016527,"lng":131.846758},{"code":"352070360","name":"桃山町","lat":34.027962,"lng":131.917138},{"code":"35207037001","name":"東和１丁目","lat":34.02767,"lng":131.924763},{"code":"35207037002","name":"東和２丁目","lat":34.028685,"lng":131.924523},{"code":"35207038001","name":"南花岡１丁目","lat":34.032622,"lng":131.862273},{"code":"35207038002","name":"南花岡２丁目","lat":34.034064,"lng":131.866218},{"code":"35207038003","name":"南花岡３丁目","lat":34.034202,"lng":131.868938},{"code":"35207038004","name":"南花岡４丁目","lat":34.034579,"lng":131.873268},{"code":"35207038005","name":"南花岡５丁目","lat":34.032228,"lng":131.871582},{"code":"35207038006","name":"南花岡６丁目","lat":34.030734,"lng":131.865629},{"code":"35207038007","name":"南花岡７丁目","lat":34.029838,"lng":131.867745},{"code":"35207040001","name":"桜町１丁目","lat":34.01689,"lng":131.870715},{"code":"35207040002","name":"桜町２丁目","lat":34.019577,"lng":131.871136},{"code":"35207040003","name":"桜町３丁目","lat":34.020007,"lng":131.867307},{"code":"35207041001","name":"藤光町１丁目","lat":34.023658,"lng":131.8686},{"code":"35207041002","name":"藤光町２丁目","lat":34.027613,"lng":131.869615},{"code":"35207042001","name":"楠木町１丁目","lat":34.020958,"lng":131.864234},{"code":"35207042002","name":"楠木町２丁目","lat":34.024872,"lng":131.86628},{"code":"35207043001","name":"中市１丁目","lat":34.011914,"lng":131.863776},{"code":"35207043002","name":"中市２丁目","lat":34.010535,"lng":131.862692},{"code":"35207044001","name":"新川１丁目","lat":34.006513,"lng":131.864878},{"code":"35207044002","name":"新川２丁目","lat":34.007192,"lng":131.863056},{"code":"35207044003","name":"新川３丁目","lat":34.008919,"lng":131.861711},{"code":"35207044004","name":"新川４丁目","lat":34.004506,"lng":131.859722}]}
