{"municipality":"36202","name":"鳴門市","prefecture":"徳島県","source":{"dataset":"frogcat/japan-small-area","census":"平成27年国勢調査 小地域（e-Stat 統計LOD）","license":"MIT（リポジトリ）／政府統計の総合窓口(e-Stat)の利用規約（元データ・出典表記必要）","fetched":"2026-07-06"},"towns":[{"code":"36202001001","name":"撫養町斎田","lat":34.177972,"lng":134.598279},{"code":"36202001002","name":"撫養町南浜","lat":34.170509,"lng":134.605669},{"code":"36202001003","name":"撫養町木津","lat":34.180736,"lng":134.579399},{"code":"36202001004","name":"撫養町黒崎","lat":34.188825,"lng":134.593861},{"code":"36202001005","name":"撫養町大桑島","lat":34.187451,"lng":134.608708},{"code":"36202001006","name":"撫養町小桑島","lat":34.181727,"lng":134.606745},{"code":"36202001007","name":"撫養町岡崎","lat":34.182501,"lng":134.620798},{"code":"36202001008","name":"撫養町弁財天","lat":34.181602,"lng":134.617288},{"code":"36202001009","name":"撫養町北浜","lat":34.180375,"lng":134.613786},{"code":"36202001010","name":"撫養町林崎","lat":34.177919,"lng":134.616342},{"code":"36202001011","name":"撫養町立岩","lat":34.17135,"lng":134.618091},{"code":"36202002001","name":"里浦町里浦","lat":34.164188,"lng":134.624593},{"code":"36202002002","name":"里浦町粟津","lat":34.159045,"lng":134.612354},{"code":"36202003001","name":"鳴門町土佐泊浦","lat":34.215144,"lng":134.624876},{"code":"36202003002","name":"鳴門町高島","lat":34.206845,"lng":134.600978},{"code":"36202003003","name":"鳴門町三ツ石","lat":34.201524,"lng":134.611788},{"code":"36202004002","name":"瀬戸町堂浦","lat":34.217981,"lng":134.575887},{"code":"36202004003","name":"瀬戸町北泊","lat":34.2302,"lng":134.580156},{"code":"36202004004","name":"瀬戸町明神","lat":34.202913,"lng":134.582154},{"code":"36202004005","name":"瀬戸町大島田","lat":34.243874,"lng":134.605036},{"code":"36202004006","name":"瀬戸町室","lat":34.24203,"lng":134.614394},{"code":"36202004007","name":"瀬戸町撫佐","lat":34.232876,"lng":134.607167},{"code":"36202004008","name":"瀬戸町小島田","lat":34.224629,"lng":134.595009},{"code":"36202004009","name":"瀬戸町中島田","lat":34.235614,"lng":134.597473},{"code":"36202005001","name":"大津町大代","lat":34.174268,"lng":134.567546},{"code":"36202005002","name":"大津町大幸","lat":34.155741,"lng":134.558418},{"code":"36202005003","name":"大津町段関","lat":34.157524,"lng":134.56618},{"code":"36202005004","name":"大津町備前島","lat":34.160331,"lng":134.580694},{"code":"36202005005","name":"大津町木津野","lat":34.16485,"lng":134.589138},{"code":"36202005006","name":"大津町吉永","lat":34.164334,"lng":134.599449},{"code":"36202005007","name":"大津町矢倉","lat":34.153096,"lng":134.58933},{"code":"36202005008","name":"大津町徳長","lat":34.15358,"lng":134.598516},{"code":"36202005009","name":"大津町長江","lat":34.152794,"lng":134.606335},{"code":"36202006002","name":"北灘町大須","lat":34.199358,"lng":134.448016},{"code":"36202006003","name":"北灘町折野","lat":34.198111,"lng":134.479687},{"code":"36202006004","name":"北灘町宿毛谷","lat":34.220017,"lng":134.51675},{"code":"36202006005","name":"北灘町鳥ケ丸","lat":34.220545,"lng":134.509537},{"code":"36202006006","name":"北灘町大浦","lat":34.21552,"lng":134.52476},{"code":"36202006007","name":"北灘町粟田","lat":34.217398,"lng":134.538708},{"code":"36202006008","name":"北灘町櫛木","lat":34.208013,"lng":134.555711},{"code":"36202007001","name":"大麻町姫田","lat":34.164875,"lng":134.553688},{"code":"36202007002","name":"大麻町大谷","lat":34.178878,"lng":134.54578},{"code":"36202007003","name":"大麻町池谷","lat":34.160459,"lng":134.530514},{"code":"36202007004","name":"大麻町高畑","lat":34.150276,"lng":134.532835},{"code":"36202007005","name":"大麻町松村","lat":34.153016,"lng":134.538372},{"code":"36202007006","name":"大麻町牛屋島","lat":34.152103,"lng":134.551256},{"code":"36202007007","name":"大麻町東馬詰","lat":34.14532,"lng":134.550236},{"code":"36202007008","name":"大麻町西馬詰","lat":34.143178,"lng":134.535658},{"code":"36202007009","name":"大麻町中馬詰","lat":34.143854,"lng":134.541164},{"code":"36202007010","name":"大麻町市場","lat":34.13687,"lng":134.53079},{"code":"36202007021","name":"大麻町桧","lat":34.164793,"lng":134.492569},{"code":"36202007022","name":"大麻町板東","lat":34.185996,"lng":134.515344},{"code":"36202007023","name":"大麻町萩原","lat":34.156989,"lng":134.518091},{"code":"36202007024","name":"大麻町津慈","lat":34.144222,"lng":134.512434},{"code":"36202007025","name":"大麻町川崎","lat":34.141816,"lng":134.520088},{"code":"36202007026","name":"大麻町三俣","lat":34.145085,"lng":134.527379}]}
