{"municipality":"38201","name":"松山市","prefecture":"愛媛県","source":{"dataset":"frogcat/japan-small-area","census":"平成27年国勢調査 小地域（e-Stat 統計LOD）","license":"MIT（リポジトリ）／政府統計の総合窓口(e-Stat)の利用規約（元データ・出典表記必要）","fetched":"2026-07-06"},"towns":[{"code":"38201001001","name":"一番町１丁目","lat":33.841147,"lng":132.773615},{"code":"38201001002","name":"一番町２丁目","lat":33.841176,"lng":132.771403},{"code":"38201001003","name":"一番町３丁目","lat":33.841847,"lng":132.768805},{"code":"38201001004","name":"一番町４丁目","lat":33.841201,"lng":132.766209},{"code":"38201002001","name":"二番町１丁目","lat":33.839578,"lng":132.773606},{"code":"38201002002","name":"二番町２丁目","lat":33.839622,"lng":132.771271},{"code":"38201002003","name":"二番町３丁目","lat":33.839558,"lng":132.768884},{"code":"38201002004","name":"二番町４丁目","lat":33.839494,"lng":132.766464},{"code":"38201003001","name":"三番町１丁目","lat":33.83804,"lng":132.773583},{"code":"38201003002","name":"三番町２丁目","lat":33.838096,"lng":132.771296},{"code":"38201003003","name":"三番町３丁目","lat":33.83782,"lng":132.768856},{"code":"38201003004","name":"三番町４丁目","lat":33.837928,"lng":132.766281},{"code":"38201003005","name":"三番町５丁目","lat":33.837955,"lng":132.76343},{"code":"38201003006","name":"三番町６丁目","lat":33.837935,"lng":132.760014},{"code":"38201003007","name":"三番町７丁目","lat":33.838349,"lng":132.756886},{"code":"38201003008","name":"三番町８丁目","lat":33.83824,"lng":132.752942},{"code":"38201004001","name":"大街道１丁目","lat":33.837148,"lng":132.769981},{"code":"38201004002","name":"大街道２丁目","lat":33.839841,"lng":132.770036},{"code":"38201004003","name":"大街道３丁目","lat":33.843242,"lng":132.770619},{"code":"38201005001","name":"千舟町１丁目","lat":33.836734,"lng":132.773661},{"code":"38201005002","name":"千舟町２丁目","lat":33.836668,"lng":132.771537},{"code":"38201005003","name":"千舟町３丁目","lat":33.836734,"lng":132.768784},{"code":"38201005004","name":"千舟町４丁目","lat":33.836782,"lng":132.766165},{"code":"38201005005","name":"千舟町５丁目","lat":33.83684,"lng":132.763498},{"code":"38201005006","name":"千舟町６丁目","lat":33.836867,"lng":132.760005},{"code":"38201005007","name":"千舟町７丁目","lat":33.837159,"lng":132.756441},{"code":"38201005008","name":"千舟町８丁目","lat":33.836721,"lng":132.753499},{"code":"382010060","name":"花園町","lat":33.837653,"lng":132.761785},{"code":"382010070","name":"堀之内","lat":33.841809,"lng":132.76152},{"code":"38201008001","name":"湊町１丁目","lat":33.836176,"lng":132.773878},{"code":"38201008002","name":"湊町２丁目","lat":33.835726,"lng":132.771807},{"code":"38201008003","name":"湊町３丁目","lat":33.835672,"lng":132.768964},{"code":"38201008004","name":"湊町４丁目","lat":33.83589,"lng":132.766007},{"code":"38201008005","name":"湊町５丁目","lat":33.835913,"lng":132.762668},{"code":"38201008006","name":"湊町６丁目","lat":33.835859,"lng":132.760022},{"code":"38201008007","name":"湊町７丁目","lat":33.835917,"lng":132.756709},{"code":"38201008008","name":"湊町８丁目","lat":33.83558,"lng":132.752666},{"code":"382010090","name":"南堀端町","lat":33.839094,"lng":132.761578},{"code":"38201010001","name":"柳井町１丁目","lat":33.833191,"lng":132.769805},{"code":"38201010002","name":"柳井町２丁目","lat":33.833704,"lng":132.768225},{"code":"38201010003","name":"柳井町３丁目","lat":33.834628,"lng":132.765876},{"code":"382010110","name":"旭町","lat":33.83956,"lng":132.776798},{"code":"382010120","name":"丸之内","lat":33.844755,"lng":132.766024},{"code":"38201013001","name":"歩行町１丁目","lat":33.842514,"lng":132.773599},{"code":"38201013002","name":"歩行町２丁目","lat":33.842505,"lng":132.771693},{"code":"382010140","name":"南持田町","lat":33.842398,"lng":132.777093},{"code":"382010150","name":"北持田町","lat":33.844573,"lng":132.777319},{"code":"38201016001","name":"喜与町１丁目","lat":33.843814,"lng":132.773641},{"code":"38201016002","name":"喜与町２丁目","lat":33.843537,"lng":132.772144},{"code":"382010170","name":"此花町","lat":33.840479,"lng":132.779528},{"code":"382010180","name":"東雲町","lat":33.845307,"lng":132.773908},{"code":"382010190","name":"昭和町","lat":33.846459,"lng":132.777262},{"code":"382010200","name":"東一万町","lat":33.847082,"lng":132.7775},{"code":"382010210","name":"中一万町","lat":33.846576,"lng":132.774026},{"code":"382010220","name":"西一万町","lat":33.846224,"lng":132.772502},{"code":"38201023001","name":"平和通１丁目","lat":33.847581,"lng":132.773912},{"code":"38201023002","name":"平和通２丁目","lat":33.847624,"lng":132.77041},{"code":"38201023003","name":"平和通３丁目","lat":33.847424,"lng":132.766823},{"code":"38201023004","name":"平和通４丁目","lat":33.847307,"lng":132.763262},{"code":"38201023005","name":"平和通５丁目","lat":33.847605,"lng":132.760651},{"code":"38201023006","name":"平和通６丁目","lat":33.847725,"lng":132.755901},{"code":"382010240","name":"御宝町","lat":33.841,"lng":132.777027},{"code":"38201025001","name":"持田町１丁目","lat":33.842758,"lng":132.783664},{"code":"38201025002","name":"持田町２丁目","lat":33.842392,"lng":132.780064},{"code":"38201025003","name":"持田町３丁目","lat":33.844553,"lng":132.781504},{"code":"38201025004","name":"持田町４丁目","lat":33.844411,"lng":132.779448},{"code":"38201026001","name":"勝山町１丁目","lat":33.839131,"lng":132.775383},{"code":"38201026002","name":"勝山町２丁目","lat":33.844347,"lng":132.7755},{"code":"382010270","name":"河原町","lat":33.834288,"lng":132.770783},{"code":"382010280","name":"北立花町","lat":33.834257,"lng":132.772459},{"code":"382010290","name":"新立町","lat":33.837658,"lng":132.781062},{"code":"382010300","name":"築山町","lat":33.83862,"lng":132.779683},{"code":"38201031001","name":"永木町１丁目","lat":33.83639,"lng":132.777076},{"code":"38201031002","name":"永木町２丁目","lat":33.835299,"lng":132.774807},{"code":"382010320","name":"錦町","lat":33.837794,"lng":132.7766},{"code":"382010340","name":"湯渡町","lat":33.840168,"lng":132.783485},{"code":"38201035001","name":"枝松１丁目","lat":33.836648,"lng":132.785542},{"code":"38201035002","name":"枝松２丁目","lat":33.83468,"lng":132.784927},{"code":"38201035003","name":"枝松３丁目","lat":33.832741,"lng":132.784912},{"code":"38201035004","name":"枝松４丁目","lat":33.830753,"lng":132.784902},{"code":"38201035005","name":"枝松５丁目","lat":33.828228,"lng":132.784867},{"code":"38201035006","name":"枝松６丁目","lat":33.825441,"lng":132.784888},{"code":"382010360","name":"祇園町","lat":33.83074,"lng":132.774161},{"code":"38201037001","name":"小坂１丁目","lat":33.834756,"lng":132.78117},{"code":"38201037002","name":"小坂２丁目","lat":33.832715,"lng":132.78136},{"code":"38201037003","name":"小坂３丁目","lat":33.830742,"lng":132.781383},{"code":"38201037004","name":"小坂４丁目","lat":33.828386,"lng":132.780845},{"code":"38201037005","name":"小坂５丁目","lat":33.825609,"lng":132.78075},{"code":"38201038001","name":"立花１丁目","lat":33.831421,"lng":132.771868},{"code":"38201038002","name":"立花２丁目","lat":33.829102,"lng":132.77242},{"code":"38201038003","name":"立花３丁目","lat":33.826,"lng":132.773206},{"code":"38201038004","name":"立花４丁目","lat":33.828642,"lng":132.76837},{"code":"38201038005","name":"立花５丁目","lat":33.827664,"lng":132.770541},{"code":"38201038006","name":"立花６丁目","lat":33.825667,"lng":132.769518},{"code":"38201039001","name":"中村１丁目","lat":33.834562,"lng":132.777615},{"code":"38201039002","name":"中村２丁目","lat":33.832655,"lng":132.777262},{"code":"38201039003","name":"中村３丁目","lat":33.830814,"lng":132.777265},{"code":"38201039004","name":"中村４丁目","lat":33.828217,"lng":132.776704},{"code":"38201039005","name":"中村５丁目","lat":33.825462,"lng":132.77647},{"code":"382010400","name":"拓川町","lat":33.82603,"lng":132.765516},{"code":"382010410","name":"日の出町","lat":33.83685,"lng":132.782173},{"code":"382010420","name":"永代町","lat":33.834547,"lng":132.76149},{"code":"382010430","name":"春日町","lat":33.832615,"lng":132.765111},{"code":"382010440","name":"北藤原町","lat":33.834395,"lng":132.758682},{"code":"38201045001","name":"藤原１丁目","lat":33.8305,"lng":132.761706},{"code":"38201045002","name":"藤原２丁目","lat":33.830435,"lng":132.758466},{"code":"382010460","name":"藤原町","lat":33.832103,"lng":132.759177},{"code":"38201047002","name":"竹原２丁目","lat":33.832422,"lng":132.75296},{"code":"38201047003","name":"竹原３丁目","lat":33.832033,"lng":132.749478},{"code":"38201047004","name":"竹原４丁目","lat":33.83158,"lng":132.746467},{"code":"38201048000","name":"竹原町","lat":33.832933,"lng":132.753997},{"code":"38201048001","name":"竹原町１丁目","lat":33.833678,"lng":132.755487},{"code":"382010490","name":"土橋町","lat":33.832981,"lng":132.756619},{"code":"382010500","name":"真砂町","lat":33.832625,"lng":132.760792},{"code":"38201051001","name":"室町１丁目","lat":33.829105,"lng":132.76565},{"code":"38201051002","name":"室町２丁目","lat":33.829529,"lng":132.763604},{"code":"382010520","name":"室町","lat":33.830979,"lng":132.764785},{"code":"382010530","name":"泉町","lat":33.831807,"lng":132.767406},{"code":"382010540","name":"末広町","lat":33.833419,"lng":132.763314},{"code":"38201055001","name":"小栗１丁目","lat":33.826974,"lng":132.763095},{"code":"38201055002","name":"小栗２丁目","lat":33.825949,"lng":132.760033},{"code":"38201055003","name":"小栗３丁目","lat":33.827234,"lng":132.7594},{"code":"38201055004","name":"小栗４丁目","lat":33.829158,"lng":132.761931},{"code":"38201055005","name":"小栗５丁目","lat":33.828788,"lng":132.758818},{"code":"38201055006","name":"小栗６丁目","lat":33.827008,"lng":132.755907},{"code":"38201055007","name":"小栗７丁目","lat":33.826882,"lng":132.753066},{"code":"382010560","name":"小栗町","lat":33.826012,"lng":132.750538},{"code":"38201057001","name":"雄郡１丁目","lat":33.829947,"lng":132.755803},{"code":"38201057002","name":"雄郡２丁目","lat":33.829457,"lng":132.753356},{"code":"38201058001","name":"空港通１丁目","lat":33.827932,"lng":132.748531},{"code":"38201058002","name":"空港通２丁目","lat":33.828471,"lng":132.742128},{"code":"38201058003","name":"空港通３丁目","lat":33.828098,"lng":132.738039},{"code":"38201058004","name":"空港通４丁目","lat":33.827877,"lng":132.735795},{"code":"38201058005","name":"空港通５丁目","lat":33.827833,"lng":132.733432},{"code":"38201058006","name":"空港通６丁目","lat":33.827803,"lng":132.730491},{"code":"38201058007","name":"空港通７丁目","lat":33.827816,"lng":132.727557},{"code":"38201059001","name":"土居田町","lat":33.82236,"lng":132.748039},{"code":"38201059002","name":"土居田町","lat":33.824424,"lng":132.741382},{"code":"382010600","name":"針田町","lat":33.822339,"lng":132.735921},{"code":"382010610","name":"富久町","lat":33.822372,"lng":132.728807},{"code":"38201062001","name":"大手町１丁目","lat":33.839922,"lng":132.757282},{"code":"38201062002","name":"大手町２丁目","lat":33.839799,"lng":132.753596},{"code":"38201063001","name":"萱町１丁目","lat":33.841684,"lng":132.756976},{"code":"38201063002","name":"萱町２丁目","lat":33.843981,"lng":132.757009},{"code":"38201063003","name":"萱町３丁目","lat":33.846411,"lng":132.756989},{"code":"38201063004","name":"萱町４丁目","lat":33.848651,"lng":132.756598},{"code":"38201063005","name":"萱町５丁目","lat":33.850356,"lng":132.756482},{"code":"38201063006","name":"萱町６丁目","lat":33.852712,"lng":132.756346},{"code":"38201064001","name":"本町１丁目","lat":33.841657,"lng":132.758451},{"code":"38201064002","name":"本町２丁目","lat":33.843975,"lng":132.758527},{"code":"38201064003","name":"本町３丁目","lat":33.846459,"lng":132.758648},{"code":"38201064004","name":"本町４丁目","lat":33.848486,"lng":132.758638},{"code":"38201064005","name":"本町５丁目","lat":33.850249,"lng":132.758627},{"code":"38201064006","name":"本町６丁目","lat":33.852856,"lng":132.75874},{"code":"38201064007","name":"本町７丁目","lat":33.855224,"lng":132.758794},{"code":"38201065001","name":"松前町１丁目","lat":33.841643,"lng":132.757665},{"code":"38201065002","name":"松前町２丁目","lat":33.844043,"lng":132.757683},{"code":"38201065003","name":"松前町３丁目","lat":33.846349,"lng":132.757635},{"code":"38201065004","name":"松前町４丁目","lat":33.848672,"lng":132.757644},{"code":"38201065005","name":"松前町５丁目","lat":33.850312,"lng":132.757674},{"code":"38201066001","name":"味酒町１丁目","lat":33.841672,"lng":132.755882},{"code":"38201066002","name":"味酒町２丁目","lat":33.844076,"lng":132.755631},{"code":"38201066003","name":"味酒町３丁目","lat":33.846297,"lng":132.75576},{"code":"382010670","name":"宮田町","lat":33.842489,"lng":132.753012},{"code":"38201068101","name":"南江戸１丁目","lat":33.838136,"lng":132.75014},{"code":"38201068102","name":"南江戸２丁目","lat":33.836955,"lng":132.747471},{"code":"38201068103","name":"南江戸３丁目","lat":33.837852,"lng":132.745192},{"code":"38201068104","name":"南江戸４丁目","lat":33.837449,"lng":132.741818},{"code":"38201068105","name":"南江戸５丁目","lat":33.840958,"lng":132.744751},{"code":"38201068106","name":"南江戸６丁目","lat":33.839701,"lng":132.739209},{"code":"38201068205","name":"南江戸５丁目","lat":33.842823,"lng":132.741086},{"code":"38201068206","name":"南江戸６丁目","lat":33.842389,"lng":132.737188},{"code":"382010690","name":"南江戸町","lat":33.838237,"lng":132.737716},{"code":"382010700","name":"生石町","lat":33.83305,"lng":132.742235},{"code":"38201071001","name":"朝美１丁目","lat":33.843716,"lng":132.745553},{"code":"38201071002","name":"朝美２丁目","lat":33.846657,"lng":132.745973},{"code":"38201072001","name":"美沢１丁目","lat":33.849765,"lng":132.74869},{"code":"38201072002","name":"美沢２丁目","lat":33.850147,"lng":132.744401},{"code":"38201073101","name":"衣山１丁目","lat":33.85174,"lng":132.746554},{"code":"38201073102","name":"衣山２丁目","lat":33.852928,"lng":132.742687},{"code":"38201073103","name":"衣山３丁目","lat":33.85226,"lng":132.740017},{"code":"38201073201","name":"衣山１丁目","lat":33.853544,"lng":132.746195},{"code":"38201073204","name":"衣山４丁目","lat":33.85251,"lng":132.736887},{"code":"38201073205","name":"衣山５丁目","lat":33.847705,"lng":132.736948},{"code":"382010741","name":"朝日ケ丘","lat":33.84833,"lng":132.743228},{"code":"382010742","name":"朝日ケ丘","lat":33.84525,"lng":132.740958},{"code":"382010750","name":"辻町","lat":33.843221,"lng":132.748809},{"code":"382010760","name":"愛光町","lat":33.846702,"lng":132.749144},{"code":"38201077001","name":"宮西１丁目","lat":33.845769,"lng":132.752707},{"code":"38201077002","name":"宮西２丁目","lat":33.848604,"lng":132.752696},{"code":"38201077003","name":"宮西３丁目","lat":33.850037,"lng":132.754576},{"code":"382010780","name":"六軒家町","lat":33.851445,"lng":132.751635},{"code":"382010790","name":"若草町","lat":33.84608,"lng":132.760542},{"code":"38201080001","name":"木屋町１丁目","lat":33.848602,"lng":132.760219},{"code":"38201080002","name":"木屋町２丁目","lat":33.850239,"lng":132.760187},{"code":"38201080003","name":"木屋町３丁目","lat":33.852858,"lng":132.760131},{"code":"38201080004","name":"木屋町４丁目","lat":33.855295,"lng":132.76071},{"code":"38201081001","name":"清水町１丁目","lat":33.848582,"lng":132.763969},{"code":"38201081002","name":"清水町２丁目","lat":33.850211,"lng":132.764005},{"code":"38201081003","name":"清水町３丁目","lat":33.852539,"lng":132.765726},{"code":"38201081004","name":"清水町４丁目","lat":33.854621,"lng":132.764029},{"code":"38201082001","name":"高砂町１丁目","lat":33.848646,"lng":132.762016},{"code":"38201082002","name":"高砂町２丁目","lat":33.850266,"lng":132.761786},{"code":"38201082003","name":"高砂町３丁目","lat":33.852591,"lng":132.761868},{"code":"38201082004","name":"高砂町４丁目","lat":33.855113,"lng":132.762187},{"code":"382010830","name":"鉄砲町","lat":33.848406,"lng":132.767333},{"code":"38201084101","name":"姫原１丁目","lat":33.866274,"lng":132.762595},{"code":"38201084102","name":"姫原２丁目","lat":33.86647,"lng":132.759686},{"code":"38201084103","name":"姫原３丁目","lat":33.865442,"lng":132.756145},{"code":"382010842","name":"姫原","lat":33.866466,"lng":132.765902},{"code":"382010850","name":"問屋町","lat":33.864316,"lng":132.751108},{"code":"38201086001","name":"緑町１丁目","lat":33.845869,"lng":132.770234},{"code":"38201086002","name":"緑町２丁目","lat":33.846811,"lng":132.770189},{"code":"382010871","name":"御幸","lat":33.85762,"lng":132.761422},{"code":"382010872","name":"御幸","lat":33.856664,"lng":132.768085},{"code":"38201088101","name":"山越１丁目","lat":33.85767,"lng":132.756202},{"code":"38201088102","name":"山越２丁目","lat":33.860112,"lng":132.756273},{"code":"38201088103","name":"山越３丁目","lat":33.861708,"lng":132.761406},{"code":"38201088104","name":"山越４丁目","lat":33.862564,"lng":132.75579},{"code":"38201088105","name":"山越５丁目","lat":33.860552,"lng":132.75161},{"code":"38201088106","name":"山越６丁目","lat":33.857533,"lng":132.751547},{"code":"382010882","name":"山越","lat":33.862234,"lng":132.766383},{"code":"382010890","name":"山越町","lat":33.855254,"lng":132.756396},{"code":"382010901","name":"中央","lat":33.854148,"lng":132.751621},{"code":"382010902","name":"中央","lat":33.855627,"lng":132.74613},{"code":"382010910","name":"文京町","lat":33.849902,"lng":132.770742},{"code":"38201092001","name":"正円寺１丁目","lat":33.840594,"lng":132.796284},{"code":"38201092002","name":"正円寺２丁目","lat":33.838944,"lng":132.797017},{"code":"38201092003","name":"正円寺３丁目","lat":33.83713,"lng":132.798628},{"code":"38201092004","name":"正円寺４丁目","lat":33.836812,"lng":132.795432},{"code":"38201093001","name":"樽味１丁目","lat":33.840449,"lng":132.788553},{"code":"38201093002","name":"樽味２丁目","lat":33.840477,"lng":132.791574},{"code":"38201093003","name":"樽味３丁目","lat":33.838769,"lng":132.793348},{"code":"38201093004","name":"樽味４丁目","lat":33.838615,"lng":132.788696},{"code":"38201094101","name":"東野１丁目","lat":33.842484,"lng":132.795314},{"code":"38201094102","name":"東野２丁目","lat":33.842345,"lng":132.799436},{"code":"38201094103","name":"東野３丁目","lat":33.842834,"lng":132.805621},{"code":"38201094104","name":"東野４丁目","lat":33.841842,"lng":132.803941},{"code":"38201094105","name":"東野５丁目","lat":33.839945,"lng":132.800676},{"code":"38201094106","name":"東野６丁目","lat":33.835464,"lng":132.800366},{"code":"38201094203","name":"東野３丁目","lat":33.840146,"lng":132.816037},{"code":"38201094204","name":"東野４丁目","lat":33.840216,"lng":132.804292},{"code":"38201094205","name":"東野５丁目","lat":33.837574,"lng":132.801611},{"code":"38201095001","name":"桑原１丁目","lat":33.83583,"lng":132.788986},{"code":"38201095002","name":"桑原２丁目","lat":33.835914,"lng":132.791696},{"code":"38201095003","name":"桑原３丁目","lat":33.834029,"lng":132.795859},{"code":"38201095004","name":"桑原４丁目","lat":33.831617,"lng":132.794331},{"code":"38201095005","name":"桑原５丁目","lat":33.831885,"lng":132.791419},{"code":"38201095006","name":"桑原６丁目","lat":33.83209,"lng":132.789218},{"code":"38201095007","name":"桑原７丁目","lat":33.829394,"lng":132.792037},{"code":"38201096001","name":"束本１丁目","lat":33.832341,"lng":132.787526},{"code":"38201096002","name":"束本２丁目","lat":33.82822,"lng":132.787495},{"code":"38201097001","name":"畑寺１丁目","lat":33.833364,"lng":132.800403},{"code":"38201097002","name":"畑寺２丁目","lat":33.830733,"lng":132.799152},{"code":"38201097003","name":"畑寺３丁目","lat":33.828415,"lng":132.799784},{"code":"38201097004","name":"畑寺４丁目","lat":33.825678,"lng":132.801414},{"code":"382010980","name":"畑寺町","lat":33.832763,"lng":132.808268},{"code":"38201099001","name":"松末１丁目","lat":33.82729,"lng":132.790476},{"code":"38201099002","name":"松末２丁目","lat":33.825092,"lng":132.788945},{"code":"38201100001","name":"三町１丁目","lat":33.828076,"lng":132.794567},{"code":"38201100002","name":"三町２丁目","lat":33.826245,"lng":132.795813},{"code":"38201100003","name":"三町３丁目","lat":33.82445,"lng":132.795498},{"code":"38201101001","name":"岩崎町１丁目","lat":33.844839,"lng":132.786598},{"code":"38201101002","name":"岩崎町２丁目","lat":33.845915,"lng":132.784186},{"code":"38201102001","name":"上市１丁目","lat":33.844631,"lng":132.788884},{"code":"38201102002","name":"上市２丁目","lat":33.847459,"lng":132.78906},{"code":"382011030","name":"道後公園","lat":33.848368,"lng":132.786736},{"code":"38201104001","name":"南町１丁目","lat":33.846441,"lng":132.781704},{"code":"38201104002","name":"南町２丁目","lat":33.846487,"lng":132.779394},{"code":"382011050","name":"紅葉町","lat":33.841757,"lng":132.787761},{"code":"38201106001","name":"石手１丁目","lat":33.849445,"lng":132.800717},{"code":"38201106002","name":"石手２丁目","lat":33.846862,"lng":132.798291},{"code":"38201106003","name":"石手３丁目","lat":33.84557,"lng":132.795655},{"code":"38201106004","name":"石手４丁目","lat":33.844251,"lng":132.79216},{"code":"38201106005","name":"石手５丁目","lat":33.846878,"lng":132.792335},{"code":"382011070","name":"石手白石","lat":33.8454,"lng":132.80327},{"code":"382011080","name":"新石手","lat":33.84568,"lng":132.800362},{"code":"382011090","name":"常光寺町","lat":33.85182,"lng":132.797126},{"code":"382011100","name":"道後姫塚","lat":33.849523,"lng":132.791},{"code":"382011110","name":"道後喜多町","lat":33.85136,"lng":132.781197},{"code":"382011120","name":"道後鷺谷町","lat":33.853661,"lng":132.786165},{"code":"382011130","name":"道後多幸町","lat":33.853442,"lng":132.783853},{"code":"382011140","name":"道後湯之町","lat":33.851245,"lng":132.785437},{"code":"38201115001","name":"道後町１丁目","lat":33.849135,"lng":132.784035},{"code":"38201115002","name":"道後町２丁目","lat":33.848882,"lng":132.781119},{"code":"382011160","name":"道後緑台","lat":33.853376,"lng":132.781189},{"code":"382011170","name":"道後湯月町","lat":33.852119,"lng":132.788524},{"code":"38201118102","name":"祝谷２丁目","lat":33.855437,"lng":132.78032},{"code":"38201118103","name":"祝谷３丁目","lat":33.855464,"lng":132.775549},{"code":"38201118104","name":"祝谷４丁目","lat":33.858192,"lng":132.776905},{"code":"38201118105","name":"祝谷５丁目","lat":33.858179,"lng":132.779253},{"code":"382011182","name":"祝谷","lat":33.862913,"lng":132.774866},{"code":"382011190","name":"祝谷東町","lat":33.859079,"lng":132.78703},{"code":"382011200","name":"祝谷西町","lat":33.860188,"lng":132.77211},{"code":"382011210","name":"山田町","lat":33.866488,"lng":132.780171},{"code":"382011220","name":"桜谷町","lat":33.854105,"lng":132.792149},{"code":"382011230","name":"道後北代","lat":33.852884,"lng":132.777789},{"code":"382011240","name":"道後今市","lat":33.850444,"lng":132.777507},{"code":"382011250","name":"道後樋又","lat":33.852369,"lng":132.772357},{"code":"382011260","name":"道後一万","lat":33.848305,"lng":132.777261},{"code":"382011270","name":"北斎院町","lat":33.838982,"lng":132.725232},{"code":"382011280","name":"別府町","lat":33.846028,"lng":132.720699},{"code":"382011290","name":"南斎院町","lat":33.835383,"lng":132.732679},{"code":"382011300","name":"山西町","lat":33.851557,"lng":132.727181},{"code":"382011311","name":"清住","lat":33.854166,"lng":132.717717},{"code":"382011312","name":"清住","lat":33.851104,"lng":132.717855},{"code":"38201132101","name":"大可賀１丁目","lat":33.854302,"lng":132.714469},{"code":"38201132102","name":"大可賀２丁目","lat":33.851605,"lng":132.714437},{"code":"382011322","name":"大可賀","lat":33.849033,"lng":132.705308},{"code":"382011330","name":"海岸通","lat":33.857207,"lng":132.710717},{"code":"382011340","name":"北吉田町","lat":33.837424,"lng":132.705117},{"code":"382011350","name":"久保田町","lat":33.822205,"lng":132.720622},{"code":"382011360","name":"高岡町","lat":33.830979,"lng":132.719218},{"code":"382011370","name":"南吉田町","lat":33.826344,"lng":132.703313},{"code":"382011380","name":"西垣生町","lat":33.81319,"lng":132.698882},{"code":"382011390","name":"東垣生町","lat":33.813624,"lng":132.713989},{"code":"382011401","name":"桜ヶ丘","lat":33.868996,"lng":132.727079},{"code":"382011402","name":"桜ヶ丘","lat":33.871918,"lng":132.728594},{"code":"382011411","name":"東山町","lat":33.864391,"lng":132.731317},{"code":"382011412","name":"東山町","lat":33.865869,"lng":132.733432},{"code":"382011420","name":"会津町","lat":33.862502,"lng":132.72645},{"code":"382011430","name":"高山町","lat":33.867677,"lng":132.725044},{"code":"382011440","name":"辰巳町","lat":33.867114,"lng":132.718523},{"code":"38201145001","name":"中須賀１丁目","lat":33.864631,"lng":132.724058},{"code":"38201145002","name":"中須賀２丁目","lat":33.866548,"lng":132.722594},{"code":"38201145003","name":"中須賀３丁目","lat":33.865694,"lng":132.720597},{"code":"382011460","name":"春美町","lat":33.868904,"lng":132.72189},{"code":"38201147001","name":"祓川１丁目","lat":33.858356,"lng":132.720917},{"code":"38201147002","name":"祓川２丁目","lat":33.860974,"lng":132.721104},{"code":"382011480","name":"ひばりケ丘","lat":33.862363,"lng":132.730522},{"code":"382011490","name":"三杉町","lat":33.863328,"lng":132.720964},{"code":"382011500","name":"吉野町","lat":33.862169,"lng":132.73351},{"code":"382011510","name":"内浜町","lat":33.865799,"lng":132.727318},{"code":"382011520","name":"明神丘","lat":33.854469,"lng":132.728308},{"code":"38201153101","name":"古三津１丁目","lat":33.859503,"lng":132.724319},{"code":"38201153102","name":"古三津２丁目","lat":33.858913,"lng":132.727389},{"code":"38201153103","name":"古三津３丁目","lat":33.85876,"lng":132.731291},{"code":"38201153105","name":"古三津５丁目","lat":33.855826,"lng":132.726527},{"code":"38201153106","name":"古三津６丁目","lat":33.856258,"lng":132.721466},{"code":"382011532","name":"古三津","lat":33.855253,"lng":132.732425},{"code":"382011540","name":"古三津町","lat":33.853446,"lng":132.729571},{"code":"382011550","name":"みどりケ丘","lat":33.858664,"lng":132.733642},{"code":"382011560","name":"梅田町","lat":33.859531,"lng":132.713948},{"code":"382011570","name":"神田町","lat":33.861462,"lng":132.717781},{"code":"38201158001","name":"住吉１丁目","lat":33.863868,"lng":132.717988},{"code":"38201158002","name":"住吉２丁目","lat":33.864202,"lng":132.715415},{"code":"38201159001","name":"三津１丁目","lat":33.865717,"lng":132.711574},{"code":"38201159002","name":"三津２丁目","lat":33.863633,"lng":132.712067},{"code":"38201159003","name":"三津３丁目","lat":33.861509,"lng":132.713451},{"code":"382011600","name":"元町","lat":33.859458,"lng":132.717382},{"code":"382011610","name":"須賀町","lat":33.85793,"lng":132.715941},{"code":"382011620","name":"松江町","lat":33.856219,"lng":132.714354},{"code":"382011630","name":"若葉町","lat":33.856219,"lng":132.717564},{"code":"382011640","name":"三津ふ頭","lat":33.864784,"lng":132.708252},{"code":"382011651","name":"石風呂町","lat":33.870665,"lng":132.71676},{"code":"382011652","name":"石風呂町","lat":33.877821,"lng":132.716038},{"code":"382011661","name":"新浜町","lat":33.87151,"lng":132.713198},{"code":"382011662","name":"新浜町","lat":33.875863,"lng":132.712624},{"code":"38201167001","name":"高浜町１丁目","lat":33.88041,"lng":132.703975},{"code":"38201167002","name":"高浜町２丁目","lat":33.884165,"lng":132.703339},{"code":"38201167003","name":"高浜町３丁目","lat":33.885545,"lng":132.702414},{"code":"38201167004","name":"高浜町４丁目","lat":33.885663,"lng":132.704262},{"code":"38201167005","name":"高浜町５丁目","lat":33.885932,"lng":132.707159},{"code":"38201167006","name":"高浜町６丁目","lat":33.89448,"lng":132.711019},{"code":"382011680","name":"梅津寺町","lat":33.876165,"lng":132.708337},{"code":"382011691","name":"松ノ木","lat":33.870051,"lng":132.719341},{"code":"382011692","name":"松ノ木","lat":33.875473,"lng":132.723496},{"code":"382011700","name":"港山町","lat":33.8686,"lng":132.713557},{"code":"382011710","name":"安城寺町","lat":33.877923,"lng":132.740756},{"code":"382011720","name":"久万ノ台","lat":33.859752,"lng":132.742358},{"code":"382011730","name":"高木町","lat":33.884129,"lng":132.744893},{"code":"382011740","name":"西長戸町","lat":33.86718,"lng":132.741645},{"code":"38201175001","name":"東長戸１丁目","lat":33.867702,"lng":132.753596},{"code":"38201175002","name":"東長戸２丁目","lat":33.867063,"lng":132.748988},{"code":"38201175003","name":"東長戸３丁目","lat":33.870412,"lng":132.749068},{"code":"38201175004","name":"東長戸４丁目","lat":33.870212,"lng":132.752813},{"code":"38201176001","name":"鴨川１丁目","lat":33.873578,"lng":132.753364},{"code":"38201176002","name":"鴨川２丁目","lat":33.873935,"lng":132.750935},{"code":"38201176003","name":"鴨川３丁目","lat":33.873972,"lng":132.748449},{"code":"382011770","name":"船ケ谷町","lat":33.8717,"lng":132.734225},{"code":"382011780","name":"志津川町","lat":33.878863,"lng":132.747235},{"code":"382011790","name":"谷町","lat":33.879923,"lng":132.757754},{"code":"382011800","name":"平田町","lat":33.887036,"lng":132.754013},{"code":"38201181101","name":"吉藤１丁目","lat":33.870875,"lng":132.763165},{"code":"38201181102","name":"吉藤２丁目","lat":33.870001,"lng":132.759549},{"code":"38201181103","name":"吉藤３丁目","lat":33.870733,"lng":132.756346},{"code":"38201181104","name":"吉藤４丁目","lat":33.874068,"lng":132.756171},{"code":"38201181105","name":"吉藤５丁目","lat":33.874395,"lng":132.762293},{"code":"38201181201","name":"吉藤１丁目","lat":33.870015,"lng":132.766486},{"code":"38201181205","name":"吉藤５丁目","lat":33.878532,"lng":132.77453},{"code":"38201182001","name":"白水台１丁目","lat":33.873544,"lng":132.780706},{"code":"38201182002","name":"白水台２丁目","lat":33.874034,"lng":132.7791},{"code":"38201182003","name":"白水台３丁目","lat":33.877322,"lng":132.779744},{"code":"38201182004","name":"白水台４丁目","lat":33.876562,"lng":132.781329},{"code":"38201182005","name":"白水台５丁目","lat":33.872034,"lng":132.778191},{"code":"38201182006","name":"白水台６丁目","lat":33.874493,"lng":132.777268},{"code":"382011830","name":"馬木町","lat":33.89201,"lng":132.743725},{"code":"382011840","name":"勝岡町","lat":33.900215,"lng":132.721677},{"code":"382011850","name":"太山寺町","lat":33.886686,"lng":132.725776},{"code":"38201186001","name":"和気町１丁目","lat":33.893364,"lng":132.738066},{"code":"38201186002","name":"和気町２丁目","lat":33.899999,"lng":132.734439},{"code":"382011870","name":"内宮町","lat":33.89412,"lng":132.749303},{"code":"382011880","name":"権現町","lat":33.894294,"lng":132.773771},{"code":"382011890","name":"東大栗町","lat":33.903935,"lng":132.783516},{"code":"382011900","name":"福角町","lat":33.897796,"lng":132.761813},{"code":"382011910","name":"堀江町","lat":33.907113,"lng":132.753991},{"code":"38201192001","name":"保免上１丁目","lat":33.818503,"lng":132.752081},{"code":"38201192002","name":"保免上２丁目","lat":33.816155,"lng":132.751531},{"code":"38201193001","name":"保免中１丁目","lat":33.81853,"lng":132.747268},{"code":"38201193002","name":"保免中２丁目","lat":33.816651,"lng":132.747764},{"code":"38201193003","name":"保免中３丁目","lat":33.814231,"lng":132.747176},{"code":"38201194001","name":"保免西１丁目","lat":33.81779,"lng":132.744298},{"code":"38201194002","name":"保免西２丁目","lat":33.817234,"lng":132.741781},{"code":"38201194003","name":"保免西３丁目","lat":33.813854,"lng":132.744211},{"code":"38201194004","name":"保免西４丁目","lat":33.812771,"lng":132.741858},{"code":"38201196001","name":"余戸南１丁目","lat":33.811324,"lng":132.738296},{"code":"38201196002","name":"余戸南２丁目","lat":33.808732,"lng":132.733509},{"code":"38201196003","name":"余戸南３丁目","lat":33.809391,"lng":132.730846},{"code":"38201196004","name":"余戸南４丁目","lat":33.809486,"lng":132.727951},{"code":"38201196005","name":"余戸南５丁目","lat":33.809541,"lng":132.725037},{"code":"38201196006","name":"余戸南６丁目","lat":33.810311,"lng":132.721797},{"code":"38201197001","name":"余戸東１丁目","lat":33.814329,"lng":132.737912},{"code":"38201197002","name":"余戸東２丁目","lat":33.813669,"lng":132.734705},{"code":"38201197003","name":"余戸東３丁目","lat":33.81293,"lng":132.732599},{"code":"38201197004","name":"余戸東４丁目","lat":33.817258,"lng":132.736179},{"code":"38201197005","name":"余戸東５丁目","lat":33.817433,"lng":132.739059},{"code":"38201198001","name":"余戸中１丁目","lat":33.814438,"lng":132.731682},{"code":"38201198002","name":"余戸中２丁目","lat":33.813535,"lng":132.729873},{"code":"38201198003","name":"余戸中３丁目","lat":33.813619,"lng":132.727581},{"code":"38201198004","name":"余戸中４丁目","lat":33.817605,"lng":132.728073},{"code":"38201198005","name":"余戸中５丁目","lat":33.817547,"lng":132.731227},{"code":"38201198006","name":"余戸中６丁目","lat":33.818029,"lng":132.734009},{"code":"38201199001","name":"余戸西１丁目","lat":33.813529,"lng":132.725177},{"code":"38201199002","name":"余戸西２丁目","lat":33.813516,"lng":132.722743},{"code":"38201199003","name":"余戸西３丁目","lat":33.813466,"lng":132.720377},{"code":"38201199004","name":"余戸西４丁目","lat":33.817387,"lng":132.720482},{"code":"38201199005","name":"余戸西５丁目","lat":33.817435,"lng":132.722821},{"code":"38201199006","name":"余戸西６丁目","lat":33.81743,"lng":132.725058},{"code":"382012000","name":"出合","lat":33.807262,"lng":132.727371},{"code":"382012010","name":"由良町","lat":33.906773,"lng":132.672251},{"code":"382012020","name":"門田町","lat":33.915592,"lng":132.689626},{"code":"382012030","name":"泊町","lat":33.883716,"lng":132.669091},{"code":"382012040","name":"北久米町","lat":33.821611,"lng":132.801731},{"code":"382012050","name":"来住町","lat":33.806062,"lng":132.8002},{"code":"382012060","name":"久米窪田町","lat":33.804659,"lng":132.812471},{"code":"382012070","name":"高井町","lat":33.79632,"lng":132.815842},{"code":"382012080","name":"福音寺町","lat":33.822018,"lng":132.790018},{"code":"382012090","name":"南久米町","lat":33.820852,"lng":132.807897},{"code":"382012100","name":"南土居町","lat":33.79825,"lng":132.801829},{"code":"382012110","name":"鷹子町","lat":33.817863,"lng":132.813921},{"code":"382012120","name":"杉立町","lat":33.863605,"lng":132.846023},{"code":"382012130","name":"宿野町","lat":33.873722,"lng":132.837426},{"code":"382012140","name":"湯山柳","lat":33.887324,"lng":132.834874},{"code":"382012150","name":"末町","lat":33.87123,"lng":132.824786},{"code":"382012160","name":"食場町","lat":33.850898,"lng":132.826699},{"code":"382012170","name":"上高野町","lat":33.858368,"lng":132.812216},{"code":"382012180","name":"高野町","lat":33.854697,"lng":132.812713},{"code":"382012190","name":"溝辺町","lat":33.851186,"lng":132.809023},{"code":"38201220001","name":"湯の山１丁目","lat":33.86775,"lng":132.813868},{"code":"38201220002","name":"湯の山２丁目","lat":33.870268,"lng":132.813706},{"code":"38201220003","name":"湯の山３丁目","lat":33.871829,"lng":132.815464},{"code":"38201220004","name":"湯の山４丁目","lat":33.869075,"lng":132.815545},{"code":"38201220005","name":"湯の山５丁目","lat":33.869876,"lng":132.817206},{"code":"38201220006","name":"湯の山６丁目","lat":33.867141,"lng":132.817429},{"code":"38201220007","name":"湯の山７丁目","lat":33.869015,"lng":132.819083},{"code":"38201220008","name":"湯の山８丁目","lat":33.87226,"lng":132.817511},{"code":"382012210","name":"米野町","lat":33.927419,"lng":132.905025},{"code":"382012220","name":"大井野町","lat":33.905534,"lng":132.899014},{"code":"382012230","name":"川の郷町","lat":33.868482,"lng":132.871242},{"code":"382012240","name":"福見川町","lat":33.888246,"lng":132.881331},{"code":"382012250","name":"東川町","lat":33.907805,"lng":132.875819},{"code":"382012260","name":"河中町","lat":33.900487,"lng":132.876036},{"code":"382012270","name":"水口町","lat":33.905398,"lng":132.861472},{"code":"382012280","name":"藤野町","lat":33.895656,"lng":132.856516},{"code":"382012290","name":"青波町","lat":33.882518,"lng":132.854018},{"code":"382012300","name":"玉谷町","lat":33.894517,"lng":132.844723},{"code":"382012310","name":"下伊台町","lat":33.873891,"lng":132.800825},{"code":"382012320","name":"上伊台町","lat":33.889871,"lng":132.806352},{"code":"382012330","name":"菅沢町","lat":33.905503,"lng":132.811946},{"code":"382012340","name":"小屋町","lat":33.912201,"lng":132.834863},{"code":"382012350","name":"神次郎町","lat":33.903458,"lng":132.835656},{"code":"382012360","name":"城山町","lat":33.910289,"lng":132.824338},{"code":"382012370","name":"柳谷町","lat":33.924755,"lng":132.829442},{"code":"382012380","name":"恩地町","lat":33.917952,"lng":132.835008},{"code":"382012390","name":"梅木町","lat":33.916895,"lng":132.849272},{"code":"382012400","name":"上総町","lat":33.907748,"lng":132.854443},{"code":"382012410","name":"小野町","lat":33.850653,"lng":132.858224},{"code":"382012420","name":"北梅本町","lat":33.823821,"lng":132.859242},{"code":"382012430","name":"南梅本町","lat":33.800722,"lng":132.840761},{"code":"382012440","name":"水泥町","lat":33.802961,"lng":132.826999},{"code":"382012450","name":"平井町","lat":33.823291,"lng":132.835115},{"code":"382012460","name":"井門町","lat":33.79745,"lng":132.777199},{"code":"382012470","name":"南高井町","lat":33.789274,"lng":132.813086},{"code":"382012480","name":"森松町","lat":33.790318,"lng":132.79309},{"code":"382012490","name":"東方町","lat":33.762843,"lng":132.825505},{"code":"382012500","name":"津吉町","lat":33.767342,"lng":132.836203},{"code":"382012510","name":"中野町","lat":33.778069,"lng":132.828501},{"code":"382012520","name":"大橋町","lat":33.782699,"lng":132.811114},{"code":"382012530","name":"小村町","lat":33.778989,"lng":132.815078},{"code":"382012540","name":"上川原町","lat":33.778577,"lng":132.811806},{"code":"382012550","name":"西野町","lat":33.761866,"lng":132.802381},{"code":"382012560","name":"上野町","lat":33.773801,"lng":132.802754},{"code":"382012570","name":"恵原町","lat":33.76372,"lng":132.811004},{"code":"382012580","name":"浄瑠璃町","lat":33.749807,"lng":132.814502},{"code":"382012590","name":"久谷町","lat":33.715472,"lng":132.835765},{"code":"382012600","name":"窪野町","lat":33.734858,"lng":132.853582},{"code":"38201261101","name":"天山町１丁目","lat":33.822525,"lng":132.777971},{"code":"38201261102","name":"天山町２丁目","lat":33.820316,"lng":132.779087},{"code":"38201261103","name":"天山町３丁目","lat":33.820418,"lng":132.775035},{"code":"382012612","name":"天山町","lat":33.822212,"lng":132.780081},{"code":"38201262101","name":"朝生田町１丁目","lat":33.82328,"lng":132.773298},{"code":"38201262102","name":"朝生田町２丁目","lat":33.823207,"lng":132.769578},{"code":"38201262103","name":"朝生田町３丁目","lat":33.823256,"lng":132.766645},{"code":"38201262104","name":"朝生田町４丁目","lat":33.823086,"lng":132.763751},{"code":"38201262105","name":"朝生田町５丁目","lat":33.82062,"lng":132.771319},{"code":"38201262106","name":"朝生田町６丁目","lat":33.820624,"lng":132.767195},{"code":"38201262107","name":"朝生田町７丁目","lat":33.820644,"lng":132.762542},{"code":"38201263101","name":"今在家１丁目","lat":33.80916,"lng":132.791439},{"code":"38201263102","name":"今在家２丁目","lat":33.806838,"lng":132.79166},{"code":"38201263103","name":"今在家３丁目","lat":33.804913,"lng":132.791822},{"code":"38201263104","name":"今在家４丁目","lat":33.802427,"lng":132.791783},{"code":"382012632","name":"今在家町","lat":33.808764,"lng":132.794372},{"code":"38201264101","name":"居相１丁目","lat":33.810414,"lng":132.774164},{"code":"38201264102","name":"居相２丁目","lat":33.810191,"lng":132.771416},{"code":"38201264103","name":"居相３丁目","lat":33.810214,"lng":132.769198},{"code":"38201264104","name":"居相４丁目","lat":33.807699,"lng":132.770286},{"code":"38201264105","name":"居相５丁目","lat":33.807871,"lng":132.773868},{"code":"38201264106","name":"居相６丁目","lat":33.805561,"lng":132.770723},{"code":"38201265001","name":"越智１丁目","lat":33.808229,"lng":132.787075},{"code":"38201265002","name":"越智２丁目","lat":33.809741,"lng":132.784431},{"code":"38201265003","name":"越智３丁目","lat":33.810012,"lng":132.781848},{"code":"38201266001","name":"北土居１丁目","lat":33.806023,"lng":132.787696},{"code":"38201266002","name":"北土居２丁目","lat":33.802932,"lng":132.787571},{"code":"38201266003","name":"北土居３丁目","lat":33.803285,"lng":132.7844},{"code":"38201266004","name":"北土居４丁目","lat":33.80663,"lng":132.783563},{"code":"38201266005","name":"北土居５丁目","lat":33.807655,"lng":132.779194},{"code":"38201267001","name":"北井門１丁目","lat":33.805456,"lng":132.779609},{"code":"38201267002","name":"北井門２丁目","lat":33.803121,"lng":132.780286},{"code":"38201267003","name":"北井門３丁目","lat":33.805536,"lng":132.774983},{"code":"38201267004","name":"北井門４丁目","lat":33.80336,"lng":132.77513},{"code":"38201267005","name":"北井門５丁目","lat":33.803507,"lng":132.770363},{"code":"382012680","name":"土居町","lat":33.798144,"lng":132.791534},{"code":"38201269001","name":"西石井１丁目","lat":33.817424,"lng":132.773756},{"code":"38201269002","name":"西石井２丁目","lat":33.817656,"lng":132.77147},{"code":"38201269003","name":"西石井３丁目","lat":33.817816,"lng":132.769251},{"code":"38201269004","name":"西石井４丁目","lat":33.813852,"lng":132.769058},{"code":"38201269005","name":"西石井５丁目","lat":33.813702,"lng":132.771424},{"code":"38201269006","name":"西石井６丁目","lat":33.813652,"lng":132.773954},{"code":"38201270101","name":"東石井１丁目","lat":33.818873,"lng":132.780158},{"code":"38201270102","name":"東石井２丁目","lat":33.816731,"lng":132.779713},{"code":"38201270103","name":"東石井３丁目","lat":33.814765,"lng":132.780383},{"code":"38201270104","name":"東石井４丁目","lat":33.812462,"lng":132.780822},{"code":"38201270105","name":"東石井５丁目","lat":33.815907,"lng":132.77617},{"code":"38201270106","name":"東石井６丁目","lat":33.811315,"lng":132.777417},{"code":"38201270107","name":"東石井７丁目","lat":33.807735,"lng":132.776204},{"code":"38201271101","name":"星岡１丁目","lat":33.818061,"lng":132.787237},{"code":"38201271102","name":"星岡２丁目","lat":33.818304,"lng":132.783936},{"code":"38201271103","name":"星岡３丁目","lat":33.815012,"lng":132.784604},{"code":"38201271104","name":"星岡４丁目","lat":33.813157,"lng":132.786867},{"code":"38201271105","name":"星岡５丁目","lat":33.810815,"lng":132.787162},{"code":"382012712","name":"星岡町","lat":33.81183,"lng":132.788596},{"code":"382012713","name":"星岡","lat":33.817598,"lng":132.789106},{"code":"38201272001","name":"和泉北１丁目","lat":33.82348,"lng":132.759707},{"code":"38201272002","name":"和泉北２丁目","lat":33.823809,"lng":132.756116},{"code":"38201272003","name":"和泉北３丁目","lat":33.81981,"lng":132.757073},{"code":"38201272004","name":"和泉北４丁目","lat":33.818605,"lng":132.759982},{"code":"38201273001","name":"和泉南１丁目","lat":33.818211,"lng":132.764782},{"code":"38201273002","name":"和泉南２丁目","lat":33.81642,"lng":132.763676},{"code":"38201273003","name":"和泉南３丁目","lat":33.816549,"lng":132.758323},{"code":"38201273004","name":"和泉南４丁目","lat":33.81463,"lng":132.757935},{"code":"38201273005","name":"和泉南５丁目","lat":33.813008,"lng":132.757782},{"code":"38201273006","name":"和泉南６丁目","lat":33.811414,"lng":132.758602},{"code":"38201274001","name":"市坪北１丁目","lat":33.813404,"lng":132.753639},{"code":"38201274002","name":"市坪北２丁目","lat":33.812719,"lng":132.750947},{"code":"38201275001","name":"市坪南１丁目","lat":33.809469,"lng":132.75375},{"code":"38201275002","name":"市坪南２丁目","lat":33.809263,"lng":132.750885},{"code":"38201275003","name":"市坪南３丁目","lat":33.806215,"lng":132.752167},{"code":"382012760","name":"市坪西町","lat":33.808313,"lng":132.743304},{"code":"38201277001","name":"古川北１丁目","lat":33.814929,"lng":132.764717},{"code":"38201277002","name":"古川北２丁目","lat":33.812726,"lng":132.764327},{"code":"38201277003","name":"古川北３丁目","lat":33.810961,"lng":132.764353},{"code":"38201277004","name":"古川北４丁目","lat":33.809448,"lng":132.764338},{"code":"38201278001","name":"古川南１丁目","lat":33.807864,"lng":132.764579},{"code":"38201278002","name":"古川南２丁目","lat":33.806342,"lng":132.764364},{"code":"38201278003","name":"古川南３丁目","lat":33.803223,"lng":132.763136},{"code":"38201279001","name":"古川西１丁目","lat":33.810318,"lng":132.75736},{"code":"38201279002","name":"古川西２丁目","lat":33.808665,"lng":132.757759},{"code":"38201279003","name":"古川西３丁目","lat":33.805583,"lng":132.757044},{"code":"38201281001","name":"湯の山東１丁目","lat":33.872173,"lng":132.818904},{"code":"38201281002","name":"湯の山東２丁目","lat":33.872612,"lng":132.820604},{"code":"38201281003","name":"湯の山東３丁目","lat":33.874218,"lng":132.820467},{"code":"38201281004","name":"湯の山東４丁目","lat":33.872671,"lng":132.822398},{"code":"38201281005","name":"湯の山東５丁目","lat":33.870638,"lng":132.821321},{"code":"382012820","name":"祝谷町","lat":33.855643,"lng":132.785114},{"code":"382012830","name":"青葉台","lat":33.857695,"lng":132.735329},{"code":"38201284001","name":"南白水１丁目","lat":33.86522,"lng":132.7855},{"code":"38201284002","name":"南白水２丁目","lat":33.868203,"lng":132.786259},{"code":"38201284003","name":"南白水３丁目","lat":33.866376,"lng":132.787989},{"code":"382012850","name":"萩原","lat":33.994862,"lng":132.818813},{"code":"382012860","name":"浅海本谷","lat":34.007292,"lng":132.810644},{"code":"382012870","name":"浅海原","lat":34.001857,"lng":132.795153},{"code":"382012880","name":"才之原","lat":33.972642,"lng":132.822091},{"code":"382012890","name":"滝本","lat":33.96657,"lng":132.831117},{"code":"382012900","name":"猪木","lat":33.961297,"lng":132.833953},{"code":"382012910","name":"猿川","lat":33.972131,"lng":132.843879},{"code":"382012920","name":"立岩中村","lat":33.970289,"lng":132.856094},{"code":"382012930","name":"立岩米之野","lat":33.964062,"lng":132.862658},{"code":"382012940","name":"庄府","lat":33.981541,"lng":132.869109},{"code":"382012950","name":"儀式","lat":33.987784,"lng":132.856316},{"code":"382012960","name":"小山田","lat":33.991039,"lng":132.839551},{"code":"382012970","name":"猿川原","lat":33.977346,"lng":132.838659},{"code":"382012980","name":"尾儀原","lat":33.978746,"lng":132.827968},{"code":"382012990","name":"庄","lat":33.974262,"lng":132.803037},{"code":"382013000","name":"上難波","lat":33.987224,"lng":132.800757},{"code":"382013010","name":"中通","lat":33.980784,"lng":132.791559},{"code":"382013020","name":"下難波","lat":33.985994,"lng":132.78141},{"code":"382013030","name":"大浦","lat":33.99811,"lng":132.773715},{"code":"382013040","name":"八反地","lat":33.964749,"lng":132.792767},{"code":"382013050","name":"中西内","lat":33.972213,"lng":132.786094},{"code":"382013060","name":"中西外","lat":33.963919,"lng":132.783977},{"code":"382013070","name":"高田","lat":33.96357,"lng":132.802158},{"code":"382013080","name":"正岡神田","lat":33.969421,"lng":132.809559},{"code":"382013090","name":"院内","lat":33.959125,"lng":132.814773},{"code":"382013100","name":"北条","lat":33.978345,"lng":132.778782},{"code":"382013110","name":"北条辻","lat":33.969064,"lng":132.775311},{"code":"382013120","name":"安居島","lat":34.070317,"lng":132.707303},{"code":"382013130","name":"土手内","lat":33.970747,"lng":132.773023},{"code":"382013140","name":"河野別府","lat":33.953165,"lng":132.781939},{"code":"382013150","name":"府中","lat":33.955042,"lng":132.775144},{"code":"382013160","name":"柳原","lat":33.956523,"lng":132.771445},{"code":"382013170","name":"宮内","lat":33.953879,"lng":132.789844},{"code":"382013180","name":"善応寺","lat":33.950376,"lng":132.80006},{"code":"382013190","name":"横谷","lat":33.948413,"lng":132.818549},{"code":"382013200","name":"九川","lat":33.933566,"lng":132.857572},{"code":"382013210","name":"牛谷","lat":33.935359,"lng":132.813786},{"code":"382013220","name":"河野高山","lat":33.939694,"lng":132.802696},{"code":"382013230","name":"佐古","lat":33.941508,"lng":132.788937},{"code":"382013240","name":"常保免","lat":33.948327,"lng":132.785892},{"code":"382013250","name":"片山","lat":33.948982,"lng":132.776222},{"code":"382013260","name":"河野中須賀","lat":33.947086,"lng":132.770908},{"code":"382013270","name":"夏目","lat":33.943484,"lng":132.779424},{"code":"382013280","name":"光洋台","lat":33.921574,"lng":132.763102},{"code":"382013290","name":"小川","lat":33.921666,"lng":132.76791},{"code":"382013300","name":"磯河内","lat":33.928305,"lng":132.769117},{"code":"382013310","name":"鴨之池","lat":33.92997,"lng":132.771112},{"code":"382013320","name":"和田","lat":33.93239,"lng":132.769481},{"code":"382013330","name":"久保","lat":33.938496,"lng":132.769199},{"code":"382013340","name":"安岡","lat":33.931533,"lng":132.775319},{"code":"382013350","name":"粟井河原","lat":33.936225,"lng":132.767049},{"code":"382013360","name":"苞木","lat":33.940499,"lng":132.777172},{"code":"382013370","name":"鹿峰","lat":33.940233,"lng":132.77061},{"code":"382013380","name":"本谷","lat":33.93109,"lng":132.782911},{"code":"382013390","name":"常竹","lat":33.935772,"lng":132.779024},{"code":"382013400","name":"大西谷","lat":33.91241,"lng":132.787491},{"code":"382013410","name":"西谷","lat":33.922128,"lng":132.7823},{"code":"382013420","name":"平林","lat":33.927521,"lng":132.792478},{"code":"382013430","name":"客","lat":33.91568,"lng":132.795395},{"code":"382013440","name":"麓","lat":33.924839,"lng":132.805071},{"code":"382013450","name":"小川谷","lat":33.931664,"lng":132.791827},{"code":"382013460","name":"津和地","lat":33.980881,"lng":132.507783},{"code":"382013470","name":"元怒和","lat":33.977434,"lng":132.542296},{"code":"382013480","name":"上怒和","lat":33.985731,"lng":132.554633},{"code":"382013490","name":"二神","lat":33.910813,"lng":132.533369},{"code":"382013500","name":"饒","lat":33.992504,"lng":132.607576},{"code":"382013510","name":"吉木","lat":33.980332,"lng":132.603342},{"code":"382013520","name":"熊田","lat":33.969928,"lng":132.596739},{"code":"382013530","name":"宇和間","lat":33.966538,"lng":132.589064},{"code":"382013540","name":"畑里","lat":33.996695,"lng":132.628857},{"code":"382013550","name":"中島粟井","lat":33.997247,"lng":132.638895},{"code":"382013560","name":"中島大浦","lat":33.979258,"lng":132.626068},{"code":"382013570","name":"小浜","lat":33.964339,"lng":132.633729},{"code":"382013580","name":"長師","lat":33.96122,"lng":132.624097},{"code":"382013590","name":"宮野","lat":33.963566,"lng":132.61041},{"code":"382013600","name":"神浦","lat":33.953808,"lng":132.600714},{"code":"382013610","name":"睦月","lat":33.962133,"lng":132.661331},{"code":"382013620","name":"野忽那","lat":33.97051,"lng":132.690141}]}
