{"municipality":"38401","name":"伊予郡松前町","prefecture":"愛媛県","source":{"dataset":"frogcat/japan-small-area","census":"平成27年国勢調査 小地域（e-Stat 統計LOD）","license":"MIT（リポジトリ）／政府統計の総合窓口(e-Stat)の利用規約（元データ・出典表記必要）","fetched":"2026-07-06"},"towns":[{"code":"384010010","name":"大字南黒田","lat":33.774372,"lng":132.710705},{"code":"384010020","name":"大字北黒田","lat":33.779864,"lng":132.707751},{"code":"384010030","name":"大字浜","lat":33.785735,"lng":132.706399},{"code":"384010040","name":"大字筒井","lat":33.790125,"lng":132.702976},{"code":"384010050","name":"大字徳丸","lat":33.792594,"lng":132.761179},{"code":"384010060","name":"大字中川原","lat":33.799794,"lng":132.751645},{"code":"384010070","name":"大字出作","lat":33.790106,"lng":132.749735},{"code":"384010080","name":"大字神崎","lat":33.789515,"lng":132.741094},{"code":"384010090","name":"大字鶴吉","lat":33.782216,"lng":132.738428},{"code":"384010100","name":"大字横田","lat":33.777,"lng":132.728386},{"code":"384010110","name":"大字大溝","lat":33.781908,"lng":132.724263},{"code":"384010120","name":"大字永田","lat":33.788128,"lng":132.726265},{"code":"384010130","name":"大字東古泉","lat":33.786357,"lng":132.718686},{"code":"384010140","name":"大字大間","lat":33.800258,"lng":132.73896},{"code":"384010150","name":"大字上高柳","lat":33.799551,"lng":132.731356},{"code":"384010160","name":"大字恵久美","lat":33.793207,"lng":132.727728},{"code":"384010170","name":"大字昌農内","lat":33.800011,"lng":132.7199},{"code":"384010180","name":"大字西高柳","lat":33.805092,"lng":132.721006},{"code":"384010190","name":"大字西古泉","lat":33.794436,"lng":132.714486},{"code":"384010200","name":"大字北川原","lat":33.801549,"lng":132.702256}]}
