{"municipality":"39205","name":"土佐市","prefecture":"高知県","source":{"dataset":"frogcat/japan-small-area","census":"平成27年国勢調査 小地域（e-Stat 統計LOD）","license":"MIT（リポジトリ）／政府統計の総合窓口(e-Stat)の利用規約（元データ・出典表記必要）","fetched":"2026-07-06"},"towns":[{"code":"392050010","name":"宇佐町宇佐","lat":33.453511,"lng":133.44087},{"code":"392050020","name":"宇佐町福島","lat":33.441643,"lng":133.435415},{"code":"392050030","name":"宇佐町井尻","lat":33.430898,"lng":133.441542},{"code":"392050040","name":"宇佐町竜","lat":33.426543,"lng":133.45127},{"code":"392050050","name":"新居","lat":33.463607,"lng":133.460899},{"code":"392050060","name":"中島","lat":33.491439,"lng":133.448347},{"code":"392050070","name":"塚地","lat":33.474098,"lng":133.439839},{"code":"392050080","name":"用石","lat":33.48423,"lng":133.448947},{"code":"39205010001","name":"高岡町甲","lat":33.493386,"lng":133.431986},{"code":"39205010002","name":"高岡町乙","lat":33.503306,"lng":133.418034},{"code":"39205010003","name":"高岡町丙","lat":33.505433,"lng":133.433603},{"code":"39205010004","name":"高岡町丁","lat":33.512744,"lng":133.407858},{"code":"392050130","name":"蓮池","lat":33.489886,"lng":133.406998},{"code":"392050140","name":"波介","lat":33.475568,"lng":133.415686},{"code":"392050150","name":"出間","lat":33.468772,"lng":133.391358},{"code":"392050160","name":"岩戸","lat":33.473269,"lng":133.380981},{"code":"392050170","name":"北地","lat":33.492907,"lng":133.386745},{"code":"392050180","name":"甲原","lat":33.489305,"lng":133.362249},{"code":"392050190","name":"福田","lat":33.503263,"lng":133.370892},{"code":"392050200","name":"谷地","lat":33.490915,"lng":133.334431},{"code":"392050210","name":"市野々","lat":33.44733,"lng":133.322955},{"code":"392050220","name":"鷹ノ巣","lat":33.447673,"lng":133.345028},{"code":"392050230","name":"家俊","lat":33.46017,"lng":133.349091},{"code":"392050240","name":"積善寺","lat":33.475111,"lng":133.332302},{"code":"392050250","name":"永野","lat":33.464264,"lng":133.322267},{"code":"392050260","name":"宮ノ内","lat":33.479018,"lng":133.347511},{"code":"392050270","name":"本村","lat":33.470476,"lng":133.369535},{"code":"392050280","name":"太郎丸","lat":33.461349,"lng":133.361408},{"code":"392050290","name":"西鴨地","lat":33.469761,"lng":133.351417},{"code":"392050300","name":"東鴨地","lat":33.47671,"lng":133.365665},{"code":"392050310","name":"浅井","lat":33.45706,"lng":133.374239}]}
