{"municipality":"39341","name":"長岡郡本山町","prefecture":"高知県","source":{"dataset":"frogcat/japan-small-area","census":"平成27年国勢調査 小地域（e-Stat 統計LOD）","license":"MIT（リポジトリ）／政府統計の総合窓口(e-Stat)の利用規約（元データ・出典表記必要）","fetched":"2026-07-06"},"towns":[{"code":"39341001001","name":"本山一区","lat":33.755625,"lng":133.594331},{"code":"39341001002","name":"本山二区","lat":33.755617,"lng":133.588839},{"code":"39341001003","name":"本山三区","lat":33.758682,"lng":133.59155},{"code":"39341001004","name":"本山四区","lat":33.755205,"lng":133.582046},{"code":"39341001005","name":"本山五区","lat":33.75215,"lng":133.574411},{"code":"39341001006","name":"本山","lat":33.759848,"lng":133.613806},{"code":"393410070","name":"大石","lat":33.743372,"lng":133.589392},{"code":"393410080","name":"吉延","lat":33.742478,"lng":133.607418},{"code":"393410090","name":"下津野","lat":33.760805,"lng":133.599843},{"code":"393410100","name":"井窪","lat":33.755381,"lng":133.603766},{"code":"393410110","name":"高角","lat":33.747968,"lng":133.60784},{"code":"393410120","name":"古田","lat":33.744639,"lng":133.618927},{"code":"393410130","name":"木能津","lat":33.730436,"lng":133.611464},{"code":"393410140","name":"助藤","lat":33.764785,"lng":133.63373},{"code":"393410150","name":"下関","lat":33.79918,"lng":133.623678},{"code":"39341016001","name":"上関甲","lat":33.795713,"lng":133.601316},{"code":"39341016002","name":"上関乙","lat":33.773461,"lng":133.630418},{"code":"39341018001","name":"北山甲","lat":33.77158,"lng":133.602357},{"code":"39341018002","name":"北山丙","lat":33.767501,"lng":133.583443},{"code":"39341018003","name":"北山乙","lat":33.783256,"lng":133.593806},{"code":"393410200","name":"寺家","lat":33.756713,"lng":133.569001},{"code":"393410210","name":"吉野","lat":33.756854,"lng":133.555281},{"code":"393410220","name":"立野","lat":33.767702,"lng":133.552756},{"code":"393410230","name":"坂本","lat":33.769015,"lng":133.562162},{"code":"393410240","name":"屋所","lat":33.784874,"lng":133.548428},{"code":"393410250","name":"沢ケ内","lat":33.78491,"lng":133.561927},{"code":"393410260","name":"瓜生野","lat":33.833095,"lng":133.554852},{"code":"393410270","name":"七戸","lat":33.809357,"lng":133.559778}]}
