{"municipality":"40211","name":"筑後市","prefecture":"福岡県","source":{"dataset":"frogcat/japan-small-area","census":"平成27年国勢調査 小地域（e-Stat 統計LOD）","license":"MIT（リポジトリ）／政府統計の総合窓口(e-Stat)の利用規約（元データ・出典表記必要）","fetched":"2026-07-06"},"towns":[{"code":"402110010","name":"大字和泉","lat":33.206644,"lng":130.494465},{"code":"402110020","name":"大字一条","lat":33.245874,"lng":130.510868},{"code":"402110030","name":"大字江口","lat":33.217989,"lng":130.465463},{"code":"402110040","name":"大字尾島","lat":33.186547,"lng":130.502443},{"code":"402110050","name":"大字折地","lat":33.192649,"lng":130.469653},{"code":"402110060","name":"大字上北島","lat":33.198255,"lng":130.49278},{"code":"402110070","name":"大字北長田","lat":33.184492,"lng":130.511724},{"code":"402110080","name":"大字久恵","lat":33.191908,"lng":130.518402},{"code":"402110090","name":"大字熊野","lat":33.228474,"lng":130.500625},{"code":"402110100","name":"大字蔵数","lat":33.236161,"lng":130.497046},{"code":"402110110","name":"大字古島","lat":33.197282,"lng":130.472867},{"code":"402110120","name":"大字四ケ所","lat":33.210895,"lng":130.461864},{"code":"402110130","name":"大字島田","lat":33.203752,"lng":130.469638},{"code":"402110140","name":"大字志","lat":33.187338,"lng":130.497645},{"code":"402110150","name":"大字下北島","lat":33.201114,"lng":130.483219},{"code":"402110160","name":"大字下妻","lat":33.175844,"lng":130.470706},{"code":"402110170","name":"大字庄島","lat":33.208002,"lng":130.479441},{"code":"402110180","name":"大字新溝","lat":33.197736,"lng":130.519989},{"code":"402110190","name":"大字井田","lat":33.199294,"lng":130.45854},{"code":"402110200","name":"大字高江","lat":33.22174,"lng":130.480174},{"code":"402110210","name":"大字津島","lat":33.179069,"lng":130.493844},{"code":"402110220","name":"大字常用","lat":33.187262,"lng":130.486377},{"code":"402110230","name":"大字鶴田","lat":33.193574,"lng":130.508209},{"code":"402110240","name":"大字徳久","lat":33.214274,"lng":130.506631},{"code":"402110250","name":"大字富重","lat":33.217646,"lng":130.479076},{"code":"402110260","name":"大字富久","lat":33.210787,"lng":130.470352},{"code":"402110270","name":"大字富安","lat":33.175182,"lng":130.457648},{"code":"402110280","name":"大字中折地","lat":33.188121,"lng":130.474309},{"code":"402110290","name":"大字中牟田","lat":33.187697,"lng":130.464929},{"code":"402110300","name":"大字長崎","lat":33.206797,"lng":130.484766},{"code":"402110310","name":"大字長浜","lat":33.20695,"lng":130.513449},{"code":"402110320","name":"大字西牟田","lat":33.234793,"lng":130.482951},{"code":"402110330","name":"大字野町","lat":33.19868,"lng":130.499896},{"code":"402110340","name":"大字羽犬塚","lat":33.21713,"lng":130.500253},{"code":"402110350","name":"大字久富","lat":33.222259,"lng":130.48952},{"code":"402110360","name":"大字前津","lat":33.223585,"lng":130.515118},{"code":"402110370","name":"大字馬間田","lat":33.182375,"lng":130.466521},{"code":"402110380","name":"大字水田","lat":33.193773,"lng":130.486887},{"code":"402110390","name":"大字溝口","lat":33.186291,"lng":130.524492},{"code":"402110400","name":"大字山ノ井","lat":33.209363,"lng":130.501976},{"code":"402110410","name":"大字若菜","lat":33.213145,"lng":130.484542}]}
