{"municipality":"40344","name":"糟屋郡須恵町","prefecture":"福岡県","source":{"dataset":"frogcat/japan-small-area","census":"平成27年国勢調査 小地域（e-Stat 統計LOD）","license":"MIT（リポジトリ）／政府統計の総合窓口(e-Stat)の利用規約（元データ・出典表記必要）","fetched":"2026-07-06"},"towns":[{"code":"403440010","name":"大字須恵","lat":33.595691,"lng":130.511385},{"code":"403440020","name":"大字上須恵","lat":33.589404,"lng":130.521034},{"code":"403440030","name":"大字新原","lat":33.580189,"lng":130.510924},{"code":"403440040","name":"大字植木","lat":33.603204,"lng":130.49973},{"code":"403440050","name":"大字旅石","lat":33.586607,"lng":130.498063},{"code":"403440060","name":"大字佐谷","lat":33.587576,"lng":130.539627}]}
