{"municipality":"40503","name":"三井郡大刀洗町","prefecture":"福岡県","source":{"dataset":"frogcat/japan-small-area","census":"平成27年国勢調査 小地域（e-Stat 統計LOD）","license":"MIT（リポジトリ）／政府統計の総合窓口(e-Stat)の利用規約（元データ・出典表記必要）","fetched":"2026-07-06"},"towns":[{"code":"405030010","name":"大字中川","lat":33.368211,"lng":130.608488},{"code":"405030020","name":"大字冨多","lat":33.370619,"lng":130.621056},{"code":"405030030","name":"大字菅野","lat":33.370535,"lng":130.634994},{"code":"405030040","name":"大字三川","lat":33.366058,"lng":130.648276},{"code":"405030050","name":"大字西原","lat":33.360583,"lng":130.636647},{"code":"405030060","name":"大字守部","lat":33.360121,"lng":130.631966},{"code":"405030070","name":"大字鵜木","lat":33.387935,"lng":130.593432},{"code":"405030080","name":"大字高樋","lat":33.389561,"lng":130.600013},{"code":"405030090","name":"大字山隈","lat":33.401687,"lng":130.60773},{"code":"405030100","name":"大字下高橋","lat":33.376999,"lng":130.586327},{"code":"405030110","name":"大字上高橋","lat":33.374624,"lng":130.600386},{"code":"405030120","name":"大字今","lat":33.369135,"lng":130.598541},{"code":"405030130","name":"大字甲条","lat":33.390606,"lng":130.612383},{"code":"405030140","name":"大字本郷","lat":33.383496,"lng":130.621742},{"code":"405030150","name":"大字春日","lat":33.378336,"lng":130.610191},{"code":"405030160","name":"大字栄田","lat":33.380367,"lng":130.636335}]}
