{"municipality":"40608","name":"田川郡大任町","prefecture":"福岡県","source":{"dataset":"frogcat/japan-small-area","census":"平成27年国勢調査 小地域（e-Stat 統計LOD）","license":"MIT（リポジトリ）／政府統計の総合窓口(e-Stat)の利用規約（元データ・出典表記必要）","fetched":"2026-07-06"},"towns":[{"code":"40608001001","name":"大字今任原皿山","lat":33.644144,"lng":130.845646},{"code":"40608001002","name":"大字今任原富士見ヶ丘","lat":33.642348,"lng":130.848953},{"code":"40608001003","name":"大字今任原不動","lat":33.644372,"lng":130.852611},{"code":"40608001004","name":"大字今任原道善","lat":33.637216,"lng":130.845489},{"code":"40608001005","name":"大字今任原玉川","lat":33.636904,"lng":130.854831},{"code":"40608001006","name":"大字今任原下今任","lat":33.632318,"lng":130.839931},{"code":"40608001007","name":"大字今任原桑原","lat":33.63088,"lng":130.847801},{"code":"40608001008","name":"大字今任原峰","lat":33.627039,"lng":130.851525},{"code":"40608001009","name":"大字今任原向田","lat":33.622963,"lng":130.844848},{"code":"40608001010","name":"大字今任原上今任","lat":33.618014,"lng":130.851742},{"code":"40608001011","name":"大字今任原池本","lat":33.620805,"lng":130.858154},{"code":"40608002001","name":"大字大行事安永","lat":33.611042,"lng":130.843632},{"code":"40608002002","name":"大字大行事柿原","lat":33.610667,"lng":130.857746},{"code":"40608002003","name":"大字大行事柿原町住","lat":33.612791,"lng":130.859593},{"code":"40608002004","name":"大字大行事幸神町","lat":33.604682,"lng":130.841262},{"code":"40608002005","name":"大字大行事熊本","lat":33.608331,"lng":130.848005},{"code":"40608002006","name":"大字大行事島台","lat":33.60776,"lng":130.850608},{"code":"40608002007","name":"大字大行事秋永","lat":33.602307,"lng":130.850154},{"code":"40608002008","name":"大字大行事梅田","lat":33.603016,"lng":130.855696},{"code":"40608002009","name":"大字大行事東白土","lat":33.605185,"lng":130.859508},{"code":"40608002010","name":"大字大行事根床","lat":33.596258,"lng":130.841949},{"code":"40608002011","name":"大字大行事西白土","lat":33.596139,"lng":130.847653},{"code":"40608002012","name":"大字大行事灰ノ木","lat":33.598998,"lng":130.853752},{"code":"40608002013","name":"大字大行事成光町住","lat":33.598916,"lng":130.858377},{"code":"40608002014","name":"大字大行事成光","lat":33.597167,"lng":130.863049},{"code":"40608002015","name":"大字大行事大峰","lat":33.590311,"lng":130.84111},{"code":"40608002016","name":"大字大行事福田","lat":33.590859,"lng":130.84544},{"code":"40608002017","name":"大字大行事上元松","lat":33.588678,"lng":130.848128},{"code":"40608002018","name":"大字大行事下元松","lat":33.591417,"lng":130.85123},{"code":"40608002019","name":"大字大行事安高","lat":33.594766,"lng":130.853784},{"code":"40608002020","name":"大字大行事森山","lat":33.591441,"lng":130.862367},{"code":"40608002021","name":"大字大行事小林","lat":33.587587,"lng":130.862119},{"code":"40608002022","name":"大字大行事東伊原","lat":33.583634,"lng":130.861932},{"code":"40608002023","name":"大字大行事小峰","lat":33.608977,"lng":130.842686}]}
