{"municipality":"40646","name":"築上郡上毛町","prefecture":"福岡県","source":{"dataset":"frogcat/japan-small-area","census":"平成27年国勢調査 小地域（e-Stat 統計LOD）","license":"MIT（リポジトリ）／政府統計の総合窓口(e-Stat)の利用規約（元データ・出典表記必要）","fetched":"2026-07-06"},"towns":[{"code":"40646001001","name":"大字宇野","lat":33.571108,"lng":131.153215},{"code":"40646001002","name":"大字宇野","lat":33.576792,"lng":131.15708},{"code":"40646001003","name":"大字宇野","lat":33.573534,"lng":131.161274},{"code":"40646002001","name":"大字垂水","lat":33.574401,"lng":131.165329},{"code":"40646002002","name":"大字垂水","lat":33.579229,"lng":131.167226},{"code":"40646002003","name":"大字垂水","lat":33.578887,"lng":131.170994},{"code":"40646002004","name":"大字垂水","lat":33.584785,"lng":131.166282},{"code":"406460030","name":"大字吉岡","lat":33.58981,"lng":131.161536},{"code":"406460040","name":"大字中村","lat":33.594271,"lng":131.158379},{"code":"406460050","name":"大字矢方","lat":33.56971,"lng":131.128697},{"code":"406460060","name":"大字緒方","lat":33.579716,"lng":131.137637},{"code":"40646007001","name":"大字成恒","lat":33.582498,"lng":131.143496},{"code":"40646007002","name":"大字成恒","lat":33.584075,"lng":131.148151},{"code":"406460080","name":"大字大ノ瀬","lat":33.58866,"lng":131.152588},{"code":"406460090","name":"大字八ツ並","lat":33.584109,"lng":131.155583},{"code":"40646010001","name":"大字安雲","lat":33.573675,"lng":131.146272},{"code":"40646010002","name":"大字安雲","lat":33.578821,"lng":131.150853},{"code":"40646011001","name":"大字尻高","lat":33.555035,"lng":131.126467},{"code":"40646011002","name":"大字尻高","lat":33.56738,"lng":131.138794},{"code":"40646011003","name":"大字尻高","lat":33.571349,"lng":131.137168},{"code":"40646011004","name":"大字尻高","lat":33.575124,"lng":131.139192},{"code":"406460120","name":"大字西友枝","lat":33.527739,"lng":131.10865},{"code":"406460130","name":"大字土佐井","lat":33.560411,"lng":131.148533},{"code":"406460140","name":"大字東下","lat":33.548453,"lng":131.159389},{"code":"406460150","name":"大字東上","lat":33.520485,"lng":131.13713},{"code":"406460160","name":"大字下唐原","lat":33.563724,"lng":131.172536},{"code":"406460170","name":"大字上唐原","lat":33.550731,"lng":131.178947},{"code":"406460180","name":"大字百留","lat":33.541283,"lng":131.178557},{"code":"406460190","name":"大字原井","lat":33.518772,"lng":131.164483}]}
