{"municipality":"41208","name":"小城市","prefecture":"佐賀県","source":{"dataset":"frogcat/japan-small-area","census":"平成27年国勢調査 小地域（e-Stat 統計LOD）","license":"MIT（リポジトリ）／政府統計の総合窓口(e-Stat)の利用規約（元データ・出典表記必要）","fetched":"2026-07-06"},"towns":[{"code":"41208001001","name":"小城町高原","lat":33.298369,"lng":130.207741},{"code":"41208001002","name":"小城町上町","lat":33.299763,"lng":130.203831},{"code":"41208001003","name":"小城町布施ケ里","lat":33.298828,"lng":130.201121},{"code":"41208001004","name":"小城町中町","lat":33.297311,"lng":130.202959},{"code":"41208001005","name":"小城町下町","lat":33.294942,"lng":130.200775},{"code":"41208001006","name":"小城町蛭子町","lat":33.293355,"lng":130.201169},{"code":"41208001007","name":"小城町鯖岡","lat":33.291522,"lng":130.20164},{"code":"41208001008","name":"小城町岡町","lat":33.291367,"lng":130.200675},{"code":"41208001009","name":"小城町正徳町","lat":33.288528,"lng":130.201337},{"code":"41208001010","name":"小城町朝日町","lat":33.286042,"lng":130.20124},{"code":"41208001011","name":"小城町大手町","lat":33.287818,"lng":130.200416},{"code":"41208001012","name":"小城町本町","lat":33.289624,"lng":130.197842},{"code":"41208001013","name":"小城町北小路","lat":33.293162,"lng":130.196711},{"code":"41208001014","name":"小城町西小路","lat":33.289922,"lng":130.193915},{"code":"41208001015","name":"小城町清水園","lat":33.300906,"lng":130.205918},{"code":"41208001016","name":"小城町東新町","lat":33.296121,"lng":130.205232},{"code":"41208002001","name":"小城町岩藏永泉寺","lat":33.310857,"lng":130.203444},{"code":"41208002002","name":"小城町岩藏二瀬川","lat":33.306916,"lng":130.199755},{"code":"41208002003","name":"小城町岩藏大日","lat":33.31701,"lng":130.195951},{"code":"41208002004","name":"小城町岩藏江里口","lat":33.314321,"lng":130.193591},{"code":"41208002005","name":"小城町岩藏馬場","lat":33.310758,"lng":130.186863},{"code":"41208002006","name":"小城町岩藏松本","lat":33.317701,"lng":130.189199},{"code":"41208002007","name":"小城町岩藏江里山","lat":33.332989,"lng":130.19314},{"code":"41208002008","name":"小城町岩藏石体","lat":33.329319,"lng":130.172281},{"code":"41208003001","name":"小城町松尾不二町","lat":33.29619,"lng":130.196677},{"code":"41208003002","name":"小城町松尾清水","lat":33.330063,"lng":130.211411},{"code":"41208003003","name":"小城町松尾原田","lat":33.320619,"lng":130.215647},{"code":"41208003004","name":"小城町松尾焼山","lat":33.319671,"lng":130.204394},{"code":"41208003005","name":"小城町松尾北浦","lat":33.307034,"lng":130.209457},{"code":"41208003006","name":"小城町松尾吉田","lat":33.300172,"lng":130.21045},{"code":"41208003007","name":"小城町松尾三間寺","lat":33.300175,"lng":130.199922},{"code":"41208003008","name":"小城町松尾住吉町","lat":33.296262,"lng":130.199114},{"code":"41208003009","name":"小城町松尾横町","lat":33.302216,"lng":130.202937},{"code":"41208003010","name":"小城町松尾松尾","lat":33.301609,"lng":130.195989},{"code":"41208003011","name":"小城町松尾雇用促進住宅","lat":33.297204,"lng":130.197689},{"code":"41208003012","name":"小城町松尾県営住宅","lat":33.298324,"lng":130.197635},{"code":"41208003013","name":"小城町松尾城栄町","lat":33.297606,"lng":130.196075},{"code":"41208004001","name":"小城町畑田不二町","lat":33.295296,"lng":130.195019},{"code":"41208004002","name":"小城町畑田砂田","lat":33.283235,"lng":130.192221},{"code":"41208004003","name":"小城町畑田畑田","lat":33.289592,"lng":130.190222},{"code":"41208004004","name":"小城町畑田下畑田","lat":33.286859,"lng":130.189102},{"code":"41208004005","name":"小城町畑田平原","lat":33.298026,"lng":130.192555},{"code":"41208004006","name":"小城町畑田鷺ノ原","lat":33.298517,"lng":130.18787},{"code":"41208004007","name":"小城町畑田西谷","lat":33.295291,"lng":130.185461},{"code":"41208004008","name":"小城町畑田荻ノ町","lat":33.29031,"lng":130.185006},{"code":"41208004009","name":"小城町畑田西新町","lat":33.292196,"lng":130.191615},{"code":"41208004010","name":"小城町畑田栄町","lat":33.294321,"lng":130.192178},{"code":"41208004011","name":"小城町畑田轡ケ里","lat":33.277236,"lng":130.193791},{"code":"41208005001","name":"小城町晴氣寺浦","lat":33.301634,"lng":130.181347},{"code":"41208005002","name":"小城町晴氣庄","lat":33.297102,"lng":130.175963},{"code":"41208005003","name":"小城町晴氣円光寺","lat":33.301464,"lng":130.1748},{"code":"41208005004","name":"小城町晴氣郷ノ木","lat":33.30709,"lng":130.174439},{"code":"41208005005","name":"小城町晴氣川原","lat":33.311187,"lng":130.173189},{"code":"41208005006","name":"小城町晴氣東小松","lat":33.317728,"lng":130.168459},{"code":"41208005007","name":"小城町晴氣中村","lat":33.313769,"lng":130.165377},{"code":"41208005008","name":"小城町晴氣本山","lat":33.311723,"lng":130.156373},{"code":"41208005009","name":"小城町晴氣中善寺","lat":33.302927,"lng":130.16388},{"code":"41208005010","name":"小城町晴氣西晴気","lat":33.29699,"lng":130.163483},{"code":"41208005011","name":"小城町晴氣松葉","lat":33.298498,"lng":130.168858},{"code":"41208005012","name":"小城町晴氣一本松","lat":33.293132,"lng":130.164},{"code":"41208005013","name":"小城町晴氣君ケ坂","lat":33.290713,"lng":130.164802},{"code":"41208005014","name":"小城町晴氣宿","lat":33.293063,"lng":130.174318},{"code":"41208005015","name":"小城町晴氣出分","lat":33.291307,"lng":130.179477},{"code":"41208005016","name":"小城町晴氣黒原","lat":33.286791,"lng":130.183078},{"code":"41208005017","name":"小城町晴氣川内","lat":33.326187,"lng":130.148848},{"code":"41208005018","name":"小城町晴氣弥生町","lat":33.292854,"lng":130.180699},{"code":"41208006001","name":"小城町池上西川","lat":33.271863,"lng":130.187092},{"code":"41208006002","name":"小城町池上山崎","lat":33.266908,"lng":130.180931},{"code":"41208006003","name":"小城町池上上右原","lat":33.277861,"lng":130.170551},{"code":"41208006004","name":"小城町池上下右原","lat":33.268975,"lng":130.174357},{"code":"41208006005","name":"小城町池上門前","lat":33.265219,"lng":130.189125},{"code":"41208006006","name":"小城町池上小島","lat":33.257189,"lng":130.190977},{"code":"41208006007","name":"小城町池上下久須","lat":33.258704,"lng":130.185571},{"code":"41208006008","name":"小城町池上牛尾","lat":33.25612,"lng":130.182299},{"code":"41208007001","name":"小城町栗原米ノ隈","lat":33.288895,"lng":130.173369},{"code":"41208007002","name":"小城町栗原峰","lat":33.284499,"lng":130.175672},{"code":"41208007003","name":"小城町栗原湯谷","lat":33.279878,"lng":130.177302},{"code":"41208007004","name":"小城町栗原坂井","lat":33.275709,"lng":130.181675},{"code":"41208008001","name":"小城町船田大江","lat":33.281753,"lng":130.185256},{"code":"41208008002","name":"小城町船田船田","lat":33.276664,"lng":130.18756},{"code":"41208008003","name":"小城町船田久蘇","lat":33.27137,"lng":130.195276},{"code":"41208009001","name":"三日月町織島東分","lat":33.316033,"lng":130.224707},{"code":"41208009002","name":"三日月町織島西分","lat":33.308377,"lng":130.2195},{"code":"41208009003","name":"三日月町織島岡本","lat":33.300772,"lng":130.215537},{"code":"41208009004","name":"三日月町織島杉町","lat":33.300799,"lng":130.220194},{"code":"41208009005","name":"三日月町織島大地町","lat":33.300382,"lng":130.225261},{"code":"41208009006","name":"三日月町織島今市","lat":33.302409,"lng":130.23087},{"code":"41208009007","name":"三日月町織島深川","lat":33.297356,"lng":130.231144},{"code":"41208009008","name":"三日月町織島赤司","lat":33.295261,"lng":130.225196},{"code":"41208009009","name":"三日月町織島袴田","lat":33.294066,"lng":130.218391},{"code":"41208010001","name":"三日月町道辺緑","lat":33.289515,"lng":130.226799},{"code":"41208010002","name":"三日月町道辺立物","lat":33.290967,"lng":130.234286},{"code":"41208010003","name":"三日月町道辺芦田","lat":33.285135,"lng":130.235845},{"code":"41208010004","name":"三日月町道辺道辺","lat":33.279159,"lng":130.237897},{"code":"412080110","name":"三日月町三ケ島","lat":33.28063,"lng":130.229113},{"code":"41208012001","name":"三日月町堀江堀江","lat":33.273482,"lng":130.239201},{"code":"41208012002","name":"三日月町堀江深町","lat":33.271754,"lng":130.231281},{"code":"41208012003","name":"三日月町堀江島溝","lat":33.267472,"lng":130.239869},{"code":"41208012004","name":"三日月町堀江四条","lat":33.266096,"lng":130.232829},{"code":"41208013001","name":"三日月町金田遠江","lat":33.261081,"lng":130.24016},{"code":"41208013002","name":"三日月町金田久本","lat":33.260009,"lng":130.232683},{"code":"41208013003","name":"三日月町金田社","lat":33.255016,"lng":130.239857},{"code":"41208013004","name":"三日月町金田金田","lat":33.257737,"lng":130.226129},{"code":"41208014001","name":"三日月町樋口江口","lat":33.256655,"lng":130.21997},{"code":"41208014002","name":"三日月町樋口立石","lat":33.263562,"lng":130.219041},{"code":"41208014003","name":"三日月町樋口江利","lat":33.269379,"lng":130.217521},{"code":"41208014004","name":"三日月町樋口五条","lat":33.264289,"lng":130.226249},{"code":"41208014005","name":"三日月町樋口樋口","lat":33.270611,"lng":130.224488},{"code":"41208015001","name":"三日月町長神田大寺","lat":33.275176,"lng":130.21603},{"code":"41208015002","name":"三日月町長神田初田","lat":33.276421,"lng":130.223019},{"code":"41208015003","name":"三日月町長神田佐織","lat":33.282381,"lng":130.221521},{"code":"41208015004","name":"三日月町長神田戌","lat":33.281031,"lng":130.214499},{"code":"41208015005","name":"三日月町長神田高田","lat":33.286948,"lng":130.213205},{"code":"41208015006","name":"三日月町長神田長神田","lat":33.2883,"lng":130.219863},{"code":"41208015007","name":"三日月町長神田仁俣","lat":33.279735,"lng":130.207518},{"code":"41208016001","name":"三日月町久米土生","lat":33.278477,"lng":130.200669},{"code":"41208016002","name":"三日月町久米甘木","lat":33.284389,"lng":130.198839},{"code":"41208016003","name":"三日月町久米久米","lat":33.285433,"lng":130.206189},{"code":"41208016004","name":"三日月町久米本告","lat":33.291516,"lng":130.204907},{"code":"41208016005","name":"三日月町久米吉原","lat":33.292912,"lng":130.21151},{"code":"412080170","name":"三日月町石木","lat":33.272639,"lng":130.202198},{"code":"412080180","name":"三日月町甲柳原","lat":33.273923,"lng":130.209054},{"code":"41208019001","name":"牛津町勝勝","lat":33.265639,"lng":130.196746},{"code":"41208019002","name":"牛津町勝高柳","lat":33.259723,"lng":130.19812},{"code":"41208019003","name":"牛津町勝大戸ヶ里","lat":33.252558,"lng":130.191723},{"code":"41208019004","name":"牛津町勝前満江","lat":33.249526,"lng":130.195354},{"code":"41208019005","name":"牛津町勝江津ヶ里","lat":33.254098,"lng":130.19968},{"code":"41208020001","name":"牛津町乙柳上江良","lat":33.266723,"lng":130.203521},{"code":"41208020002","name":"牛津町乙柳乙柳","lat":33.267982,"lng":130.210351},{"code":"41208020003","name":"牛津町乙柳生立ヶ里","lat":33.262232,"lng":130.211774},{"code":"41208020004","name":"牛津町乙柳下江良","lat":33.260908,"lng":130.204879},{"code":"41208021001","name":"牛津町柿樋瀬柿樋瀬","lat":33.252756,"lng":130.207323},{"code":"41208021002","name":"牛津町柿樋瀬練ヶ里","lat":33.253662,"lng":130.213988},{"code":"41208021003","name":"牛津町柿樋瀬西江津","lat":33.24612,"lng":130.196103},{"code":"41208021004","name":"牛津町柿樋瀬江津","lat":33.248363,"lng":130.200701},{"code":"41208022001","name":"牛津町牛津本町","lat":33.247525,"lng":130.20656},{"code":"41208022003","name":"牛津町牛津新町","lat":33.247168,"lng":130.19668},{"code":"41208022004","name":"牛津町牛津栄町","lat":33.247755,"lng":130.202747},{"code":"41208022005","name":"牛津町牛津天満町","lat":33.243642,"lng":130.207696},{"code":"41208022006","name":"牛津町牛津友田","lat":33.244057,"lng":130.201045},{"code":"41208023001","name":"牛津町上砥川内砥川","lat":33.233852,"lng":130.167826},{"code":"41208023002","name":"牛津町上砥川谷","lat":33.238133,"lng":130.175358},{"code":"41208023003","name":"牛津町上砥川両新村","lat":33.245565,"lng":130.18072},{"code":"41208023004","name":"牛津町上砥川砥川町","lat":33.245751,"lng":130.190953},{"code":"41208023005","name":"牛津町上砥川泉","lat":33.242009,"lng":130.183716},{"code":"41208023006","name":"牛津町上砥川宿古賀","lat":33.238031,"lng":130.18657},{"code":"41208023007","name":"牛津町上砥川新屋敷","lat":33.242246,"lng":130.191654},{"code":"41208024001","name":"牛津町下砥川寺町西上","lat":33.230667,"lng":130.180903},{"code":"41208024002","name":"牛津町下砥川蒲原","lat":33.227587,"lng":130.180886},{"code":"41208024003","name":"牛津町下砥川永田","lat":33.224165,"lng":130.186473},{"code":"41208024004","name":"牛津町下砥川柳鶴","lat":33.231783,"lng":130.186984},{"code":"41208025001","name":"芦刈町浜枝川八枝","lat":33.23807,"lng":130.196839},{"code":"41208025002","name":"芦刈町浜枝川浜中","lat":33.234841,"lng":130.203249},{"code":"41208025003","name":"芦刈町浜枝川高道","lat":33.229039,"lng":130.20776},{"code":"41208025004","name":"芦刈町浜枝川川越","lat":33.232421,"lng":130.193181},{"code":"41208026001","name":"芦刈町芦溝小路","lat":33.239005,"lng":130.213117},{"code":"41208026002","name":"芦刈町芦溝町分","lat":33.24442,"lng":130.214194},{"code":"41208026003","name":"芦刈町芦溝中溝","lat":33.240727,"lng":130.220157},{"code":"41208026004","name":"芦刈町芦溝舎人","lat":33.234553,"lng":130.210463},{"code":"41208027001","name":"芦刈町三王崎三条","lat":33.22619,"lng":130.197202},{"code":"41208027002","name":"芦刈町三王崎西戸崎","lat":33.218211,"lng":130.195201},{"code":"41208027003","name":"芦刈町三王崎東戸崎","lat":33.218793,"lng":130.202789},{"code":"41208027004","name":"芦刈町三王崎牛王","lat":33.222004,"lng":130.209894},{"code":"41208028001","name":"芦刈町下古賀下古賀","lat":33.228566,"lng":130.221231},{"code":"41208028002","name":"芦刈町下古賀新村","lat":33.215518,"lng":130.224427},{"code":"41208028003","name":"芦刈町下古賀昭和搦","lat":33.201518,"lng":130.232797},{"code":"41208029001","name":"芦刈町道免東道免","lat":33.229108,"lng":130.215912},{"code":"41208029002","name":"芦刈町道免西道免","lat":33.233416,"lng":130.215317},{"code":"41208029003","name":"芦刈町道免中村","lat":33.221759,"lng":130.214628},{"code":"41208029004","name":"芦刈町道免道免","lat":33.216789,"lng":130.218608},{"code":"41208029005","name":"芦刈町道免社搦","lat":33.203298,"lng":130.22324},{"code":"41208030001","name":"芦刈町永田弁財","lat":33.205402,"lng":130.209945},{"code":"41208030002","name":"芦刈町永田永田","lat":33.213663,"lng":130.212204},{"code":"41208030003","name":"芦刈町永田六丁","lat":33.21329,"lng":130.204486},{"code":"41208030004","name":"芦刈町永田住の江","lat":33.2006,"lng":130.202413}]}
