{"municipality":"41424","name":"杵島郡江北町","prefecture":"佐賀県","source":{"dataset":"frogcat/japan-small-area","census":"平成27年国勢調査 小地域（e-Stat 統計LOD）","license":"MIT（リポジトリ）／政府統計の総合窓口(e-Stat)の利用規約（元データ・出典表記必要）","fetched":"2026-07-06"},"towns":[{"code":"41424001001","name":"大字上小田岳","lat":33.233697,"lng":130.13203},{"code":"41424001002","name":"大字上小田鹿の口","lat":33.234325,"lng":130.136595},{"code":"41424001003","name":"大字上小田平山町","lat":33.23444,"lng":130.139552},{"code":"41424001004","name":"大字上小田日ノ出町","lat":33.230975,"lng":130.143534},{"code":"41424001005","name":"大字上小田仲町","lat":33.231119,"lng":130.14063},{"code":"41424001006","name":"大字上小田岩屋","lat":33.229815,"lng":130.138192},{"code":"41424001007","name":"大字上小田上区","lat":33.227144,"lng":130.13336},{"code":"41424001008","name":"大字上小田浪花町","lat":33.228843,"lng":130.14167},{"code":"41424001009","name":"大字上小田石原","lat":33.225637,"lng":130.145469},{"code":"41424001010","name":"大字上小田新町","lat":33.22713,"lng":130.141404},{"code":"41424001011","name":"大字上小田観音下","lat":33.220797,"lng":130.137967},{"code":"41424002001","name":"大字下小田東区","lat":33.211569,"lng":130.145681},{"code":"41424002002","name":"大字下小田大西","lat":33.211341,"lng":130.138631},{"code":"41424002003","name":"大字下小田南郷","lat":33.200004,"lng":130.141537},{"code":"41424003001","name":"大字山口白木","lat":33.240921,"lng":130.138226},{"code":"41424003002","name":"大字山口花祭","lat":33.243723,"lng":130.155707},{"code":"41424003003","name":"大字山口門前","lat":33.234553,"lng":130.14986},{"code":"41424003004","name":"大字山口土元","lat":33.225881,"lng":130.156465},{"code":"41424003005","name":"大字山口新宿","lat":33.219946,"lng":130.159593},{"code":"41424003006","name":"大字山口西分","lat":33.217045,"lng":130.150664},{"code":"41424003007","name":"大字山口東分","lat":33.21238,"lng":130.157064},{"code":"41424004001","name":"大字八町北区","lat":33.202197,"lng":130.152596},{"code":"41424004002","name":"大字八町中区","lat":33.194632,"lng":130.158357},{"code":"41424004003","name":"大字八町南区","lat":33.195019,"lng":130.15111},{"code":"41424005001","name":"大字惣領分上惣","lat":33.224653,"lng":130.174289},{"code":"41424005002","name":"大字惣領分下惣","lat":33.208484,"lng":130.178351},{"code":"41424005003","name":"大字惣領分馬場","lat":33.216842,"lng":130.179729},{"code":"41424005004","name":"大字惣領分祖子分","lat":33.21635,"lng":130.183215},{"code":"41424005005","name":"大字惣領分江口","lat":33.218231,"lng":130.187454},{"code":"41424005006","name":"大字惣領分正徳","lat":33.2103,"lng":130.192903},{"code":"41424006001","name":"大字佐留志宿","lat":33.223023,"lng":130.16695},{"code":"41424006002","name":"大字佐留志野口","lat":33.214436,"lng":130.175237},{"code":"41424006003","name":"大字佐留志下分","lat":33.205414,"lng":130.168634},{"code":"41424006004","name":"大字佐留志上分","lat":33.210407,"lng":130.163789}]}
