{"municipality":"42205","name":"大村市","prefecture":"長崎県","source":{"dataset":"frogcat/japan-small-area","census":"平成27年国勢調査 小地域（e-Stat 統計LOD）","license":"MIT（リポジトリ）／政府統計の総合窓口(e-Stat)の利用規約（元データ・出典表記必要）","fetched":"2026-07-06"},"towns":[{"code":"422051010","name":"木場","lat":32.901293,"lng":129.976101},{"code":"422051020","name":"木場","lat":32.908163,"lng":129.980705},{"code":"422051030","name":"向木場町","lat":32.904645,"lng":129.985671},{"code":"422051040","name":"須田ノ木町","lat":32.905149,"lng":129.971217},{"code":"422051050","name":"赤佐古町","lat":32.910274,"lng":129.97278},{"code":"422051060","name":"徳泉川内町","lat":32.914475,"lng":129.980969},{"code":"422051070","name":"水計町","lat":32.917456,"lng":129.97319},{"code":"422051080","name":"荒平町","lat":32.92139,"lng":129.983222},{"code":"422051090","name":"東大村","lat":32.923521,"lng":130.005265},{"code":"422051100","name":"東大村","lat":32.931369,"lng":129.999618},{"code":"422051150","name":"久原","lat":32.893667,"lng":129.961873},{"code":"422051160","name":"久原","lat":32.894933,"lng":129.972085},{"code":"422051170","name":"武部町","lat":32.911403,"lng":129.965913},{"code":"422051200","name":"三城町","lat":32.916978,"lng":129.965048},{"code":"422051210","name":"東三城町","lat":32.911129,"lng":129.959338},{"code":"422051220","name":"西三城町","lat":32.914219,"lng":129.959529},{"code":"422051230","name":"水主町","lat":32.907223,"lng":129.954056},{"code":"42205124010","name":"水主町２丁目","lat":32.909839,"lng":129.95581},{"code":"42205124011","name":"水主町２丁目","lat":32.909048,"lng":129.956454},{"code":"422051250","name":"東本町","lat":32.908015,"lng":129.961236},{"code":"422051260","name":"本町","lat":32.906668,"lng":129.959261},{"code":"422051270","name":"西本町","lat":32.905458,"lng":129.957413},{"code":"422051280","name":"幸町","lat":32.901521,"lng":129.954359},{"code":"422051300","name":"片町","lat":32.902659,"lng":129.960202},{"code":"422051310","name":"玖島","lat":32.897977,"lng":129.957168},{"code":"422051320","name":"玖島","lat":32.90162,"lng":129.965946},{"code":"42205133011","name":"玖島３丁目","lat":32.905903,"lng":129.964986},{"code":"42205133012","name":"玖島３丁目","lat":32.907839,"lng":129.966644},{"code":"422052010","name":"古賀島町","lat":32.928284,"lng":129.941538},{"code":"422052020","name":"森園町","lat":32.921335,"lng":129.93994},{"code":"422052030","name":"松山町","lat":32.914465,"lng":129.944672},{"code":"422052040","name":"協和町","lat":32.917354,"lng":129.946334},{"code":"422052050","name":"松並","lat":32.92073,"lng":129.951501},{"code":"422052060","name":"松並","lat":32.921975,"lng":129.947214},{"code":"42205207009","name":"杭出津１丁目","lat":32.911592,"lng":129.949466},{"code":"42205207010","name":"杭出津１丁目","lat":32.906033,"lng":129.946706},{"code":"42205208009","name":"杭出津２丁目","lat":32.914395,"lng":129.953323},{"code":"42205208010","name":"杭出津２丁目","lat":32.91287,"lng":129.954614},{"code":"422052090","name":"杭出津","lat":32.916479,"lng":129.951905},{"code":"42205210008","name":"水田町","lat":32.917087,"lng":129.957704},{"code":"42205210010","name":"水田町","lat":32.915374,"lng":129.957967},{"code":"422052110","name":"古町","lat":32.91872,"lng":129.955628},{"code":"422052120","name":"古町","lat":32.921539,"lng":129.956678},{"code":"422052130","name":"乾馬場町","lat":32.920076,"lng":129.960151},{"code":"422052140","name":"西乾馬場町","lat":32.925693,"lng":129.954975},{"code":"422052150","name":"西大村本町","lat":32.927094,"lng":129.952058},{"code":"422052160","name":"桜馬場","lat":32.92746,"lng":129.94956},{"code":"422052170","name":"桜馬場","lat":32.93205,"lng":129.949306},{"code":"422052180","name":"植松","lat":32.931129,"lng":129.959749},{"code":"422052190","name":"植松","lat":32.93012,"lng":129.956807},{"code":"422052200","name":"植松","lat":32.932977,"lng":129.955136},{"code":"422052210","name":"諏訪","lat":32.923087,"lng":129.963206},{"code":"422052220","name":"諏訪","lat":32.926874,"lng":129.961318},{"code":"422052230","name":"諏訪","lat":32.92456,"lng":129.958635},{"code":"422052240","name":"上諏訪町","lat":32.925662,"lng":129.976512},{"code":"422052250","name":"雄ケ原町","lat":32.936857,"lng":129.989455},{"code":"422052260","name":"池田新町","lat":32.927421,"lng":129.965711},{"code":"422052270","name":"池田","lat":32.930191,"lng":129.96546},{"code":"422052280","name":"池田","lat":32.933716,"lng":129.972389},{"code":"422052290","name":"坂口町","lat":32.937197,"lng":129.964369},{"code":"422052330","name":"箕島町","lat":32.915112,"lng":129.91475},{"code":"422053060","name":"西部町","lat":32.875457,"lng":129.975325},{"code":"422053070","name":"日泊町","lat":32.864545,"lng":129.989754},{"code":"422053080","name":"溝陸町","lat":32.851644,"lng":130.003708},{"code":"422053090","name":"今村町","lat":32.865327,"lng":130.005497},{"code":"422054060","name":"岩松町","lat":32.897847,"lng":129.989001},{"code":"422054070","name":"大里町","lat":32.879347,"lng":129.994451},{"code":"422054080","name":"陰平町","lat":32.884649,"lng":129.978719},{"code":"422054090","name":"中里町","lat":32.883605,"lng":130.004554},{"code":"422054100","name":"小川内町","lat":32.903013,"lng":130.001068},{"code":"422054110","name":"平町","lat":32.905421,"lng":130.010042},{"code":"422055070","name":"荒瀬町","lat":32.946173,"lng":129.967889},{"code":"422055080","name":"原町","lat":32.943502,"lng":129.982168},{"code":"422055090","name":"宮代町","lat":32.958422,"lng":129.988746},{"code":"422055100","name":"田下町","lat":32.951263,"lng":130.001942},{"code":"422055110","name":"中岳町","lat":32.958955,"lng":130.026283},{"code":"422055120","name":"黒木町","lat":32.979149,"lng":130.049993},{"code":"422056010","name":"宮小路","lat":32.946941,"lng":129.944805},{"code":"422056020","name":"宮小路","lat":32.951061,"lng":129.944185},{"code":"422056030","name":"宮小路","lat":32.954051,"lng":129.942122},{"code":"422056040","name":"今津町","lat":32.930016,"lng":129.934938},{"code":"422056050","name":"富の原","lat":32.938394,"lng":129.93625},{"code":"422056060","name":"富の原","lat":32.945442,"lng":129.936303},{"code":"422056070","name":"黒丸町","lat":32.95443,"lng":129.935068},{"code":"422056080","name":"竹松町","lat":32.952137,"lng":129.948176},{"code":"422056090","name":"鬼橋町","lat":32.94667,"lng":129.95556},{"code":"422056100","name":"小路口本町","lat":32.940767,"lng":129.956472},{"code":"422056110","name":"小路口町","lat":32.938505,"lng":129.95933},{"code":"422056120","name":"原口町","lat":32.935758,"lng":129.947208},{"code":"422056130","name":"竹松本町","lat":32.939441,"lng":129.949762},{"code":"422056140","name":"大川田町","lat":32.943299,"lng":129.946831},{"code":"422057110","name":"沖田町","lat":32.959241,"lng":129.941245},{"code":"422057120","name":"寿古町","lat":32.967245,"lng":129.93635},{"code":"422057130","name":"皆同町","lat":32.963368,"lng":129.946647},{"code":"422057140","name":"今富町","lat":32.95456,"lng":129.956165},{"code":"422057150","name":"野田町","lat":32.961376,"lng":129.972431},{"code":"422057160","name":"立福寺町","lat":32.965188,"lng":129.967007},{"code":"422057170","name":"弥勒寺町","lat":32.964647,"lng":129.957763},{"code":"422057180","name":"重井田町","lat":32.981156,"lng":130.000397},{"code":"422057190","name":"福重町","lat":32.966752,"lng":129.952774},{"code":"422057200","name":"草場町","lat":32.970924,"lng":129.951236},{"code":"422058070","name":"松原本町","lat":32.973971,"lng":129.943176},{"code":"422058080","name":"松原","lat":32.974776,"lng":129.951797},{"code":"422058090","name":"松原","lat":32.981771,"lng":129.952334},{"code":"422058100","name":"松原","lat":32.978667,"lng":129.959698},{"code":"422058110","name":"野岳町","lat":32.973538,"lng":129.968089},{"code":"422058120","name":"東野岳町","lat":32.982564,"lng":129.984478},{"code":"422058130","name":"武留路町","lat":32.986876,"lng":129.956972}]}
