{"municipality":"43208","name":"山鹿市","prefecture":"熊本県","source":{"dataset":"frogcat/japan-small-area","census":"平成27年国勢調査 小地域（e-Stat 統計LOD）","license":"MIT（リポジトリ）／政府統計の総合窓口(e-Stat)の利用規約（元データ・出典表記必要）","fetched":"2026-07-06"},"towns":[{"code":"432080010","name":"山鹿","lat":33.016255,"lng":130.691077},{"code":"432080020","name":"宗方","lat":33.010968,"lng":130.684348},{"code":"432080030","name":"新町","lat":33.018385,"lng":130.682404},{"code":"432080040","name":"泉町","lat":33.015774,"lng":130.685916},{"code":"432080050","name":"中央通","lat":33.01559,"lng":130.683861},{"code":"432080060","name":"昭和町","lat":33.013564,"lng":130.68646},{"code":"432080070","name":"大橋通","lat":33.012817,"lng":130.684829},{"code":"432080080","name":"宗方通","lat":33.012621,"lng":130.681808},{"code":"432080090","name":"川端町","lat":33.016034,"lng":130.679308},{"code":"432080100","name":"南島","lat":33.000152,"lng":130.690723},{"code":"432080110","name":"坂田","lat":32.995822,"lng":130.648978},{"code":"432080120","name":"小原","lat":32.999313,"lng":130.661379},{"code":"432080130","name":"志々岐","lat":33.00721,"lng":130.675585},{"code":"432080140","name":"長坂","lat":32.994756,"lng":130.703324},{"code":"432080150","name":"鍋田","lat":33.022604,"lng":130.658635},{"code":"432080160","name":"椿井","lat":33.017507,"lng":130.638902},{"code":"432080170","name":"西牧","lat":33.004976,"lng":130.650059},{"code":"432080180","name":"保多田","lat":33.011236,"lng":130.653468},{"code":"432080190","name":"麻生野","lat":33.017499,"lng":130.647631},{"code":"432080200","name":"熊入町","lat":33.027396,"lng":130.687283},{"code":"432080210","name":"石","lat":33.026491,"lng":130.676316},{"code":"432080220","name":"杉","lat":33.03626,"lng":130.683904},{"code":"432080230","name":"名塚","lat":33.03235,"lng":130.700104},{"code":"432080240","name":"下吉田","lat":33.025035,"lng":130.697074},{"code":"432080250","name":"城","lat":33.041806,"lng":130.667082},{"code":"432080260","name":"小群","lat":33.042525,"lng":130.65772},{"code":"432080270","name":"平山","lat":33.065228,"lng":130.651423},{"code":"432080280","name":"津留","lat":33.060041,"lng":130.684567},{"code":"432080290","name":"寺島","lat":33.051144,"lng":130.694934},{"code":"432080300","name":"小坂","lat":33.076154,"lng":130.718922},{"code":"432080310","name":"蒲生","lat":33.021923,"lng":130.739157},{"code":"432080320","name":"久原","lat":33.038906,"lng":130.722353},{"code":"432080330","name":"上吉田","lat":33.044907,"lng":130.707468},{"code":"432080340","name":"方保田","lat":33.001449,"lng":130.717325},{"code":"432080350","name":"古閑","lat":33.009055,"lng":130.710294},{"code":"432080360","name":"中","lat":33.013181,"lng":130.70169},{"code":"432080370","name":"藤井","lat":32.991877,"lng":130.732515},{"code":"43208038001","name":"鹿校通１丁目","lat":33.012813,"lng":130.704792},{"code":"43208038002","name":"鹿校通２丁目","lat":33.00943,"lng":130.704643},{"code":"43208038003","name":"鹿校通３丁目","lat":33.011145,"lng":130.70804},{"code":"43208038004","name":"鹿校通４丁目","lat":33.013415,"lng":130.709541},{"code":"432080390","name":"鹿北町岩野","lat":33.130681,"lng":130.683721},{"code":"432080400","name":"鹿北町椎持","lat":33.126318,"lng":130.728523},{"code":"432080410","name":"鹿北町多久","lat":33.108137,"lng":130.767725},{"code":"432080420","name":"鹿北町芋生","lat":33.086021,"lng":130.676411},{"code":"432080430","name":"鹿北町四丁","lat":33.096933,"lng":130.704916},{"code":"432080440","name":"菊鹿町矢谷","lat":33.092621,"lng":130.797251},{"code":"432080450","name":"菊鹿町上内田","lat":33.071352,"lng":130.803077},{"code":"432080460","name":"菊鹿町相良","lat":33.071227,"lng":130.767769},{"code":"432080470","name":"菊鹿町山内","lat":33.070119,"lng":130.749917},{"code":"432080480","name":"菊鹿町下内田","lat":33.032097,"lng":130.752905},{"code":"432080490","name":"菊鹿町下永野","lat":33.029086,"lng":130.773989},{"code":"432080500","name":"菊鹿町上永野","lat":33.049549,"lng":130.797238},{"code":"432080510","name":"菊鹿町五郎丸","lat":33.051761,"lng":130.783744},{"code":"432080520","name":"菊鹿町太田","lat":33.042761,"lng":130.770047},{"code":"432080530","name":"菊鹿町長","lat":33.048444,"lng":130.748471},{"code":"432080540","name":"菊鹿町木野","lat":33.006631,"lng":130.775357},{"code":"432080550","name":"菊鹿町米原","lat":33.005357,"lng":130.787376},{"code":"432080560","name":"菊鹿町松尾","lat":33.016882,"lng":130.79383},{"code":"432080570","name":"菊鹿町池永","lat":33.030238,"lng":130.793443},{"code":"432080580","name":"菊鹿町宮原","lat":33.038189,"lng":130.796855},{"code":"432080590","name":"菊鹿町阿佐古","lat":33.0455,"lng":130.801557},{"code":"432080600","name":"鹿本町来民","lat":33.001762,"lng":130.738779},{"code":"432080610","name":"鹿本町御宇田","lat":33.009311,"lng":130.733416},{"code":"432080620","name":"鹿本町高橋","lat":33.005306,"lng":130.754084},{"code":"432080630","name":"鹿本町津袋","lat":33.014057,"lng":130.755735},{"code":"432080640","name":"鹿本町庄","lat":33.012517,"lng":130.766224},{"code":"432080650","name":"鹿本町石渕","lat":32.995646,"lng":130.760119},{"code":"432080660","name":"鹿本町下高橋","lat":32.997814,"lng":130.752012},{"code":"432080670","name":"鹿本町小嶋","lat":32.994186,"lng":130.745651},{"code":"432080680","name":"鹿本町小柳","lat":32.989395,"lng":130.710293},{"code":"432080690","name":"鹿本町下分田","lat":32.987663,"lng":130.716831},{"code":"432080700","name":"鹿本町中分田","lat":32.985167,"lng":130.722786},{"code":"432080710","name":"鹿本町分田","lat":32.980896,"lng":130.725474},{"code":"432080720","name":"鹿本町中川","lat":32.981839,"lng":130.73565},{"code":"432080730","name":"鹿本町中富","lat":32.981483,"lng":130.743635},{"code":"432080740","name":"鹿本町梶屋","lat":32.986157,"lng":130.750148},{"code":"432080750","name":"鹿央町岩原","lat":32.990608,"lng":130.677703},{"code":"432080760","name":"鹿央町合里","lat":32.973589,"lng":130.662709},{"code":"432080770","name":"鹿央町持松","lat":32.983409,"lng":130.692802},{"code":"432080780","name":"鹿央町千田","lat":32.975984,"lng":130.702905},{"code":"432080790","name":"鹿央町広","lat":32.962407,"lng":130.684935},{"code":"432080800","name":"鹿央町中浦","lat":32.952005,"lng":130.637333},{"code":"432080810","name":"鹿央町大浦","lat":32.958279,"lng":130.642799},{"code":"432080820","name":"鹿央町梅木谷","lat":32.955915,"lng":130.648768},{"code":"432080830","name":"鹿央町北谷","lat":32.953035,"lng":130.656576},{"code":"432080840","name":"鹿央町仁王堂","lat":32.944902,"lng":130.660172},{"code":"432080850","name":"鹿央町霜野","lat":32.939796,"lng":130.649721}]}
