{"municipality":"43204","name":"荒尾市","prefecture":"熊本県","source":{"dataset":"frogcat/japan-small-area","census":"平成27年国勢調査 小地域（e-Stat 統計LOD）","license":"MIT（リポジトリ）／政府統計の総合窓口(e-Stat)の利用規約（元データ・出典表記必要）","fetched":"2026-07-06"},"towns":[{"code":"432040010","name":"原万田","lat":33.001276,"lng":130.447735},{"code":"432040020","name":"万田","lat":32.996366,"lng":130.440096},{"code":"432040030","name":"大島","lat":32.997237,"lng":130.423827},{"code":"432040040","name":"宮内出目","lat":32.99028,"lng":130.438851},{"code":"432040050","name":"宮内","lat":32.988367,"lng":130.446299},{"code":"432040060","name":"荒尾","lat":32.982282,"lng":130.449535},{"code":"43204007001","name":"大平町１丁目","lat":32.989235,"lng":130.436337},{"code":"43204007002","name":"大平町２丁目","lat":32.988457,"lng":130.437638},{"code":"43204007003","name":"大平町３丁目","lat":32.990132,"lng":130.438993},{"code":"432040080","name":"日の出町","lat":32.999422,"lng":130.431801},{"code":"43204009001","name":"四ツ山町１丁目","lat":33.004034,"lng":130.427463},{"code":"43204009002","name":"四ツ山町２丁目","lat":33.002953,"lng":130.429526},{"code":"43204009003","name":"四ツ山町３丁目","lat":33.004552,"lng":130.430602},{"code":"43204010001","name":"西原町１丁目","lat":33.002847,"lng":130.4348},{"code":"43204010002","name":"西原町２丁目","lat":33.003555,"lng":130.432883},{"code":"43204010003","name":"西原町３丁目","lat":33.001483,"lng":130.431987},{"code":"43204011003","name":"大島町３丁目","lat":32.998652,"lng":130.429766},{"code":"43204011004","name":"大島町４丁目","lat":32.997781,"lng":130.427806},{"code":"43204012001","name":"大正町１丁目","lat":32.996424,"lng":130.433665},{"code":"43204012002","name":"大正町２丁目","lat":32.99909,"lng":130.43416},{"code":"432040130","name":"昭和町","lat":32.996783,"lng":130.432049},{"code":"432040140","name":"上平山","lat":33.002305,"lng":130.511799},{"code":"432040150","name":"平山","lat":32.989973,"lng":130.502823},{"code":"432040160","name":"上井手","lat":32.997576,"lng":130.488083},{"code":"432040170","name":"本井手","lat":32.994447,"lng":130.474971},{"code":"432040180","name":"下井手","lat":32.995904,"lng":130.464069},{"code":"432040190","name":"府本","lat":32.978976,"lng":130.50705},{"code":"432040200","name":"樺","lat":32.968524,"lng":130.507499},{"code":"432040210","name":"金山","lat":32.952745,"lng":130.504562},{"code":"432040220","name":"菰屋","lat":32.956469,"lng":130.467986},{"code":"432040230","name":"野原","lat":32.956373,"lng":130.48655},{"code":"432040240","name":"川登","lat":32.97337,"lng":130.475711},{"code":"43204025001","name":"八幡台１丁目","lat":32.963095,"lng":130.484807},{"code":"43204025002","name":"八幡台２丁目","lat":32.964832,"lng":130.483306},{"code":"43204025003","name":"八幡台３丁目","lat":32.967687,"lng":130.482065},{"code":"43204025004","name":"八幡台４丁目","lat":32.967497,"lng":130.483976},{"code":"432040260","name":"蔵満","lat":32.961112,"lng":130.443974},{"code":"432040270","name":"一部","lat":32.967549,"lng":130.449337},{"code":"432040280","name":"増永","lat":32.972655,"lng":130.447124},{"code":"43204029001","name":"桜山町１丁目","lat":32.965436,"lng":130.453291},{"code":"43204029002","name":"桜山町２丁目","lat":32.965954,"lng":130.455654},{"code":"43204029003","name":"桜山町３丁目","lat":32.966272,"lng":130.458334},{"code":"43204029004","name":"桜山町４丁目","lat":32.965124,"lng":130.461107},{"code":"432040300","name":"牛水","lat":32.950011,"lng":130.443958},{"code":"432040310","name":"水野","lat":32.956367,"lng":130.45061},{"code":"432040320","name":"高浜","lat":32.945567,"lng":130.461352},{"code":"432040330","name":"住吉町","lat":32.991237,"lng":130.443442},{"code":"43204034001","name":"緑ヶ丘１丁目","lat":32.982654,"lng":130.470164},{"code":"43204034002","name":"緑ヶ丘２丁目","lat":32.984931,"lng":130.471216},{"code":"43204034003","name":"緑ヶ丘３丁目","lat":32.984959,"lng":130.473886},{"code":"43204034004","name":"緑ヶ丘４丁目","lat":32.985963,"lng":130.476289},{"code":"43204034005","name":"緑ヶ丘５丁目","lat":32.987091,"lng":130.4783},{"code":"43204035001","name":"東屋形１丁目","lat":32.984149,"lng":130.448756},{"code":"43204035002","name":"東屋形２丁目","lat":32.984455,"lng":130.451881},{"code":"43204035003","name":"東屋形３丁目","lat":32.983471,"lng":130.454462},{"code":"43204035004","name":"東屋形４丁目","lat":32.981333,"lng":130.453754}]}
