{"municipality":"43368","name":"玉名郡長洲町","prefecture":"熊本県","source":{"dataset":"frogcat/japan-small-area","census":"平成27年国勢調査 小地域（e-Stat 統計LOD）","license":"MIT（リポジトリ）／政府統計の総合窓口(e-Stat)の利用規約（元データ・出典表記必要）","fetched":"2026-07-06"},"towns":[{"code":"433680010","name":"大字長洲","lat":32.927115,"lng":130.44815},{"code":"433680020","name":"大字梅田","lat":32.940785,"lng":130.451552},{"code":"433680030","name":"大字高浜","lat":32.935771,"lng":130.458511},{"code":"433680040","name":"大字永塩","lat":32.941974,"lng":130.474741},{"code":"433680050","name":"大字宮野","lat":32.937092,"lng":130.484893},{"code":"433680060","name":"大字折崎","lat":32.926245,"lng":130.486772},{"code":"433680070","name":"大字清源寺","lat":32.921741,"lng":130.465505},{"code":"433680080","name":"大字腹赤","lat":32.921021,"lng":130.477191},{"code":"433680090","name":"大字上沖洲","lat":32.910507,"lng":130.474088},{"code":"433680100","name":"大字上沖洲","lat":32.90627,"lng":130.466108}]}
