{"municipality":"43428","name":"阿蘇郡高森町","prefecture":"熊本県","source":{"dataset":"frogcat/japan-small-area","census":"平成27年国勢調査 小地域（e-Stat 統計LOD）","license":"MIT（リポジトリ）／政府統計の総合窓口(e-Stat)の利用規約（元データ・出典表記必要）","fetched":"2026-07-06"},"towns":[{"code":"434280010","name":"大字色見","lat":32.860756,"lng":131.118651},{"code":"434280020","name":"大字上色見","lat":32.868155,"lng":131.153881},{"code":"434280030","name":"大字高森","lat":32.820958,"lng":131.132544},{"code":"434280040","name":"大字河原","lat":32.883131,"lng":131.226786},{"code":"434280050","name":"大字尾下","lat":32.857185,"lng":131.233554},{"code":"434280060","name":"大字津留","lat":32.844178,"lng":131.288752},{"code":"434280070","name":"大字野尻","lat":32.825987,"lng":131.248132},{"code":"434280080","name":"大字中","lat":32.836242,"lng":131.203198},{"code":"434280090","name":"大字矢津田","lat":32.8283,"lng":131.17524},{"code":"434280100","name":"大字草部","lat":32.796167,"lng":131.210868},{"code":"434280110","name":"大字下切","lat":32.800567,"lng":131.235722},{"code":"434280120","name":"大字永野原","lat":32.78039,"lng":131.231293},{"code":"434280130","name":"大字芹口","lat":32.773634,"lng":131.214919},{"code":"434280140","name":"大字菅山","lat":32.762529,"lng":131.224668}]}
