{"municipality":"43442","name":"上益城郡嘉島町","prefecture":"熊本県","source":{"dataset":"frogcat/japan-small-area","census":"平成27年国勢調査 小地域（e-Stat 統計LOD）","license":"MIT（リポジトリ）／政府統計の総合窓口(e-Stat)の利用規約（元データ・出典表記必要）","fetched":"2026-07-06"},"towns":[{"code":"434420010","name":"大字犬渕","lat":32.738502,"lng":130.701222},{"code":"434420020","name":"大字下仲間","lat":32.739651,"lng":130.717436},{"code":"43442003001","name":"大字上仲間上仲間","lat":32.743386,"lng":130.729959},{"code":"43442003003","name":"大字上仲間高田","lat":32.738012,"lng":130.738672},{"code":"43442004001","name":"大字鯰鯰","lat":32.748135,"lng":130.741677},{"code":"43442004002","name":"大字鯰滝河原","lat":32.743833,"lng":130.738801},{"code":"43442005001","name":"大字上島上島","lat":32.742481,"lng":130.753695},{"code":"43442005002","name":"大字上島","lat":32.741394,"lng":130.742002},{"code":"43442006001","name":"大字下六嘉下六嘉","lat":32.754188,"lng":130.766535},{"code":"43442006002","name":"大字下六嘉三郎無田","lat":32.758501,"lng":130.757638},{"code":"43442007001","name":"大字上六嘉上六嘉","lat":32.741676,"lng":130.768127},{"code":"43442007002","name":"大字上六嘉西村","lat":32.736417,"lng":130.764756},{"code":"434420080","name":"大字井寺","lat":32.753627,"lng":130.782264},{"code":"43442009001","name":"大字北甘木北甘木","lat":32.74497,"lng":130.781704},{"code":"43442009002","name":"大字北甘木","lat":32.749065,"lng":130.771274}]}
