{"municipality":"44212","name":"豊後大野市","prefecture":"大分県","source":{"dataset":"frogcat/japan-small-area","census":"平成27年国勢調査 小地域（e-Stat 統計LOD）","license":"MIT（リポジトリ）／政府統計の総合窓口(e-Stat)の利用規約（元データ・出典表記必要）","fetched":"2026-07-06"},"towns":[{"code":"442120010","name":"三重町菅生","lat":33.007715,"lng":131.621695},{"code":"442120020","name":"三重町井迫","lat":33.010718,"lng":131.6014},{"code":"442120030","name":"三重町浅瀬","lat":33.022129,"lng":131.609759},{"code":"442120040","name":"三重町宮野","lat":33.028622,"lng":131.627867},{"code":"442120050","name":"三重町川辺","lat":32.987219,"lng":131.557468},{"code":"442120060","name":"三重町百枝","lat":32.994977,"lng":131.580714},{"code":"442120070","name":"三重町上田原","lat":33.012123,"lng":131.589105},{"code":"442120080","name":"三重町西泉","lat":33.005028,"lng":131.574963},{"code":"442120090","name":"三重町向野","lat":33.005112,"lng":131.560395},{"code":"442120100","name":"三重町市場","lat":32.979332,"lng":131.582064},{"code":"442120110","name":"三重町秋葉","lat":32.964456,"lng":131.574519},{"code":"442120120","name":"三重町内山","lat":32.946397,"lng":131.579824},{"code":"442120130","name":"三重町内田","lat":32.972327,"lng":131.595008},{"code":"442120140","name":"三重町赤嶺","lat":32.98585,"lng":131.594983},{"code":"442120150","name":"三重町芦刈","lat":32.999042,"lng":131.6053},{"code":"442120160","name":"三重町小坂","lat":32.983477,"lng":131.633005},{"code":"442120170","name":"三重町松尾","lat":32.963242,"lng":131.62591},{"code":"442120180","name":"三重町鷲谷","lat":32.938714,"lng":131.611938},{"code":"442120190","name":"三重町西畑","lat":32.995422,"lng":131.64123},{"code":"442120200","name":"三重町山部","lat":32.923153,"lng":131.624092},{"code":"442120210","name":"三重町玉田","lat":32.980528,"lng":131.567181},{"code":"442120220","name":"三重町久田","lat":32.963098,"lng":131.544277},{"code":"442120230","name":"三重町小田","lat":32.938561,"lng":131.548071},{"code":"442120240","name":"三重町本城","lat":32.957204,"lng":131.558826},{"code":"442120250","name":"三重町大白谷","lat":32.869156,"lng":131.504767},{"code":"442120260","name":"三重町中津留","lat":32.89805,"lng":131.546506},{"code":"442120270","name":"三重町伏野","lat":32.928031,"lng":131.537872},{"code":"442120280","name":"三重町奥畑","lat":32.909107,"lng":131.57847},{"code":"442120290","name":"清川町天神","lat":32.96874,"lng":131.504209},{"code":"442120300","name":"清川町砂田","lat":32.970483,"lng":131.51545},{"code":"442120310","name":"清川町臼尾","lat":32.979463,"lng":131.534683},{"code":"442120320","name":"清川町雨堤","lat":32.968508,"lng":131.529733},{"code":"442120330","name":"清川町三玉","lat":32.95485,"lng":131.508569},{"code":"442120340","name":"清川町宇田枝","lat":32.930347,"lng":131.513339},{"code":"442120350","name":"清川町左右知","lat":32.90409,"lng":131.487696},{"code":"442120360","name":"清川町平石","lat":32.915622,"lng":131.476938},{"code":"442120370","name":"清川町六種","lat":32.933817,"lng":131.495377},{"code":"442120380","name":"清川町伏野","lat":32.932731,"lng":131.526503},{"code":"442120390","name":"清川町大白谷","lat":32.896877,"lng":131.50964},{"code":"442120400","name":"緒方町尾平鉱山","lat":32.822013,"lng":131.371656},{"code":"442120410","name":"緒方町上畑","lat":32.846424,"lng":131.423973},{"code":"442120420","name":"緒方町滞迫","lat":32.878048,"lng":131.454501},{"code":"442120430","name":"緒方町小原","lat":32.891744,"lng":131.423723},{"code":"442120440","name":"緒方町栗生","lat":32.904926,"lng":131.455803},{"code":"442120450","name":"緒方町上冬原","lat":32.915342,"lng":131.44143},{"code":"442120460","name":"緒方町徳田","lat":32.919277,"lng":131.430073},{"code":"442120470","name":"緒方町中野","lat":32.913831,"lng":131.414405},{"code":"442120480","name":"緒方町大石","lat":32.901357,"lng":131.405614},{"code":"442120490","name":"緒方町木野","lat":32.928532,"lng":131.412027},{"code":"442120500","name":"緒方町冬原","lat":32.927869,"lng":131.451539},{"code":"442120510","name":"緒方町下徳田","lat":32.931439,"lng":131.441359},{"code":"442120520","name":"緒方町柚木","lat":32.93485,"lng":131.432287},{"code":"442120530","name":"緒方町上年野","lat":32.945581,"lng":131.447568},{"code":"442120540","name":"緒方町小宛","lat":32.954028,"lng":131.428329},{"code":"442120550","name":"緒方町寺原","lat":32.942439,"lng":131.419039},{"code":"442120560","name":"緒方町草深野","lat":32.971062,"lng":131.432427},{"code":"442120570","name":"緒方町辻","lat":32.959365,"lng":131.443379},{"code":"442120580","name":"緒方町軸丸","lat":32.98169,"lng":131.449806},{"code":"442120590","name":"緒方町上自在","lat":32.969808,"lng":131.455308},{"code":"442120600","name":"緒方町下自在","lat":32.975076,"lng":131.467707},{"code":"442120610","name":"緒方町志賀","lat":32.983158,"lng":131.471264},{"code":"442120620","name":"緒方町馬場","lat":32.972463,"lng":131.477301},{"code":"442120630","name":"緒方町井上","lat":32.968145,"lng":131.489872},{"code":"442120640","name":"緒方町野尻","lat":32.976387,"lng":131.507117},{"code":"442120650","name":"緒方町越生","lat":32.977012,"lng":131.491081},{"code":"442120660","name":"緒方町夏足","lat":32.981383,"lng":131.488491},{"code":"442120670","name":"緒方町原尻","lat":32.958187,"lng":131.45253},{"code":"442120680","name":"緒方町久土知","lat":32.94881,"lng":131.458752},{"code":"442120690","name":"緒方町鮒川","lat":32.961217,"lng":131.468327},{"code":"442120700","name":"緒方町知田","lat":32.962706,"lng":131.48057},{"code":"442120710","name":"緒方町大化","lat":32.944868,"lng":131.471854},{"code":"442120720","name":"緒方町天神","lat":32.957425,"lng":131.49476},{"code":"442120730","name":"緒方町馬背畑","lat":32.941349,"lng":131.485083},{"code":"442120740","name":"緒方町平石","lat":32.925034,"lng":131.472867},{"code":"442120750","name":"朝地町梨小","lat":33.073554,"lng":131.430901},{"code":"442120760","name":"朝地町鳥田","lat":33.051189,"lng":131.440657},{"code":"442120770","name":"朝地町栗林","lat":33.041315,"lng":131.415927},{"code":"442120780","name":"朝地町綿田","lat":33.0246,"lng":131.402217},{"code":"442120790","name":"朝地町池田","lat":33.02134,"lng":131.445695},{"code":"442120800","name":"朝地町市万田","lat":33.012711,"lng":131.471584},{"code":"442120810","name":"朝地町板井迫","lat":33.009587,"lng":131.44091},{"code":"442120820","name":"朝地町朝地","lat":33.010033,"lng":131.419448},{"code":"442120830","name":"朝地町下野","lat":33.002403,"lng":131.456919},{"code":"442120840","name":"朝地町宮生","lat":32.993669,"lng":131.476217},{"code":"442120850","name":"朝地町上尾塚","lat":32.990277,"lng":131.433597},{"code":"442120860","name":"朝地町坪泉","lat":33.000478,"lng":131.429639},{"code":"442120870","name":"朝地町志賀","lat":32.992338,"lng":131.459872},{"code":"442120880","name":"大野町田中","lat":33.052734,"lng":131.488156},{"code":"442120890","name":"大野町藤北","lat":33.064654,"lng":131.499345},{"code":"442120900","name":"大野町宮迫","lat":33.047798,"lng":131.517575},{"code":"442120910","name":"大野町片島","lat":33.022951,"lng":131.531887},{"code":"442120920","name":"大野町田代","lat":33.029321,"lng":131.510657},{"code":"442120930","name":"大野町中原","lat":33.012163,"lng":131.515286},{"code":"442120940","name":"大野町酒井寺","lat":33.050916,"lng":131.472382},{"code":"442120950","name":"大野町屋原","lat":33.032467,"lng":131.48841},{"code":"442120960","name":"大野町桑原","lat":33.033774,"lng":131.471754},{"code":"442120970","name":"大野町北園","lat":33.033606,"lng":131.457414},{"code":"442120980","name":"大野町大原","lat":33.016858,"lng":131.487524},{"code":"442120990","name":"大野町郡山","lat":33.006688,"lng":131.498152},{"code":"442121000","name":"大野町両家","lat":32.999235,"lng":131.493153},{"code":"442121010","name":"大野町夏足","lat":32.987583,"lng":131.50176},{"code":"442121020","name":"大野町矢田","lat":32.994742,"lng":131.517828},{"code":"442121030","name":"大野町小倉木","lat":32.994028,"lng":131.540533},{"code":"442121040","name":"大野町十時","lat":33.06177,"lng":131.526239},{"code":"442121050","name":"大野町杉園","lat":33.041394,"lng":131.529416},{"code":"442121060","name":"大野町後田","lat":33.037952,"lng":131.555498},{"code":"442121070","name":"大野町代三五","lat":33.014338,"lng":131.54718},{"code":"442121080","name":"大野町長畑","lat":33.058792,"lng":131.546578},{"code":"442121090","name":"大野町中土師","lat":33.081365,"lng":131.540052},{"code":"442121100","name":"大野町安藤","lat":33.099872,"lng":131.553049},{"code":"442121110","name":"大野町沢田","lat":33.090551,"lng":131.518658},{"code":"442121120","name":"千歳町前田","lat":33.022575,"lng":131.575359},{"code":"442121130","name":"千歳町下山","lat":33.032943,"lng":131.589092},{"code":"442121140","name":"千歳町高畑","lat":33.030785,"lng":131.602039},{"code":"442121150","name":"千歳町柴山","lat":33.040095,"lng":131.618221},{"code":"442121160","name":"千歳町船田","lat":33.048186,"lng":131.575808},{"code":"442121170","name":"千歳町新殿","lat":33.04169,"lng":131.59734},{"code":"442121180","name":"千歳町石田","lat":33.053457,"lng":131.592775},{"code":"442121190","name":"千歳町長峰","lat":33.05162,"lng":131.610267},{"code":"442121200","name":"犬飼町長畑","lat":33.061027,"lng":131.560743},{"code":"442121210","name":"犬飼町山内","lat":33.067606,"lng":131.564416},{"code":"442121220","name":"犬飼町栗ケ畑","lat":33.085067,"lng":131.57202},{"code":"442121230","name":"犬飼町黒松","lat":33.078972,"lng":131.588815},{"code":"442121240","name":"犬飼町高津原","lat":33.083927,"lng":131.605405},{"code":"442121250","name":"犬飼町柴北","lat":33.062574,"lng":131.600232},{"code":"442121260","name":"犬飼町下津尾","lat":33.080349,"lng":131.623977},{"code":"442121270","name":"犬飼町犬飼","lat":33.072176,"lng":131.635388},{"code":"442121280","name":"犬飼町田原","lat":33.05855,"lng":131.632118},{"code":"442121290","name":"犬飼町大寒","lat":33.045538,"lng":131.642053},{"code":"442121300","name":"犬飼町柚野木","lat":33.049448,"lng":131.652509},{"code":"442121310","name":"犬飼町久原","lat":33.075559,"lng":131.645637},{"code":"442121320","name":"犬飼町西寒田","lat":33.082568,"lng":131.661374}]}
