{"municipality":"45402","name":"児湯郡新富町","prefecture":"宮崎県","source":{"dataset":"frogcat/japan-small-area","census":"平成27年国勢調査 小地域（e-Stat 統計LOD）","license":"MIT（リポジトリ）／政府統計の総合窓口(e-Stat)の利用規約（元データ・出典表記必要）","fetched":"2026-07-06"},"towns":[{"code":"45402001101","name":"富田１丁目","lat":32.068123,"lng":131.490085},{"code":"45402001102","name":"富田２丁目","lat":32.069478,"lng":131.491391},{"code":"45402001103","name":"富田３丁目","lat":32.071173,"lng":131.493528},{"code":"45402001201","name":"富田南１丁目","lat":32.066342,"lng":131.489206},{"code":"45402001202","name":"富田南２丁目","lat":32.065885,"lng":131.490834},{"code":"45402001203","name":"富田南３丁目","lat":32.065602,"lng":131.491998},{"code":"45402001204","name":"富田南４丁目","lat":32.063364,"lng":131.488484},{"code":"45402001301","name":"富田東１丁目","lat":32.068118,"lng":131.49306},{"code":"45402001302","name":"富田東２丁目","lat":32.070208,"lng":131.495266},{"code":"45402001303","name":"富田東３丁目","lat":32.067725,"lng":131.494713},{"code":"45402001304","name":"富田東４丁目","lat":32.069292,"lng":131.496302},{"code":"45402001401","name":"富田西１丁目","lat":32.068283,"lng":131.487733},{"code":"45402001402","name":"富田西２丁目","lat":32.066261,"lng":131.487361},{"code":"45402001403","name":"富田西３丁目","lat":32.06372,"lng":131.487041},{"code":"45402001601","name":"富田北１丁目","lat":32.072643,"lng":131.49528},{"code":"45402001602","name":"富田北２丁目","lat":32.070897,"lng":131.497142},{"code":"45402001701","name":"大字上富田富田町","lat":32.056172,"lng":131.466564},{"code":"45402001702","name":"大字上富田新馬場","lat":32.058413,"lng":131.473308},{"code":"45402001703","name":"大字上富田大渕","lat":32.053022,"lng":131.477171},{"code":"45402001704","name":"大字上富田田中","lat":32.061332,"lng":131.480634},{"code":"45402001705","name":"大字上富田上城元","lat":32.066173,"lng":131.471853},{"code":"45402001706","name":"大字上富田下城元","lat":32.066437,"lng":131.480398},{"code":"45402001707","name":"大字上富田八幡","lat":32.060593,"lng":131.484997},{"code":"45402001709","name":"大字上富田越馬場","lat":32.065632,"lng":131.494731},{"code":"45402001710","name":"大字上富田鬼付女","lat":32.060236,"lng":131.505383},{"code":"45402001711","name":"大字上富田下屋敷","lat":32.069103,"lng":131.484406},{"code":"45402001712","name":"大字上富田栗野田","lat":32.069104,"lng":131.486043},{"code":"45402001714","name":"大字上富田天井丸","lat":32.063722,"lng":131.485694},{"code":"45402001715","name":"大字上富田中ノ丸","lat":32.062724,"lng":131.489506},{"code":"45402001716","name":"大字上富田鉾田","lat":32.062542,"lng":131.4727},{"code":"45402001717","name":"大字上富田城元","lat":32.072377,"lng":131.470838},{"code":"45402002001","name":"大字下富田西五反田","lat":32.058563,"lng":131.495078},{"code":"45402002002","name":"大字下富田東五反田","lat":32.058688,"lng":131.501126},{"code":"45402002003","name":"大字下富田王子","lat":32.052713,"lng":131.499809},{"code":"45402002004","name":"大字下富田江梅瀬","lat":32.053218,"lng":131.491303},{"code":"45402002005","name":"大字下富田横江","lat":32.052891,"lng":131.483938},{"code":"45402002006","name":"大字下富田軍瀬","lat":32.058178,"lng":131.48492},{"code":"45402002007","name":"大字下富田二ツ立浦","lat":32.046503,"lng":131.486378},{"code":"45402002008","name":"大字下富田小島江","lat":32.055313,"lng":131.499536},{"code":"45402003001","name":"大字三納代平伊倉","lat":32.089638,"lng":131.473845},{"code":"45402003002","name":"大字三納代宮之首","lat":32.083932,"lng":131.472466},{"code":"45402003003","name":"大字三納代矢床","lat":32.086267,"lng":131.479533},{"code":"45402003004","name":"大字三納代奥","lat":32.082064,"lng":131.484072},{"code":"45402003005","name":"大字三納代弁指","lat":32.075655,"lng":131.48192},{"code":"45402003006","name":"大字三納代下三納代","lat":32.076623,"lng":131.493323},{"code":"45402003007","name":"大字三納代新町","lat":32.073237,"lng":131.499273},{"code":"45402003008","name":"大字三納代馬渡","lat":32.073646,"lng":131.497226},{"code":"45402003009","name":"大字三納代石川","lat":32.075118,"lng":131.499413},{"code":"45402003010","name":"大字三納代洗ノ元","lat":32.071259,"lng":131.502776},{"code":"45402003011","name":"大字三納代荒田","lat":32.07182,"lng":131.501601},{"code":"45402003012","name":"大字三納代荒田","lat":32.070857,"lng":131.498506},{"code":"45402004001","name":"大字日置今別府","lat":32.075617,"lng":131.503405},{"code":"45402004002","name":"大字日置岩脇","lat":32.077855,"lng":131.509039},{"code":"45402004003","name":"大字日置六反田","lat":32.07427,"lng":131.511093},{"code":"45402004004","name":"大字日置日之出","lat":32.080475,"lng":131.515963},{"code":"45402004005","name":"大字日置野中","lat":32.086897,"lng":131.515906},{"code":"45402004006","name":"大字日置上日置","lat":32.090296,"lng":131.497492},{"code":"45402004007","name":"大字日置迫分","lat":32.102564,"lng":131.488277},{"code":"45402004008","name":"大字日置中伏","lat":32.07402,"lng":131.506816},{"code":"45402004009","name":"大字日置池田","lat":32.072711,"lng":131.510889},{"code":"45402004010","name":"大字日置浜田","lat":32.070427,"lng":131.508384},{"code":"45402005001","name":"大字新田瀬口","lat":32.083363,"lng":131.409654},{"code":"45402005002","name":"大字新田竹渕","lat":32.078963,"lng":131.423449},{"code":"45402005003","name":"大字新田中村","lat":32.074513,"lng":131.426812},{"code":"45402005004","name":"大字新田山之坊","lat":32.077833,"lng":131.441931},{"code":"45402005005","name":"大字新田柳瀬","lat":32.06445,"lng":131.427062},{"code":"45402005006","name":"大字新田中須","lat":32.067207,"lng":131.428422},{"code":"45402005007","name":"大字新田麓","lat":32.073964,"lng":131.442922},{"code":"45402005008","name":"大字新田成法寺","lat":32.070422,"lng":131.446898},{"code":"45402005009","name":"大字新田溜水","lat":32.076005,"lng":131.457249},{"code":"45402005010","name":"大字新田新田新町","lat":32.065402,"lng":131.454214},{"code":"45402005011","name":"大字新田塚原","lat":32.065835,"lng":131.462692},{"code":"45402005012","name":"大字新田末永","lat":32.063042,"lng":131.445554},{"code":"45402005013","name":"大字新田舟津","lat":32.059434,"lng":131.450995},{"code":"45402005014","name":"大字新田上今町","lat":32.056302,"lng":131.455332},{"code":"45402005015","name":"大字新田下今町","lat":32.057384,"lng":131.461283},{"code":"45402005016","name":"大字新田大和","lat":32.068545,"lng":131.457042},{"code":"45402005017","name":"大字新田宮ケ平","lat":32.06608,"lng":131.455135},{"code":"45402005018","name":"大字新田岡馬","lat":32.074517,"lng":131.442342},{"code":"45402005019","name":"大字新田牧神","lat":32.075863,"lng":131.444233},{"code":"45402005020","name":"大字新田洗出","lat":32.072737,"lng":131.444366},{"code":"45402005021","name":"大字新田森延","lat":32.070088,"lng":131.442553},{"code":"45402005022","name":"大字新田平ノ前","lat":32.068326,"lng":131.447716},{"code":"45402006001","name":"大字新田祇園原","lat":32.102818,"lng":131.426457},{"code":"45402006002","name":"大字新田川床","lat":32.106274,"lng":131.434326},{"code":"45402006003","name":"大字新田黒坂","lat":32.112569,"lng":131.437438},{"code":"45402006004","name":"大字新田北畦原","lat":32.121333,"lng":131.448759},{"code":"45402006005","name":"大字新田東畦原","lat":32.115413,"lng":131.457171},{"code":"45402006006","name":"大字新田西畦原","lat":32.110493,"lng":131.446468},{"code":"45402006007","name":"大字新田三財原","lat":32.108419,"lng":131.460665},{"code":"45402006008","name":"大字新田湯風呂","lat":32.099932,"lng":131.471037},{"code":"45402006009","name":"大字新田湯之宮","lat":32.098137,"lng":131.456339},{"code":"45402006010","name":"大字新田一丁田","lat":32.102514,"lng":131.44371},{"code":"45402006011","name":"大字新田十文字","lat":32.091641,"lng":131.436092},{"code":"45402006012","name":"大字新田新田原","lat":32.090889,"lng":131.460405},{"code":"45402006013","name":"大字新田学園台","lat":32.10357,"lng":131.446872},{"code":"45402006014","name":"大字新田春日","lat":32.094005,"lng":131.422744},{"code":"45402006015","name":"大字新田新田原","lat":32.084711,"lng":131.451779},{"code":"45402006016","name":"大字新田瀬之口","lat":32.099038,"lng":131.449092},{"code":"45402006017","name":"大字新田前原","lat":32.105026,"lng":131.445962},{"code":"45402006018","name":"大字新田前原","lat":32.104979,"lng":131.446731},{"code":"45402006019","name":"大字新田上谷川","lat":32.100833,"lng":131.445405},{"code":"45402006020","name":"大字新田柳田","lat":32.098655,"lng":131.444419},{"code":"45402007001","name":"大字新田伊倉","lat":32.068215,"lng":131.436814},{"code":"45402007002","name":"大字伊倉桜木","lat":32.074246,"lng":131.43797}]}
