{"municipality":"46215","name":"薩摩川内市","prefecture":"鹿児島県","source":{"dataset":"frogcat/japan-small-area","census":"平成27年国勢調査 小地域（e-Stat 統計LOD）","license":"MIT（リポジトリ）／政府統計の総合窓口(e-Stat)の利用規約（元データ・出典表記必要）","fetched":"2026-07-06"},"towns":[{"code":"462150010","name":"向田町","lat":31.808862,"lng":130.310266},{"code":"462150020","name":"東向田町","lat":31.813642,"lng":130.308562},{"code":"462150030","name":"向田本町","lat":31.815834,"lng":130.305795},{"code":"462150040","name":"向田本町","lat":31.817131,"lng":130.306738},{"code":"462150050","name":"神田町","lat":31.813879,"lng":130.304444},{"code":"462150060","name":"若松町","lat":31.814017,"lng":130.301812},{"code":"462150070","name":"東開聞町","lat":31.817773,"lng":130.302708},{"code":"462150080","name":"西開聞町","lat":31.81643,"lng":130.298826},{"code":"462150090","name":"冷水町","lat":31.807515,"lng":130.29995},{"code":"462150100","name":"宮里町","lat":31.809006,"lng":130.276684},{"code":"462150110","name":"宮崎町","lat":31.79944,"lng":130.319914},{"code":"462150120","name":"勝目町","lat":31.782092,"lng":130.320133},{"code":"462150130","name":"山之口町","lat":31.7809,"lng":130.31295},{"code":"462150140","name":"川永野町","lat":31.767137,"lng":130.319055},{"code":"462150150","name":"木場茶屋町","lat":31.768293,"lng":130.305462},{"code":"462150160","name":"矢倉町","lat":31.786468,"lng":130.311132},{"code":"462150170","name":"尾白江町","lat":31.781542,"lng":130.304278},{"code":"462150180","name":"都町","lat":31.769416,"lng":130.293732},{"code":"462150190","name":"青山町","lat":31.778283,"lng":130.273916},{"code":"462150200","name":"中福良町","lat":31.789423,"lng":130.297819},{"code":"462150210","name":"隈之城町","lat":31.796887,"lng":130.299773},{"code":"462150221","name":"平佐","lat":31.815656,"lng":130.312683},{"code":"462150222","name":"平佐町","lat":31.81006,"lng":130.323276},{"code":"462150230","name":"横馬場町","lat":31.817052,"lng":130.309636},{"code":"462150240","name":"鳥追町","lat":31.813548,"lng":130.311369},{"code":"462150250","name":"白和町","lat":31.818681,"lng":130.308449},{"code":"462150260","name":"天辰町","lat":31.835166,"lng":130.330704},{"code":"462150270","name":"楠元町","lat":31.850577,"lng":130.341463},{"code":"462150280","name":"中村町","lat":31.840917,"lng":130.363817},{"code":"462150290","name":"久住町","lat":31.850432,"lng":130.384189},{"code":"462150300","name":"若葉町","lat":31.821772,"lng":130.300512},{"code":"462150310","name":"大王町","lat":31.824187,"lng":130.298463},{"code":"462150320","name":"花木町","lat":31.821386,"lng":130.298253},{"code":"462150330","name":"大小路町","lat":31.823208,"lng":130.304438},{"code":"462150340","name":"国分寺町","lat":31.836269,"lng":130.302096},{"code":"462150350","name":"御陵下町","lat":31.833209,"lng":130.295885},{"code":"462150360","name":"宮内町","lat":31.823846,"lng":130.290486},{"code":"462150370","name":"五代町","lat":31.831758,"lng":130.274835},{"code":"462150380","name":"上川内町","lat":31.841521,"lng":130.281003},{"code":"462150390","name":"中郷町","lat":31.845421,"lng":130.31111},{"code":"462150400","name":"田崎町","lat":31.816107,"lng":130.333235},{"code":"462150410","name":"水引町","lat":31.857354,"lng":130.241008},{"code":"462150420","name":"小倉町","lat":31.850967,"lng":130.258773},{"code":"462150430","name":"湯島町","lat":31.838595,"lng":130.234148},{"code":"462150440","name":"網津町","lat":31.870948,"lng":130.224405},{"code":"462150450","name":"港町","lat":31.853866,"lng":130.211034},{"code":"462150460","name":"百次町","lat":31.770668,"lng":130.342817},{"code":"462150470","name":"永利町","lat":31.802097,"lng":130.351543},{"code":"462150480","name":"久見崎町","lat":31.826716,"lng":130.209096},{"code":"462150490","name":"寄田町","lat":31.802134,"lng":130.191408},{"code":"462150500","name":"高江町","lat":31.805506,"lng":130.241832},{"code":"462150510","name":"白浜町","lat":31.858355,"lng":130.326684},{"code":"462150520","name":"田海町","lat":31.88615,"lng":130.316933},{"code":"462150530","name":"高城町","lat":31.854169,"lng":130.292404},{"code":"462150540","name":"陽成町","lat":31.883852,"lng":130.266695},{"code":"462150550","name":"城上町","lat":31.908855,"lng":130.287247},{"code":"462150560","name":"湯田町","lat":31.901506,"lng":130.24143},{"code":"462150570","name":"西方町","lat":31.918788,"lng":130.23219},{"code":"462150580","name":"東大小路町","lat":31.825366,"lng":130.311568},{"code":"462150590","name":"原田町","lat":31.828463,"lng":130.307699},{"code":"46215060001","name":"中郷１丁目","lat":31.831748,"lng":130.313198},{"code":"46215060002","name":"中郷２丁目","lat":31.834628,"lng":130.30958},{"code":"46215060003","name":"中郷３丁目","lat":31.836088,"lng":130.316248},{"code":"46215060004","name":"中郷４丁目","lat":31.838236,"lng":130.313089},{"code":"46215060005","name":"中郷５丁目","lat":31.840368,"lng":130.317912},{"code":"462150610","name":"樋脇町市比野","lat":31.761678,"lng":130.39526},{"code":"462150620","name":"樋脇町塔之原","lat":31.814827,"lng":130.390132},{"code":"462150630","name":"樋脇町倉野","lat":31.848546,"lng":130.401043},{"code":"462150640","name":"入来町副田","lat":31.82831,"lng":130.428785},{"code":"462150650","name":"入来町浦之名","lat":31.77337,"lng":130.456966},{"code":"462150660","name":"東郷町斧渕","lat":31.874278,"lng":130.353259},{"code":"462150670","name":"東郷町藤川","lat":31.941352,"lng":130.320534},{"code":"462150680","name":"東郷町宍野","lat":31.895075,"lng":130.330128},{"code":"462150690","name":"東郷町鳥丸","lat":31.911595,"lng":130.354234},{"code":"462150700","name":"東郷町山田","lat":31.899144,"lng":130.384275},{"code":"462150710","name":"東郷町南瀬","lat":31.86823,"lng":130.387795},{"code":"462150720","name":"祁答院町上手","lat":31.854518,"lng":130.524899},{"code":"462150730","name":"祁答院町藺牟田","lat":31.819647,"lng":130.49184},{"code":"462150740","name":"祁答院町下手","lat":31.873391,"lng":130.489044},{"code":"462150750","name":"祁答院町下手","lat":31.848552,"lng":130.476708},{"code":"462150760","name":"祁答院町黒木","lat":31.880665,"lng":130.548864},{"code":"462150770","name":"里町里","lat":31.840709,"lng":129.909325},{"code":"462150780","name":"上甑町中甑","lat":31.842169,"lng":129.86417},{"code":"462150790","name":"上甑町中野","lat":31.837467,"lng":129.878301},{"code":"462150800","name":"上甑町江石","lat":31.824375,"lng":129.879029},{"code":"462150810","name":"上甑町平良","lat":31.798687,"lng":129.827684},{"code":"462150820","name":"上甑町小島","lat":31.85622,"lng":129.864577},{"code":"462150830","name":"上甑町瀬上","lat":31.866728,"lng":129.857923},{"code":"462150840","name":"上甑町桑之浦","lat":31.859117,"lng":129.830547},{"code":"462150850","name":"下甑町瀬々野浦","lat":31.724191,"lng":129.728394},{"code":"462150860","name":"下甑町長浜","lat":31.711858,"lng":129.742846},{"code":"462150870","name":"下甑町瀬々野浦","lat":31.699254,"lng":129.704113},{"code":"462150880","name":"下甑町青瀬","lat":31.676306,"lng":129.720638},{"code":"462150890","name":"下甑町片野浦","lat":31.664766,"lng":129.691835},{"code":"462150900","name":"下甑町手打","lat":31.643986,"lng":129.695345},{"code":"462150910","name":"鹿島町藺牟田","lat":31.781531,"lng":129.790182},{"code":"462150920","name":"鹿島町藺牟田","lat":31.770044,"lng":129.792065},{"code":"462150930","name":"鹿島町藺牟田","lat":31.741981,"lng":129.769819}]}
