{"municipality":"46224","name":"伊佐市","prefecture":"鹿児島県","source":{"dataset":"frogcat/japan-small-area","census":"平成27年国勢調査 小地域（e-Stat 統計LOD）","license":"MIT（リポジトリ）／政府統計の総合窓口(e-Stat)の利用規約（元データ・出典表記必要）","fetched":"2026-07-06"},"towns":[{"code":"462240010","name":"大口里","lat":32.059516,"lng":130.608946},{"code":"462240020","name":"大口元町","lat":32.058171,"lng":130.608832},{"code":"462240030","name":"大口大田","lat":32.07737,"lng":130.603893},{"code":"462240040","name":"大口木ノ氏","lat":32.10763,"lng":130.652398},{"code":"462240050","name":"大口篠原","lat":32.080074,"lng":130.638791},{"code":"462240060","name":"大口篠原","lat":32.083762,"lng":130.679932},{"code":"462240070","name":"大口目丸","lat":32.059596,"lng":130.627888},{"code":"462240080","name":"大口原田","lat":32.047008,"lng":130.620417},{"code":"462240090","name":"大口鳥巣","lat":32.063034,"lng":130.590332},{"code":"462240100","name":"大口大島","lat":32.046224,"lng":130.597205},{"code":"462240110","name":"大口下殿","lat":32.033036,"lng":130.587591},{"code":"462240120","name":"大口堂崎","lat":32.030819,"lng":130.599156},{"code":"462240130","name":"大口金波田","lat":32.035518,"lng":130.606458},{"code":"462240140","name":"大口宮人","lat":32.023631,"lng":130.563799},{"code":"462240150","name":"大口曽木","lat":32.002343,"lng":130.592717},{"code":"462240160","name":"大口針持","lat":31.981507,"lng":130.57305},{"code":"462240170","name":"大口田代","lat":32.030532,"lng":130.513317},{"code":"462240180","name":"大口川岩瀬","lat":32.043603,"lng":130.542037},{"code":"462240190","name":"大口白木","lat":32.059373,"lng":130.551604},{"code":"462240200","name":"大口渕辺","lat":32.080374,"lng":130.585716},{"code":"462240210","name":"大口山野","lat":32.131372,"lng":130.574216},{"code":"462240220","name":"大口小木原","lat":32.123045,"lng":130.619417},{"code":"462240230","name":"大口牛尾","lat":32.103478,"lng":130.622609},{"code":"462240240","name":"大口小川内","lat":32.12367,"lng":130.514826},{"code":"462240250","name":"大口平出水","lat":32.082098,"lng":130.542236},{"code":"462240260","name":"大口上町","lat":32.061597,"lng":130.606966},{"code":"462240270","name":"菱刈南浦","lat":31.961393,"lng":130.632559},{"code":"462240280","name":"菱刈荒田","lat":31.992918,"lng":130.620217},{"code":"462240290","name":"菱刈川南","lat":31.980141,"lng":130.659845},{"code":"462240300","name":"菱刈川北","lat":31.992929,"lng":130.673893},{"code":"462240310","name":"菱刈徳辺","lat":32.025339,"lng":130.666233},{"code":"462240320","name":"菱刈前目","lat":32.012547,"lng":130.669563},{"code":"462240330","name":"菱刈下手","lat":32.022726,"lng":130.614084},{"code":"462240340","name":"菱刈花北","lat":32.036523,"lng":130.623786},{"code":"462240350","name":"菱刈重留","lat":32.029734,"lng":130.63415},{"code":"462240360","name":"菱刈田中","lat":32.036857,"lng":130.671617},{"code":"462240370","name":"菱刈市山","lat":32.054454,"lng":130.671977}]}
