{"municipality":"46404","name":"出水郡長島町","prefecture":"鹿児島県","source":{"dataset":"frogcat/japan-small-area","census":"平成27年国勢調査 小地域（e-Stat 統計LOD）","license":"MIT（リポジトリ）／政府統計の総合窓口(e-Stat)の利用規約（元データ・出典表記必要）","fetched":"2026-07-06"},"towns":[{"code":"464040010","name":"獅子島","lat":32.279627,"lng":130.238093},{"code":"464040020","name":"諸浦","lat":32.242083,"lng":130.173281},{"code":"464040030","name":"浦底","lat":32.198114,"lng":130.160171},{"code":"464040040","name":"鷹巣","lat":32.208571,"lng":130.18614},{"code":"464040050","name":"川床","lat":32.156905,"lng":130.175157},{"code":"464040060","name":"山門野","lat":32.119222,"lng":130.163423},{"code":"464040070","name":"平尾","lat":32.19087,"lng":130.136515},{"code":"464040080","name":"蔵之元","lat":32.18042,"lng":130.114626},{"code":"464040090","name":"指江","lat":32.161548,"lng":130.129396},{"code":"464040100","name":"城川内","lat":32.137396,"lng":130.128758},{"code":"464040110","name":"下山門野","lat":32.116824,"lng":130.145221}]}
