{"municipality":"46524","name":"大島郡宇検村","prefecture":"鹿児島県","source":{"dataset":"frogcat/japan-small-area","census":"平成27年国勢調査 小地域（e-Stat 統計LOD）","license":"MIT（リポジトリ）／政府統計の総合窓口(e-Stat)の利用規約（元データ・出典表記必要）","fetched":"2026-07-06"},"towns":[{"code":"465240010","name":"大字湯湾","lat":28.286938,"lng":129.309542},{"code":"465240020","name":"大字湯湾","lat":28.263655,"lng":129.328601},{"code":"465240030","name":"大字須古","lat":28.26922,"lng":129.290757},{"code":"465240040","name":"大字部連","lat":28.259689,"lng":129.275532},{"code":"465240050","name":"大字名柄","lat":28.248699,"lng":129.246697},{"code":"465240060","name":"大字佐念","lat":28.255052,"lng":129.221407},{"code":"465240070","name":"大字平田","lat":28.2529,"lng":129.20498},{"code":"465240080","name":"大字阿室","lat":28.250306,"lng":129.194497},{"code":"465240090","name":"大字屋鈍","lat":28.257378,"lng":129.172652},{"code":"465240100","name":"大字宇検","lat":28.304573,"lng":129.237664},{"code":"465240110","name":"大字久志","lat":28.287171,"lng":129.235172},{"code":"465240120","name":"大字生勝","lat":28.286472,"lng":129.247186},{"code":"465240130","name":"大字芦検","lat":28.294754,"lng":129.264129},{"code":"465240140","name":"大字田検","lat":28.296967,"lng":129.29584},{"code":"465240900","name":"大字屋鈍","lat":28.293667,"lng":129.199261}]}
