{"municipality":"46531","name":"大島郡天城町","prefecture":"鹿児島県","source":{"dataset":"frogcat/japan-small-area","census":"平成27年国勢調査 小地域（e-Stat 統計LOD）","license":"MIT（リポジトリ）／政府統計の総合窓口(e-Stat)の利用規約（元データ・出典表記必要）","fetched":"2026-07-06"},"towns":[{"code":"465310010","name":"大字与名間","lat":27.879234,"lng":128.898515},{"code":"465310020","name":"大字松原","lat":27.859701,"lng":128.912244},{"code":"465310030","name":"大字松原","lat":27.84768,"lng":128.905286},{"code":"465310040","name":"大字岡前","lat":27.842081,"lng":128.906064},{"code":"465310050","name":"大字岡前","lat":27.837171,"lng":128.902596},{"code":"465310060","name":"大字浅間","lat":27.828706,"lng":128.899521},{"code":"465310070","name":"大字天城","lat":27.816011,"lng":128.908305},{"code":"465310080","name":"大字平土野","lat":27.809615,"lng":128.893457},{"code":"465310090","name":"大字兼久","lat":27.801559,"lng":128.914492},{"code":"465310100","name":"大字大津川","lat":27.790531,"lng":128.907776},{"code":"465310110","name":"大字瀬滝","lat":27.779844,"lng":128.913006},{"code":"465310120","name":"大字当部","lat":27.788382,"lng":128.942431},{"code":"465310130","name":"大字西阿木名","lat":27.75639,"lng":128.927892},{"code":"465310140","name":"大字西阿木名","lat":27.769068,"lng":128.960116}]}
