{"municipality":"47350","name":"島尻郡南風原町","prefecture":"沖縄県","source":{"dataset":"frogcat/japan-small-area","census":"平成27年国勢調査 小地域（e-Stat 統計LOD）","license":"MIT（リポジトリ）／政府統計の総合窓口(e-Stat)の利用規約（元データ・出典表記必要）","fetched":"2026-07-06"},"towns":[{"code":"473500010","name":"字与那覇","lat":26.201026,"lng":127.742974},{"code":"473500020","name":"字宮城","lat":26.207584,"lng":127.739972},{"code":"473500030","name":"字大名","lat":26.209006,"lng":127.734561},{"code":"473500040","name":"字新川","lat":26.20951,"lng":127.728786},{"code":"473500050","name":"字宮平","lat":26.197464,"lng":127.734696},{"code":"473500060","name":"字兼城","lat":26.195582,"lng":127.726188},{"code":"473500070","name":"字本部","lat":26.19066,"lng":127.72399},{"code":"473500080","name":"字喜屋武","lat":26.18524,"lng":127.731699},{"code":"473500090","name":"字照屋","lat":26.184561,"lng":127.725217},{"code":"473500100","name":"字津嘉山","lat":26.187615,"lng":127.715998},{"code":"473500110","name":"字山川","lat":26.178168,"lng":127.723696},{"code":"473500120","name":"字神里","lat":26.174069,"lng":127.729851}]}
